timestamp,baro_alt_meter,baro_temp_celcius,baro_pressure_pa,rho
1398991267,-20.625946,38.25,101573.0,1.2068553
1399014688,-21.376366,38.25,101582.0,1.2069622
1399026258,-20.044636,38.25,101566.0,1.2067721
1399039082,-20.874325,38.25,101575.99,1.2068908
1399062214,-21.873121,38.239998,101588.0,1.2070335
1399074099,-20.12919,38.239998,101567.0,1.206784
1399084274,-20.625946,38.239998,101573.0,1.2068553
1401282290,-21.043432,38.219997,101578.0,1.2069147
1402199731,-20.541391,38.21,101572.0,1.2068434
1402210259,-21.455635,38.21,101582.99,1.206974
1402223932,-20.37757,38.21,101569.99,1.2068195
1402246257,-20.213745,38.21,101568.0,1.2067958
1402259963,-20.874325,38.21,101575.99,1.2068908
1402271707,-22.290607,38.21,101593.0,1.2070929
1402295686,-21.54019,38.21,101584.0,1.206986
1402307985,-20.462122,38.21,101571.0,1.2068315
1402319481,-21.122702,38.21,101579.0,1.2069266
1402343693,-22.454432,38.2,101594.99,1.2071166
1402354292,-21.291811,38.2,101581.0,1.2069503
1402366253,-19.960081,38.2,101565.0,1.2067602
1402390283,-19.880812,38.2,101563.99,1.2067482
1402402259,-21.376366,38.2,101582.0,1.2069622
1402415692,-22.290607,38.2,101593.0,1.2070929
1402440288,-20.874325,38.2,101575.99,1.2068908
1402451741,-22.036945,38.2,101590.0,1.2070572
1402462255,-20.625946,38.2,101573.0,1.2068553
1402484285,-20.7105,38.19,101574.0,1.2068671
1402495687,-21.207256,38.19,101580.0,1.2069384
1402506253,-21.957676,38.19,101588.99,1.2070453
1402533691,-20.541391,38.2,101572.0,1.2068434
1402545257,-20.625946,38.2,101573.0,1.2068553
1402556546,-21.207256,38.2,101580.0,1.2069384
1402580802,-21.54019,38.2,101584.0,1.206986
1402592496,-20.95888,38.2,101576.99,1.2069027
1402605289,-21.207256,38.2,101580.0,1.2069384
1402628782,-20.462122,38.2,101571.0,1.2068315
1402640745,-22.623539,38.2,101597.0,1.2071404
1402651255,-19.796259,38.2,101563.0,1.2067364
1402674253,-21.54019,38.19,101584.0,1.206986
1402685263,-21.54019,38.19,101584.0,1.206986
1402696532,-22.290607,38.19,101593.0,1.2070929
1402720621,-21.709297,38.19,101586.0,1.2070097
1402731259,-21.291811,38.19,101581.0,1.2069503
1402744280,-20.7105,38.19,101574.0,1.2068671
1402767258,-22.454432,38.2,101594.99,1.2071166
1402790269,-21.376366,38.2,101582.0,1.2069622
1402812780,-20.625946,38.2,101573.0,1.2068553
1402824471,-22.206053,38.2,101592.0,1.207081
1402835261,-19.711704,38.2,101562.0,1.2067245
1402858259,-21.207256,38.19,101580.0,1.2069384
1402869253,-21.207256,38.19,101580.0,1.2069384
1402880494,-22.70281,38.19,101598.0,1.2071524
1402904722,-21.207256,38.19,101580.0,1.2069384
1402917287,-21.043432,38.19,101578.0,1.2069147
1402928436,-20.293015,38.19,101569.0,1.2068077
1402952717,-21.291811,38.19,101581.0,1.2069503
1402963255,-20.37757,38.19,101569.99,1.2068195
1402974684,-20.95888,38.19,101576.99,1.2069027
1402997989,-22.206053,38.19,101592.0,1.207081
1403009384,-20.12919,38.19,101567.0,1.206784
1403022296,-20.625946,38.19,101573.0,1.2068553
1403045606,-21.873121,38.18,101588.0,1.2070335
1403057256,-20.462122,38.18,101571.0,1.2068315
1403069354,-22.1215,38.18,101591.0,1.2070692
1403093255,-20.625946,38.19,101573.0,1.2068553
1403105312,-21.54019,38.19,101584.0,1.206986
1403117991,-20.293015,38.19,101569.0,1.2068077
1403141628,-21.54019,38.18,101584.0,1.206986
1403152965,-21.207256,38.18,101580.0,1.2069384
1403165662,-19.880812,38.18,101563.99,1.2067482
1403209293,-21.873121,38.18,101588.0,1.2070335
1403233290,-21.455635,38.18,101582.99,1.206974
1403245575,-21.043432,38.18,101578.0,1.2069147
1403257525,-21.291811,38.18,101581.0,1.2069503
1403280932,-20.541391,38.19,101572.0,1.2068434
1403293408,-20.625946,38.19,101573.0,1.2068553
1403305376,-21.122702,38.19,101579.0,1.2069266
1403328941,-20.12919,38.18,101567.0,1.206784
1403342703,-22.871918,38.18,101600.0,1.2071761
1403353316,-21.291811,38.18,101581.0,1.2069503
1403377261,-21.291811,38.18,101581.0,1.2069503
1403390513,-20.7105,38.18,101574.0,1.2068671
1403401298,-22.70281,38.18,101598.0,1.2071524
1403426104,-20.7105,38.18,101574.0,1.2068671
1403436272,-21.873121,38.18,101588.0,1.2070335
1403450081,-22.623539,38.18,101597.0,1.2071404
1403472297,-21.122702,38.17,101579.0,1.2069266
1403484261,-22.290607,38.17,101593.0,1.2070929
1403497957,-19.880812,38.17,101563.99,1.2067482
1403522330,-21.873121,38.17,101588.0,1.2070335
1403534201,-21.043432,38.17,101578.0,1.2069147
1403544272,-22.538986,38.17,101596.0,1.2071285
1403575102,-21.376366,38.18,101582.0,1.2069622
1403586286,-22.454432,38.18,101594.99,1.2071166
1403598744,-20.795055,38.18,101575.0,1.206879
1403622402,-21.709297,38.17,101586.0,1.2070097
1403634144,-20.95888,38.17,101576.99,1.2069027
1403644260,-20.874325,38.17,101575.99,1.2068908
1403668271,-22.369877,38.17,101594.0,1.2071048
1403681771,-21.957676,38.17,101588.99,1.2070453
1403692261,-22.206053,38.17,101592.0,1.207081
1403716260,-19.960081,38.17,101565.0,1.2067602
1403730111,-20.625946,38.17,101573.0,1.2068553
1403742356,-20.541391,38.17,101572.0,1.2068434
1403766021,-22.369877,38.16,101594.0,1.2071048
1403778178,-20.293015,38.16,101569.0,1.2068077
1403790712,-20.293015,38.16,101569.0,1.2068077
1403812280,-19.880812,38.16,101563.99,1.2067482
1403826205,-19.711704,38.16,101562.0,1.2067245
1403836260,-22.036945,38.16,101590.0,1.2070572
1403860286,-21.122702,38.17,101579.0,1.2069266
1403871481,-21.455635,38.17,101582.99,1.206974
1403911511,-19.711704,38.16,101562.0,1.2067245
1403923273,-21.788567,38.16,101587.0,1.2070216
1403935263,-21.122702,38.16,101579.0,1.2069266
1403959016,-20.874325,38.17,101575.99,1.2068908
1403971126,-22.369877,38.17,101594.0,1.2071048
1403981259,-20.625946,38.17,101573.0,1.2068553
1404005262,-21.207256,38.16,101580.0,1.2069384
1404018913,-21.376366,38.16,101582.0,1.2069622
1404031693,-20.7105,38.16,101574.0,1.2068671
1404055316,-20.462122,38.16,101571.0,1.2068315
1404067257,-21.043432,38.16,101578.0,1.2069147
1404079605,-21.455635,38.16,101582.99,1.206974
1404106542,-20.12919,38.16,101567.0,1.206784
1404118996,-20.7105,38.16,101574.0,1.2068671
1404130883,-21.624743,38.16,101585.0,1.2069979
1404153270,-19.796259,38.16,101563.0,1.2067364
1404165259,-21.873121,38.16,101588.0,1.2070335
1404177339,-20.795055,38.16,101575.0,1.206879
1404213259,-20.044636,38.16,101566.0,1.2067721
1404227113,-20.293015,38.16,101569.0,1.2068077
1404250929,-21.122702,38.16,101579.0,1.2069266
1404263264,-20.541391,38.16,101572.0,1.2068434
1404273253,-22.538986,38.16,101596.0,1.2071285
1404295623,-22.623539,38.16,101597.0,1.2071404
1404307739,-20.625946,38.16,101573.0,1.2068553
1404320082,-21.455635,38.16,101582.99,1.206974
1404342253,-20.95888,38.16,101576.99,1.2069027
1404355350,-20.37757,38.16,101569.99,1.2068195
1404366312,-20.37757,38.16,101569.99,1.2068195
1404391683,-21.455635,38.149998,101582.99,1.206974
1404402270,-20.541391,38.149998,101572.0,1.2068434
1404414258,-21.455635,38.149998,101582.99,1.206974
1404440020,-21.122702,38.149998,101579.0,1.2069266
1404451792,-20.95888,38.149998,101576.99,1.2069027
1404463855,-20.213745,38.149998,101568.0,1.2067958
1404486255,-21.873121,38.149998,101588.0,1.2070335
1404500299,-19.796259,38.149998,101563.0,1.2067364
1404512938,-21.207256,38.149998,101580.0,1.2069384
1404536787,-20.95888,38.149998,101576.99,1.2069027
1404547357,-21.624743,38.149998,101585.0,1.2069979
1404558260,-22.787363,38.149998,101599.0,1.2071642
1404579758,-21.291811,38.149998,101581.0,1.2069503
1404593140,-21.624743,38.149998,101585.0,1.2069979
1404604292,-21.54019,38.149998,101584.0,1.206986
1404628297,-20.625946,38.16,101573.0,1.2068553
1404638349,-21.122702,38.16,101579.0,1.2069266
1404651322,-22.454432,38.16,101594.99,1.2071166
1404673272,-20.874325,38.149998,101575.99,1.2068908
1404683694,-20.625946,38.149998,101573.0,1.2068553
1404694257,-20.541391,38.149998,101572.0,1.2068434
1404720904,-22.1215,38.16,101591.0,1.2070692
1404732339,-20.625946,38.16,101573.0,1.2068553
1404744286,-20.795055,38.16,101575.0,1.206879
1404766259,-20.625946,38.16,101573.0,1.2068553
1404777261,-20.795055,38.16,101575.0,1.206879
1404788553,-21.207256,38.16,101580.0,1.2069384
1404826018,-20.7105,38.149998,101574.0,1.2068671
1404837259,-21.873121,38.149998,101588.0,1.2070335
1404860583,-20.37757,38.149998,101569.99,1.2068195
1404872424,-21.54019,38.149998,101584.0,1.206986
1404884758,-21.122702,38.149998,101579.0,1.2069266
1404908834,-21.376366,38.16,101582.0,1.2069622
1404920409,-22.206053,38.16,101592.0,1.207081
1404932798,-21.873121,38.16,101588.0,1.2070335
1404956515,-21.291811,38.149998,101581.0,1.2069503
1404968860,-20.795055,38.149998,101575.0,1.206879
1404979273,-20.795055,38.149998,101575.0,1.206879
1405003261,-20.95888,38.149998,101576.99,1.2069027
1405026270,-20.462122,38.149998,101571.0,1.2068315
1405047260,-20.541391,38.149998,101572.0,1.2068434
1405059256,-21.207256,38.149998,101580.0,1.2069384
1405071285,-20.795055,38.149998,101575.0,1.206879
1405092716,-20.12919,38.149998,101567.0,1.206784
1405105100,-20.795055,38.149998,101575.0,1.206879
1405116349,-22.538986,38.149998,101596.0,1.2071285
1405140507,-20.462122,38.149998,101571.0,1.2068315
1405151270,-21.957676,38.149998,101588.99,1.2070453
1405163260,-20.293015,38.149998,101569.0,1.2068077
1405186259,-20.37757,38.149998,101569.99,1.2068195
1405196558,-20.795055,38.149998,101575.0,1.206879
1405208155,-21.709297,38.149998,101586.0,1.2070097
1405233630,-20.462122,38.149998,101571.0,1.2068315
1405245339,-22.369877,38.149998,101594.0,1.2071048
1405258080,-19.54788,38.149998,101560.0,1.2067008
1405279259,-21.624743,38.149998,101585.0,1.2069979
1405289512,-21.873121,38.149998,101588.0,1.2070335
1405300668,-22.1215,38.149998,101591.0,1.2070692
1405325524,-21.043432,38.149998,101578.0,1.2069147
1405337577,-22.623539,38.149998,101597.0,1.2071404
1405349591,-21.624743,38.149998,101585.0,1.2069979
1405373540,-21.709297,38.14,101586.0,1.2070097
1405385189,-21.043432,38.14,101578.0,1.2069147
1405395256,-21.207256,38.14,101580.0,1.2069384
1405418701,-21.788567,38.149998,101587.0,1.2070216
1405429708,-22.871918,38.149998,101600.0,1.2071761
1405442940,-21.291811,38.149998,101581.0,1.2069503
1405466560,-20.541391,38.129997,101572.0,1.2068434
1405477601,-19.880812,38.129997,101563.99,1.2067482
1405490012,-20.462122,38.129997,101571.0,1.2068315
1405512551,-20.7105,38.14,101574.0,1.2068671
1405523583,-20.795055,38.14,101575.0,1.206879
1405538040,-20.795055,38.14,101575.0,1.206879
1405564927,-20.95888,38.14,101576.99,1.2069027
1405577341,-20.37757,38.14,101569.99,1.2068195
1405589557,-20.795055,38.14,101575.0,1.206879
1405637293,-20.625946,38.129997,101573.0,1.2068553
1405662719,-21.455635,38.129997,101582.99,1.206974
1405674273,-20.95888,38.129997,101576.99,1.2069027
1405686157,-20.044636,38.129997,101566.0,1.2067721
1405708262,-20.293015,38.129997,101569.0,1.2068077
1405722300,-20.462122,38.129997,101571.0,1.2068315
1405735236,-21.873121,38.129997,101588.0,1.2070335
1405757986,-20.95888,38.14,101576.99,1.2069027
1405769766,-22.787363,38.14,101599.0,1.2071642
1405780262,-20.293015,38.14,101569.0,1.2068077
1405806464,-22.787363,38.12,101599.0,1.2071642
1405818262,-20.541391,38.12,101572.0,1.2068434
1405852260,-19.711704,38.129997,101562.0,1.2067245
1405866980,-20.462122,38.129997,101571.0,1.2068315
1405878406,-19.960081,38.129997,101565.0,1.2067602
1405902009,-21.54019,38.129997,101584.0,1.206986
1405913743,-20.625946,38.129997,101573.0,1.2068553
1405924254,-21.957676,38.129997,101588.99,1.2070453
1405948342,-22.623539,38.12,101597.0,1.2071404
1405962336,-21.043432,38.12,101578.0,1.2069147
1405974418,-22.290607,38.12,101593.0,1.2070929
1405998593,-20.795055,38.12,101575.0,1.206879
1406010260,-21.957676,38.12,101588.99,1.2070453
1406022397,-20.213745,38.12,101568.0,1.2067958
1406044261,-21.043432,38.12,101578.0,1.2069147
1406058875,-21.957676,38.12,101588.99,1.2070453
1406069283,-22.951187,38.12,101600.99,1.2071879
1406093258,-20.37757,38.129997,101569.99,1.2068195
1406106875,-21.957676,38.129997,101588.99,1.2070453
1406118941,-20.7105,38.129997,101574.0,1.2068671
1406141269,-20.95888,38.12,101576.99,1.2069027
1406154910,-21.455635,38.12,101582.99,1.206974
1406165259,-20.12919,38.12,101567.0,1.206784
1406191320,-20.37757,38.12,101569.99,1.2068195
1406202885,-21.043432,38.12,101578.0,1.2069147
1406215189,-21.455635,38.12,101582.99,1.206974
1406237259,-21.873121,38.11,101588.0,1.2070335
1406251114,-19.62715,38.11,101561.0,1.2067127
1406261272,-19.62715,38.11,101561.0,1.2067127
1406285259,-19.711704,38.11,101562.0,1.2067245
1406298892,-20.874325,38.11,101575.99,1.2068908
1406309270,-22.206053,38.11,101592.0,1.207081
1406331271,-20.12919,38.11,101567.0,1.206784
1406341259,-20.625946,38.11,101573.0,1.2068553
1406354890,-20.625946,38.11,101573.0,1.2068553
1406378892,-19.796259,38.11,101563.0,1.2067364
1406390831,-20.37757,38.11,101569.99,1.2068195
1406401270,-21.709297,38.11,101586.0,1.2070097
1406425260,-20.293015,38.11,101569.0,1.2068077
1406476287,-20.37757,38.11,101569.99,1.2068195
1406491777,-20.795055,38.11,101575.0,1.206879
1406502253,-21.957676,38.11,101588.99,1.2070453
1406525261,-21.455635,38.11,101582.99,1.206974
1406535836,-20.625946,38.11,101573.0,1.2068553
1406546258,-19.62715,38.11,101561.0,1.2067127
1406570261,-22.206053,38.11,101592.0,1.207081
1406582259,-20.462122,38.11,101571.0,1.2068315
1406596179,-21.709297,38.11,101586.0,1.2070097
1406619992,-21.043432,38.11,101578.0,1.2069147
1406631717,-20.7105,38.11,101574.0,1.2068671
1406666281,-20.874325,38.1,101575.99,1.2068908
1406679709,-19.62715,38.1,101561.0,1.2067127
1406690257,-19.04584,38.1,101554.0,1.2066295
1406713259,-21.122702,38.11,101579.0,1.2069266
1406724973,-21.376366,38.11,101582.0,1.2069622
1406736286,-20.37757,38.11,101569.99,1.2068195
1406759725,-21.957676,38.11,101588.99,1.2070453
1406771615,-20.874325,38.11,101575.99,1.2068908
1406783794,-20.874325,38.11,101575.99,1.2068908
1406806256,-21.122702,38.1,101579.0,1.2069266
1406817259,-19.37877,38.1,101557.99,1.206677
1406828285,-20.044636,38.1,101566.0,1.2067721
1406851978,-21.624743,38.1,101585.0,1.2069979
1406863686,-20.625946,38.1,101573.0,1.2068553
1406874257,-20.795055,38.1,101575.0,1.206879
1406898259,-20.7105,38.1,101574.0,1.2068671
1406911902,-21.873121,38.1,101588.0,1.2070335
1406922258,-22.1215,38.1,101591.0,1.2070692
1406946270,-20.213745,38.1,101568.0,1.2067958
1406957272,-21.788567,38.1,101587.0,1.2070216
1406968296,-21.455635,38.1,101582.99,1.206974
1406992760,-20.37757,38.1,101569.99,1.2068195
1407004388,-22.1215,38.1,101591.0,1.2070692
1407016410,-20.293015,38.1,101569.0,1.2068077
1407039253,-21.788567,38.1,101587.0,1.2070216
1407051257,-22.951187,38.1,101600.99,1.2071879
1407064509,-20.213745,38.1,101568.0,1.2067958
1407088316,-20.95888,38.09,101576.99,1.2069027
1407099258,-20.625946,38.09,101573.0,1.2068553
1407117114,-21.54019,38.09,101584.0,1.206986
1407139260,-20.7105,38.09,101574.0,1.2068671
1407150260,-21.957676,38.09,101588.99,1.2070453
1407161259,-20.874325,38.09,101575.99,1.2068908
1407184496,-20.795055,38.1,101575.0,1.206879
1407197608,-20.874325,38.1,101575.99,1.2068908
1407209259,-22.1215,38.1,101591.0,1.2070692
1407231261,-21.043432,38.1,101578.0,1.2069147
1407243261,-20.541391,38.1,101572.0,1.2068434
1407255260,-19.960081,38.1,101565.0,1.2067602
1407277298,-20.213745,38.1,101568.0,1.2067958
1407288284,-20.462122,38.1,101571.0,1.2068315
1407298271,-21.291811,38.1,101581.0,1.2069503
1407321301,-21.957676,38.1,101588.99,1.2070453
1407333280,-20.213745,38.1,101568.0,1.2067958
1407344626,-19.880812,38.1,101563.99,1.2067482
1407368525,-21.376366,38.09,101582.0,1.2069622
1407379261,-19.711704,38.09,101562.0,1.2067245
1407390272,-20.293015,38.09,101569.0,1.2068077
1407412397,-22.1215,38.09,101591.0,1.2070692
1407425306,-21.455635,38.09,101582.99,1.206974
1407437894,-21.207256,38.09,101580.0,1.2069384
1407462323,-20.37757,38.09,101569.99,1.2068195
1407473277,-22.290607,38.09,101593.0,1.2070929
1407485950,-21.873121,38.09,101588.0,1.2070335
1407509884,-20.795055,38.09,101575.0,1.206879
1407521293,-21.043432,38.09,101578.0,1.2069147
1407533624,-19.37877,38.09,101557.99,1.206677
1407557194,-21.54019,38.079998,101584.0,1.206986
1407569633,-20.541391,38.079998,101572.0,1.2068434
1407581557,-22.787363,38.079998,101599.0,1.2071642
1407607094,-20.874325,38.09,101575.99,1.2068908
1407617305,-20.795055,38.09,101575.0,1.206879
1407634003,-20.37757,38.09,101569.99,1.2068195
1407657521,-22.206053,38.079998,101592.0,1.207081
1407669586,-20.7105,38.079998,101574.0,1.2068671
1407681491,-20.37757,38.079998,101569.99,1.2068195
1407704927,-20.213745,38.079998,101568.0,1.2067958
1407715447,-21.043432,38.079998,101578.0,1.2069147
1407729317,-21.043432,38.079998,101578.0,1.2069147
1407753275,-19.960081,38.079998,101565.0,1.2067602
1407765556,-21.376366,38.079998,101582.0,1.2069622
1407777365,-20.37757,38.079998,101569.99,1.2068195
1407801183,-20.95888,38.079998,101576.99,1.2069027
1407813791,-20.462122,38.079998,101571.0,1.2068315
1407825273,-21.122702,38.079998,101579.0,1.2069266
1407845665,-22.369877,38.079998,101594.0,1.2071048
1407857503,-21.376366,38.079998,101582.0,1.2069622
1407869593,-20.37757,38.079998,101569.99,1.2068195
1407892272,-20.95888,38.079998,101576.99,1.2069027
1407905725,-19.62715,38.079998,101561.0,1.2067127
1407916283,-20.874325,38.079998,101575.99,1.2068908
1407940260,-19.796259,38.079998,101563.0,1.2067364
1407952295,-20.625946,38.079998,101573.0,1.2068553
1407990690,-21.957676,38.07,101588.99,1.2070453
1408002263,-19.711704,38.07,101562.0,1.2067245
1408012253,-21.376366,38.07,101582.0,1.2069622
1408050994,-22.1215,38.07,101591.0,1.2070692
1408062822,-19.214947,38.07,101556.0,1.2066532
1408086399,-21.043432,38.07,101578.0,1.2069147
1408098323,-20.541391,38.07,101572.0,1.2068434
1408108260,-21.207256,38.07,101580.0,1.2069384
1408134259,-20.795055,38.07,101575.0,1.206879
1408144262,-20.12919,38.07,101567.0,1.206784
1408156263,-20.95888,38.07,101576.99,1.2069027
1408180270,-22.036945,38.07,101590.0,1.2070572
1408194087,-22.454432,38.07,101594.99,1.2071166
1408204260,-20.044636,38.07,101566.0,1.2067721
1408228311,-22.787363,38.07,101599.0,1.2071642
1408242107,-19.796259,38.07,101563.0,1.2067364
1408258968,-22.036945,38.07,101590.0,1.2070572
1408292260,-21.122702,38.059998,101579.0,1.2069266
1408304272,-21.291811,38.059998,101581.0,1.2069503
1408325256,-20.044636,38.07,101566.0,1.2067721
1408337259,-20.874325,38.07,101575.99,1.2068908
1408350935,-20.462122,38.07,101571.0,1.2068315
1408375939,-21.043432,38.07,101578.0,1.2069147
1408387264,-21.207256,38.07,101580.0,1.2069384
1408399194,-19.960081,38.07,101565.0,1.2067602
1408421270,-22.623539,38.059998,101597.0,1.2071404
1408434528,-19.880812,38.059998,101563.99,1.2067482
1408445296,-21.043432,38.059998,101578.0,1.2069147
1408471517,-20.462122,38.059998,101571.0,1.2068315
1408493259,-20.795055,38.059998,101575.0,1.206879
1408517255,-20.462122,38.059998,101571.0,1.2068315
1408531201,-22.369877,38.059998,101594.0,1.2071048
1408543570,-20.541391,38.059998,101572.0,1.2068434
1408565260,-21.043432,38.05,101578.0,1.2069147
1408578893,-20.462122,38.05,101571.0,1.2068315
1408589259,-21.455635,38.05,101582.99,1.206974
1408615210,-20.213745,38.059998,101568.0,1.2067958
1408626771,-21.455635,38.059998,101582.99,1.206974
1408639146,-20.95888,38.059998,101576.99,1.2069027
1408661269,-21.207256,38.059998,101580.0,1.2069384
1408675771,-21.624743,38.059998,101585.0,1.2069979
1408687263,-20.625946,38.059998,101573.0,1.2068553
1408709258,-21.54019,38.059998,101584.0,1.206986
1408722772,-20.541391,38.059998,101572.0,1.2068434
1408735489,-22.70281,38.059998,101598.0,1.2071524
1408759730,-22.538986,38.05,101596.0,1.2071285
1408770255,-22.290607,38.05,101593.0,1.2070929
1408783921,-20.37757,38.05,101569.99,1.2068195
1408807718,-21.207256,38.05,101580.0,1.2069384
1408819808,-20.541391,38.05,101572.0,1.2068434
1408830270,-21.207256,38.05,101580.0,1.2069384
1408853270,-20.95888,38.05,101576.99,1.2069027
1408863836,-21.207256,38.05,101580.0,1.2069384
1408874253,-20.541391,38.05,101572.0,1.2068434
1408896589,-21.207256,38.05,101580.0,1.2069384
1408908622,-21.957676,38.05,101588.99,1.2070453
1408920600,-20.541391,38.05,101572.0,1.2068434
1408943935,-21.54019,38.059998,101584.0,1.206986
1408956085,-20.293015,38.059998,101569.0,1.2068077
1408967386,-20.293015,38.059998,101569.0,1.2068077
1408992285,-18.96657,38.05,101553.0,1.2066176
1409004016,-20.462122,38.05,101571.0,1.2068315
1409015710,-22.70281,38.05,101598.0,1.2071524
1409038271,-19.796259,38.05,101563.0,1.2067364
1409050354,-21.54019,38.05,101584.0,1.206986
1409063951,-20.213745,38.05,101568.0,1.2067958
1409086291,-20.95888,38.04,101576.99,1.2069027
1409098256,-20.12919,38.04,101567.0,1.206784
1409111942,-21.455635,38.04,101582.99,1.206974
1409135337,-20.462122,38.05,101571.0,1.2068315
1409146262,-20.95888,38.05,101576.99,1.2069027
1409158270,-21.709297,38.05,101586.0,1.2070097
1409180029,-20.462122,38.05,101571.0,1.2068315
1409191769,-20.541391,38.05,101572.0,1.2068434
1409204002,-21.122702,38.05,101579.0,1.2069266
1409227273,-20.213745,38.04,101568.0,1.2067958
1409240698,-21.376366,38.04,101582.0,1.2069622
1409253260,-21.291811,38.04,101581.0,1.2069503
1409277566,-21.455635,38.04,101582.99,1.206974
1409289261,-20.541391,38.04,101572.0,1.2068434
1409301177,-20.625946,38.04,101573.0,1.2068553
1409323270,-19.960081,38.03,101565.0,1.2067602
1409334253,-19.960081,38.03,101565.0,1.2067602
1409345259,-21.122702,38.03,101579.0,1.2069266
1409368552,-22.290607,38.04,101593.0,1.2070929
1409380693,-19.711704,38.04,101562.0,1.2067245
1409392677,-20.12919,38.04,101567.0,1.206784
1409416758,-19.880812,38.04,101563.99,1.2067482
1409428781,-20.462122,38.04,101571.0,1.2068315
1409440759,-20.95888,38.04,101576.99,1.2069027
1409464547,-20.95888,38.04,101576.99,1.2069027
1409475257,-22.290607,38.04,101593.0,1.2070929
1409488654,-21.207256,38.04,101580.0,1.2069384
1409512529,-22.538986,38.04,101596.0,1.2071285
1409523257,-20.044636,38.04,101566.0,1.2067721
1409536536,-20.541391,38.04,101572.0,1.2068434
1409559260,-19.796259,38.03,101563.0,1.2067364
1409571258,-19.711704,38.03,101562.0,1.2067245
1409582317,-20.213745,38.03,101568.0,1.2067958
1409603270,-20.874325,38.03,101575.99,1.2068908
1409615253,-21.54019,38.03,101584.0,1.206986
1409626258,-22.036945,38.03,101590.0,1.2070572
1409661519,-20.874325,38.04,101575.99,1.2068908
1409673688,-21.54019,38.04,101584.0,1.206986
1409697583,-22.1215,38.03,101591.0,1.2070692
1409709357,-21.376366,38.03,101582.0,1.2069622
1409721976,-19.62715,38.03,101561.0,1.2067127
1409743270,-21.957676,38.03,101588.99,1.2070453
1409753601,-21.455635,38.03,101582.99,1.206974
1409764961,-21.788567,38.03,101587.0,1.2070216
1409789255,-20.625946,38.03,101573.0,1.2068553
1409802057,-20.541391,38.03,101572.0,1.2068434
1409813601,-21.043432,38.03,101578.0,1.2069147
1409837581,-20.874325,38.03,101575.99,1.2068908
1409849613,-21.376366,38.03,101582.0,1.2069622
1409861347,-20.874325,38.03,101575.99,1.2068908
1409885484,-23.120296,38.03,101603.0,1.2072117
1409898394,-20.7105,38.03,101574.0,1.2068671
1409909358,-21.873121,38.03,101588.0,1.2070335
1409933102,-20.541391,38.02,101572.0,1.2068434
1409945704,-20.12919,38.02,101567.0,1.206784
1409956984,-21.957676,38.02,101588.99,1.2070453
1409980956,-21.376366,38.03,101582.0,1.2069622
1409991281,-20.293015,38.03,101569.0,1.2068077
1410002843,-20.95888,38.03,101576.99,1.2069027
1410026326,-22.290607,38.03,101593.0,1.2070929
1410037305,-20.462122,38.03,101571.0,1.2068315
1410047341,-20.37757,38.03,101569.99,1.2068195
1410069385,-20.37757,38.03,101569.99,1.2068195
1410081601,-20.293015,38.03,101569.0,1.2068077
1410092934,-20.462122,38.03,101571.0,1.2068315
1410118101,-21.291811,38.03,101581.0,1.2069503
1410130843,-20.625946,38.03,101573.0,1.2068553
1410141717,-20.044636,38.03,101566.0,1.2067721
1410165977,-20.541391,38.02,101572.0,1.2068434
1410178246,-22.871918,38.02,101600.0,1.2071761
1410190121,-21.122702,38.02,101579.0,1.2069266
1410214123,-21.043432,38.02,101578.0,1.2069147
1410226393,-20.795055,38.02,101575.0,1.206879
1410238271,-20.293015,38.02,101569.0,1.2068077
1410262084,-21.376366,38.02,101582.0,1.2069622
1410272273,-20.874325,38.02,101575.99,1.2068908
1410286082,-19.62715,38.02,101561.0,1.2067127
1410310262,-21.207256,38.01,101580.0,1.2069384
1410322393,-20.37757,38.01,101569.99,1.2068195
1410334113,-21.709297,38.01,101586.0,1.2070097
1410358111,-21.376366,38.01,101582.0,1.2069622
1410368262,-21.54019,38.01,101584.0,1.206986
1410380272,-21.624743,38.01,101585.0,1.2069979
1410404264,-19.880812,38.01,101563.99,1.2067482
1410415278,-20.293015,38.01,101569.0,1.2068077
1410426391,-20.293015,38.01,101569.0,1.2068077
1410455261,-21.624743,38.01,101585.0,1.2069979
1410466599,-20.293015,38.01,101569.0,1.2068077
1410478272,-21.122702,38.01,101579.0,1.2069266
1410502907,-21.788567,38.01,101587.0,1.2070216
1410515195,-21.788567,38.01,101587.0,1.2070216
1410527185,-20.462122,38.01,101571.0,1.2068315
1410549269,-21.624743,38.0,101585.0,1.2069979
1410560289,-19.960081,38.0,101565.0,1.2067602
1410571785,-21.709297,38.0,101586.0,1.2070097
1410595234,-20.293015,38.01,101569.0,1.2068077
1410607185,-21.455635,38.01,101582.99,1.206974
1410617258,-21.122702,38.01,101579.0,1.2069266
1410641260,-22.454432,38.0,101594.99,1.2071166
1410665259,-21.043432,38.0,101578.0,1.2069147
1410689272,-21.957676,38.0,101588.99,1.2070453
1410702917,-20.625946,38.0,101573.0,1.2068553
1410713272,-21.122702,38.0,101579.0,1.2069266
1410737339,-21.455635,38.01,101582.99,1.206974
1410752798,-21.376366,38.01,101582.0,1.2069622
1410764289,-21.291811,38.01,101581.0,1.2069503
1410786837,-21.709297,38.01,101586.0,1.2070097
1410798990,-21.709297,38.01,101586.0,1.2070097
1410809259,-22.70281,38.01,101598.0,1.2071524
1410835215,-21.957676,38.0,101588.99,1.2070453
1410846860,-22.369877,38.0,101594.0,1.2071048
1410857284,-21.376366,38.0,101582.0,1.2069622
1410883769,-21.455635,38.0,101582.99,1.206974
1410895267,-19.960081,38.0,101565.0,1.2067602
1410907236,-19.880812,38.0,101563.99,1.2067482
1410930271,-21.788567,38.0,101587.0,1.2070216
1410943795,-21.624743,38.0,101585.0,1.2069979
1410957715,-22.1215,38.0,101591.0,1.2070692
1410980285,-22.538986,37.989998,101596.0,1.2071285
1410991732,-22.206053,37.989998,101592.0,1.207081
1411004098,-23.120296,37.989998,101603.0,1.2072117
1411025342,-20.7105,37.989998,101574.0,1.2068671
1411036286,-20.213745,37.989998,101568.0,1.2067958
1411047701,-21.54019,37.989998,101584.0,1.206986
1411071692,-21.624743,38.0,101585.0,1.2069979
1411084631,-21.207256,38.0,101580.0,1.2069384
1411095876,-22.70281,38.0,101598.0,1.2071524
1411118258,-21.376366,37.989998,101582.0,1.2069622
1411130261,-21.291811,37.989998,101581.0,1.2069503
1411143685,-22.871918,37.989998,101600.0,1.2071761
1411167339,-20.541391,37.989998,101572.0,1.2068434
1411180734,-19.960081,37.989998,101565.0,1.2067602
1411191387,-20.541391,37.989998,101572.0,1.2068434
1411215699,-21.455635,37.989998,101582.99,1.206974
1411226282,-21.873121,37.989998,101588.0,1.2070335
1411239696,-22.787363,37.989998,101599.0,1.2071642
1411262283,-21.624743,38.0,101585.0,1.2069979
1411274257,-22.036945,38.0,101590.0,1.2070572
1411286257,-22.036945,38.0,101590.0,1.2070572
1411311789,-22.206053,37.989998,101592.0,1.207081
1411322258,-21.788567,37.989998,101587.0,1.2070216
1411334270,-21.788567,37.989998,101587.0,1.2070216
1411356281,-20.795055,37.989998,101575.0,1.206879
1411367322,-20.795055,37.989998,101575.0,1.206879
1411380016,-22.036945,37.989998,101590.0,1.2070572
1411402270,-21.873121,37.989998,101588.0,1.2070335
1411415693,-20.95888,37.989998,101576.99,1.2069027
1411427981,-21.207256,37.989998,101580.0,1.2069384
1411451259,-20.541391,37.989998,101572.0,1.2068434
1411464401,-22.369877,37.989998,101594.0,1.2071048
1411477459,-20.95888,37.989998,101576.99,1.2069027
1411501521,-21.957676,37.989998,101588.99,1.2070453
1411525142,-21.788567,37.989998,101587.0,1.2070216
1411548815,-22.290607,37.989998,101593.0,1.2070929
1411560494,-21.376366,37.989998,101582.0,1.2069622
1411571256,-21.122702,37.989998,101579.0,1.2069266
1411595261,-23.120296,37.98,101603.0,1.2072117
1411608483,-20.625946,37.98,101573.0,1.2068553
1411620399,-21.122702,37.98,101579.0,1.2069266
1411644656,-21.291811,37.989998,101581.0,1.2069503
1411656499,-21.376366,37.989998,101582.0,1.2069622
1411667260,-20.795055,37.989998,101575.0,1.206879
1411695270,-21.455635,37.98,101582.99,1.206974
1411707283,-21.873121,37.98,101588.0,1.2070335
1411719261,-20.37757,37.98,101569.99,1.2068195
1411744497,-21.54019,37.98,101584.0,1.206986
1411756445,-20.95888,37.98,101576.99,1.2069027
1411768566,-20.462122,37.98,101571.0,1.2068315
1411791256,-22.623539,37.969997,101597.0,1.2071404
1411803265,-20.541391,37.969997,101572.0,1.2068434
1411815256,-20.95888,37.969997,101576.99,1.2069027
1411837258,-20.625946,37.969997,101573.0,1.2068553
1411848636,-20.541391,37.969997,101572.0,1.2068434
1411859270,-21.291811,37.969997,101581.0,1.2069503
1411889534,-20.293015,37.98,101569.0,1.2068077
1411901786,-20.795055,37.98,101575.0,1.206879
1411913280,-20.874325,37.98,101575.99,1.2068908
1411937274,-20.37757,37.969997,101569.99,1.2068195
1411950039,-20.37757,37.969997,101569.99,1.2068195
1411961319,-20.541391,37.969997,101572.0,1.2068434
1411982253,-22.1215,37.969997,101591.0,1.2070692
1411994186,-21.455635,37.969997,101582.99,1.206974
1412006121,-20.95888,37.969997,101576.99,1.2069027
1412041338,-19.711704,37.969997,101562.0,1.2067245
1412053574,-21.873121,37.969997,101588.0,1.2070335
1412077565,-20.795055,37.969997,101575.0,1.206879
1412088931,-20.7105,37.969997,101574.0,1.2068671
1412126278,-21.291811,37.969997,101581.0,1.2069503
1412137279,-20.37757,37.969997,101569.99,1.2068195
1412149591,-20.625946,37.969997,101573.0,1.2068553
1412174534,-20.213745,37.96,101568.0,1.2067958
1412185264,-20.7105,37.96,101574.0,1.2068671
1412195253,-21.207256,37.96,101580.0,1.2069384
1412217361,-20.37757,37.969997,101569.99,1.2068195
1412227268,-21.455635,37.969997,101582.99,1.206974
1412238562,-21.957676,37.969997,101588.99,1.2070453
1412261616,-21.788567,37.98,101587.0,1.2070216
1412272928,-21.873121,37.98,101588.0,1.2070335
1412285202,-20.795055,37.98,101575.0,1.206879
1412310045,-21.043432,37.969997,101578.0,1.2069147
1412322418,-21.709297,37.969997,101586.0,1.2070097
1412334396,-20.541391,37.969997,101572.0,1.2068434
1412357994,-20.7105,37.96,101574.0,1.2068671
1412370105,-21.709297,37.96,101586.0,1.2070097
1412380260,-20.7105,37.96,101574.0,1.2068671
1412407186,-20.12919,37.969997,101567.0,1.206784
1412417960,-21.376366,37.969997,101582.0,1.2069622
1412430569,-20.462122,37.969997,101571.0,1.2068315
1412454716,-20.95888,37.96,101576.99,1.2069027
1412466260,-21.624743,37.96,101585.0,1.2069979
1412478407,-19.796259,37.96,101563.0,1.2067364
1412502386,-19.880812,37.96,101563.99,1.2067482
1412524260,-22.1215,37.96,101591.0,1.2070692
1412548260,-20.044636,37.969997,101566.0,1.2067721
1412562305,-20.795055,37.969997,101575.0,1.206879
1412574795,-21.788567,37.969997,101587.0,1.2070216
1412598393,-20.874325,37.96,101575.99,1.2068908
1412615135,-21.207256,37.96,101580.0,1.2069384
1412626141,-21.455635,37.96,101582.99,1.206974
1412650125,-20.874325,37.95,101575.99,1.2068908
1412662405,-19.299501,37.95,101557.0,1.2066652
1412674374,-21.376366,37.95,101582.0,1.2069622
1412698122,-19.463326,37.95,101559.0,1.2066889
1412708271,-20.12919,37.95,101567.0,1.206784
1412722369,-19.463326,37.95,101559.0,1.2066889
1412744274,-21.455635,37.96,101582.99,1.206974
1412756260,-22.206053,37.96,101592.0,1.207081
1412769262,-21.455635,37.96,101582.99,1.206974
1412793259,-21.207256,37.95,101580.0,1.2069384
1412805259,-20.541391,37.95,101572.0,1.2068434
1412823771,-20.462122,37.95,101571.0,1.2068315
1412847261,-20.462122,37.95,101571.0,1.2068315
1412859625,-20.625946,37.95,101573.0,1.2068553
1412871258,-20.462122,37.95,101571.0,1.2068315
1412893253,-22.1215,37.95,101591.0,1.2070692
1412904378,-20.7105,37.95,101574.0,1.2068671
1412916288,-22.454432,37.95,101594.99,1.2071166
1412939619,-21.043432,37.96,101578.0,1.2069147
1412951260,-21.624743,37.96,101585.0,1.2069979
1412961258,-21.122702,37.96,101579.0,1.2069266
1412985253,-20.541391,37.95,101572.0,1.2068434
1412997264,-20.795055,37.95,101575.0,1.206879
1413009273,-20.7105,37.95,101574.0,1.2068671
1413035614,-20.213745,37.96,101568.0,1.2067958
1413047261,-20.795055,37.96,101575.0,1.206879
1413057259,-21.207256,37.96,101580.0,1.2069384
1413081273,-22.036945,37.95,101590.0,1.2070572
1413094935,-21.376366,37.95,101582.0,1.2069622
1413107318,-20.874325,37.95,101575.99,1.2068908
1413129261,-20.795055,37.95,101575.0,1.206879
1413142927,-20.795055,37.95,101575.0,1.206879
1413153271,-21.122702,37.95,101579.0,1.2069266
1413178264,-20.541391,37.95,101572.0,1.2068434
1413189312,-20.95888,37.95,101576.99,1.2069027
1413200287,-20.541391,37.95,101572.0,1.2068434
1413223914,-22.623539,37.95,101597.0,1.2071404
1413240339,-21.788567,37.95,101587.0,1.2070216
1413250257,-21.873121,37.95,101588.0,1.2070335
1413274260,-21.043432,37.95,101578.0,1.2069147
1413287948,-21.291811,37.95,101581.0,1.2069503
1413299618,-21.207256,37.95,101580.0,1.2069384
1413324096,-20.874325,37.94,101575.99,1.2068908
1413335969,-22.036945,37.94,101590.0,1.2070572
1413346267,-21.455635,37.94,101582.99,1.206974
1413370270,-20.462122,37.94,101571.0,1.2068315
1413383350,-21.957676,37.94,101588.99,1.2070453
1413394258,-22.1215,37.94,101591.0,1.2070692
1413420982,-22.036945,37.94,101590.0,1.2070572
1413431602,-21.043432,37.94,101578.0,1.2069147
1413448582,-22.036945,37.94,101590.0,1.2070572
1413471686,-21.122702,37.93,101579.0,1.2069266
1413483607,-20.95888,37.93,101576.99,1.2069027
1413495322,-22.1215,37.93,101591.0,1.2070692
1413519709,-20.541391,37.93,101572.0,1.2068434
1413543698,-20.37757,37.93,101569.99,1.2068195
1413567701,-21.376366,37.93,101582.0,1.2069622
1413578258,-21.873121,37.93,101588.0,1.2070335
1413590257,-20.541391,37.93,101572.0,1.2068434
1413613255,-20.293015,37.93,101569.0,1.2068077
1413624294,-21.122702,37.93,101579.0,1.2069266
1413634258,-20.462122,37.93,101571.0,1.2068315
1413659270,-21.455635,37.94,101582.99,1.206974
1413672532,-20.37757,37.94,101569.99,1.2068195
1413683270,-20.293015,37.94,101569.0,1.2068077
1413707270,-21.455635,37.93,101582.99,1.206974
1413720512,-22.036945,37.93,101590.0,1.2070572
1413731272,-20.795055,37.93,101575.0,1.206879
1413755261,-20.213745,37.93,101568.0,1.2067958
1413800509,-22.036945,37.93,101590.0,1.2070572
1413811273,-22.1215,37.93,101591.0,1.2070692
1413822326,-20.12919,37.93,101567.0,1.206784
1413844763,-22.787363,37.93,101599.0,1.2071642
1413856494,-20.7105,37.93,101574.0,1.2068671
1413869305,-20.12919,37.93,101567.0,1.206784
1413891257,-21.291811,37.93,101581.0,1.2069503
1413904349,-20.7105,37.93,101574.0,1.2068671
1413915270,-20.95888,37.93,101576.99,1.2069027
1413941594,-21.54019,37.93,101584.0,1.206986
1413952504,-20.874325,37.93,101575.99,1.2068908
1413963271,-21.455635,37.93,101582.99,1.206974
1413988978,-21.122702,37.93,101579.0,1.2069266
1414000280,-20.874325,37.93,101575.99,1.2068908
1414011269,-21.043432,37.93,101578.0,1.2069147
1414035260,-21.54019,37.92,101584.0,1.206986
1414048515,-21.376366,37.92,101582.0,1.2069622
1414059271,-22.369877,37.92,101594.0,1.2071048
1414085906,-20.95888,37.92,101576.99,1.2069027
1414096916,-21.957676,37.92,101588.99,1.2070453
1414109201,-21.624743,37.92,101585.0,1.2069979
1414133657,-21.624743,37.92,101585.0,1.2069979
1414145291,-20.795055,37.92,101575.0,1.206879
1414157219,-20.95888,37.92,101576.99,1.2069027
1414181617,-22.290607,37.92,101593.0,1.2070929
1414193166,-21.043432,37.92,101578.0,1.2069147
1414205577,-20.795055,37.92,101575.0,1.206879
1414229300,-21.624743,37.91,101585.0,1.2069979
1414241289,-19.880812,37.91,101563.99,1.2067482
1414254200,-21.54019,37.91,101584.0,1.206986
1414282461,-21.291811,37.91,101581.0,1.2069503
1414293568,-21.873121,37.91,101588.0,1.2070335
1414305302,-20.293015,37.91,101569.0,1.2068077
1414326592,-21.709297,37.91,101586.0,1.2070097
1414337337,-22.290607,37.91,101593.0,1.2070929
1414349598,-22.369877,37.91,101594.0,1.2071048
1414373595,-20.12919,37.91,101567.0,1.206784
1414386102,-22.70281,37.91,101598.0,1.2071524
1414397610,-21.043432,37.91,101578.0,1.2069147
1414419258,-21.376366,37.91,101582.0,1.2069622
1414430261,-21.376366,37.91,101582.0,1.2069622
1414441326,-21.207256,37.91,101580.0,1.2069384
1414465087,-21.709297,37.92,101586.0,1.2070097
1414477940,-20.95888,37.92,101576.99,1.2069027
1414491110,-21.455635,37.92,101582.99,1.206974
1414514192,-19.960081,37.899998,101565.0,1.2067602
1414536263,-20.95888,37.899998,101576.99,1.2069027
1414560264,-20.874325,37.91,101575.99,1.2068908
1414574272,-20.462122,37.91,101571.0,1.2068315
1414584261,-22.70281,37.91,101598.0,1.2071524
1414610539,-20.37757,37.91,101569.99,1.2068195
1414622124,-23.035742,37.91,101601.99,1.2071997
1414634439,-21.043432,37.91,101578.0,1.2069147
1414658907,-21.873121,37.899998,101588.0,1.2070335
1414670262,-22.206053,37.899998,101592.0,1.207081
1414682434,-22.70281,37.899998,101598.0,1.2071524
1414706251,-21.122702,37.899998,101579.0,1.2069266
1414717761,-21.624743,37.899998,101585.0,1.2069979
1414728283,-20.12919,37.899998,101567.0,1.206784
1414754444,-22.369877,37.899998,101594.0,1.2071048
1414766254,-21.207256,37.899998,101580.0,1.2069384
1414776261,-20.874325,37.899998,101575.99,1.2068908
1414803389,-21.709297,37.899998,101586.0,1.2070097
1414815259,-20.541391,37.899998,101572.0,1.2068434
1414826351,-23.20485,37.899998,101604.0,1.2072237
1414848254,-21.957676,37.899998,101588.99,1.2070453
1414862131,-21.873121,37.899998,101588.0,1.2070335
1414872260,-22.206053,37.899998,101592.0,1.207081
1414898457,-20.95888,37.899998,101576.99,1.2069027
1414910189,-21.54019,37.899998,101584.0,1.206986
1414922443,-22.1215,37.899998,101591.0,1.2070692
1414944271,-21.54019,37.89,101584.0,1.206986
1414958133,-20.95888,37.89,101576.99,1.2069027
1414969269,-21.54019,37.89,101584.0,1.206986
1414993280,-21.455635,37.89,101582.99,1.206974
1415010982,-21.207256,37.89,101580.0,1.2069384
1415022887,-21.122702,37.89,101579.0,1.2069266
1415045259,-22.036945,37.89,101590.0,1.2070572
1415057259,-22.206053,37.89,101592.0,1.207081
1415069271,-20.795055,37.89,101575.0,1.206879
1415095113,-21.957676,37.89,101588.99,1.2070453
1415105272,-22.036945,37.89,101590.0,1.2070572
1415117258,-20.625946,37.89,101573.0,1.2068553
1415142969,-21.207256,37.879997,101580.0,1.2069384
1415153260,-21.043432,37.879997,101578.0,1.2069147
1415166913,-20.12919,37.879997,101567.0,1.206784
1415190886,-20.462122,37.89,101571.0,1.2068315
1415203949,-21.54019,37.89,101584.0,1.206986
1415218997,-21.957676,37.89,101588.99,1.2070453
1415241259,-21.043432,37.879997,101578.0,1.2069147
1415253260,-21.043432,37.879997,101578.0,1.2069147
1415265259,-21.207256,37.879997,101580.0,1.2069384
1415289258,-19.960081,37.879997,101565.0,1.2067602
1415303272,-22.951187,37.879997,101600.99,1.2071879
1415315203,-21.957676,37.879997,101588.99,1.2070453
1415337271,-20.7105,37.879997,101574.0,1.2068671
1415350899,-20.795055,37.879997,101575.0,1.206879
1415361259,-21.873121,37.879997,101588.0,1.2070335
1415386258,-20.874325,37.879997,101575.99,1.2068908
1415398257,-20.12919,37.879997,101567.0,1.206784
1415410256,-21.122702,37.879997,101579.0,1.2069266
1415436038,-21.788567,37.879997,101587.0,1.2070216
1415447895,-20.795055,37.879997,101575.0,1.206879
1415458253,-20.874325,37.879997,101575.99,1.2068908
1415481270,-22.70281,37.879997,101598.0,1.2071524
1415491997,-21.957676,37.879997,101588.99,1.2070453
1415503706,-23.120296,37.879997,101603.0,1.2072117
1415528560,-22.454432,37.879997,101594.99,1.2071166
1415540296,-22.871918,37.879997,101600.0,1.2071761
1415551711,-21.54019,37.879997,101584.0,1.206986
1415575680,-20.795055,37.879997,101575.0,1.206879
1415588004,-22.538986,37.879997,101596.0,1.2071285
1415599920,-20.95888,37.879997,101576.99,1.2069027
1415623557,-22.70281,37.879997,101598.0,1.2071524
1415636014,-22.1215,37.879997,101591.0,1.2070692
1415647703,-21.043432,37.879997,101578.0,1.2069147
1415671740,-22.206053,37.879997,101592.0,1.207081
1415684375,-22.787363,37.879997,101599.0,1.2071642
1415695807,-21.788567,37.879997,101587.0,1.2070216
1415719693,-23.786161,37.87,101611.0,1.2073067
1415736361,-21.957676,37.87,101588.99,1.2070453
1415746261,-20.95888,37.87,101576.99,1.2069027
1415770256,-21.291811,37.87,101581.0,1.2069503
1415783264,-23.368673,37.87,101606.0,1.2072474
1415795325,-20.37757,37.87,101569.99,1.2068195
1415819349,-22.369877,37.87,101594.0,1.2071048
1415832283,-20.7105,37.87,101574.0,1.2068671
1415843269,-20.95888,37.87,101576.99,1.2069027
1415879258,-20.795055,37.87,101575.0,1.206879
1415890258,-21.709297,37.87,101586.0,1.2070097
1415912515,-20.213745,37.879997,101568.0,1.2067958
1415924595,-22.206053,37.879997,101592.0,1.207081
1415960499,-20.462122,37.87,101571.0,1.2068315
1415971272,-22.369877,37.87,101594.0,1.2071048
1415984292,-21.873121,37.87,101588.0,1.2070335
1416008390,-22.70281,37.87,101598.0,1.2071524
1416020990,-21.624743,37.87,101585.0,1.2069979
1416032486,-21.709297,37.87,101586.0,1.2070097
1416059271,-22.206053,37.86,101592.0,1.207081
1416072478,-22.1215,37.86,101591.0,1.2070692
1416083253,-20.625946,37.86,101573.0,1.2068553
1416105267,-20.95888,37.86,101576.99,1.2069027
1416116669,-21.54019,37.86,101584.0,1.206986
1416128733,-20.213745,37.86,101568.0,1.2067958
1416153386,-21.207256,37.86,101580.0,1.2069384
1416163312,-20.37757,37.86,101569.99,1.2068195
1416176505,-21.455635,37.86,101582.99,1.206974
1416199267,-20.95888,37.86,101576.99,1.2069027
1416210259,-20.795055,37.86,101575.0,1.206879
1416220786,-20.95888,37.86,101576.99,1.2069027
1416244719,-21.709297,37.87,101586.0,1.2070097
1416257387,-22.036945,37.87,101590.0,1.2070572
1416269262,-21.043432,37.87,101578.0,1.2069147
1416305538,-21.376366,37.86,101582.0,1.2069622
1416317593,-20.213745,37.86,101568.0,1.2067958
1416342422,-21.455635,37.86,101582.99,1.206974
1416365651,-20.7105,37.86,101574.0,1.2068671
1416389213,-19.299501,37.85,101557.0,1.2066652
1416401353,-21.455635,37.85,101582.99,1.206974
1416413922,-20.625946,37.85,101573.0,1.2068553
1416438702,-20.7105,37.85,101574.0,1.2068671
1416450260,-21.788567,37.85,101587.0,1.2070216
1416466083,-21.207256,37.85,101580.0,1.2069384
1416489311,-21.788567,37.85,101587.0,1.2070216
1416501568,-21.291811,37.85,101581.0,1.2069503
1416513292,-21.291811,37.85,101581.0,1.2069503
1416537259,-20.625946,37.85,101573.0,1.2068553
1416561278,-21.291811,37.85,101581.0,1.2069503
1416584918,-20.293015,37.85,101569.0,1.2068077
1416597465,-22.206053,37.85,101592.0,1.207081
1416609316,-23.28412,37.85,101605.0,1.2072355
1416633534,-20.795055,37.85,101575.0,1.206879
1416646043,-22.036945,37.85,101590.0,1.2070572
1416657509,-20.293015,37.85,101569.0,1.2068077
1416685511,-20.462122,37.85,101571.0,1.2068315
1416696910,-20.95888,37.85,101576.99,1.2069027
1416710018,-20.95888,37.85,101576.99,1.2069027
1416733725,-20.12919,37.85,101567.0,1.206784
1416747235,-21.376366,37.85,101582.0,1.2069622
1416758271,-20.7105,37.85,101574.0,1.2068671
1416782124,-21.291811,37.84,101581.0,1.2069503
1416792254,-22.787363,37.84,101599.0,1.2071642
1416803260,-21.788567,37.84,101587.0,1.2070216
1416824270,-23.120296,37.84,101603.0,1.2072117
1416838096,-22.623539,37.84,101597.0,1.2071404
1416850373,-21.376366,37.84,101582.0,1.2069622
1416872271,-20.541391,37.84,101572.0,1.2068434
1416886156,-21.122702,37.84,101579.0,1.2069266
1416896262,-20.95888,37.84,101576.99,1.2069027
1416920256,-22.70281,37.84,101598.0,1.2071524
1416933717,-21.122702,37.84,101579.0,1.2069266
1416944352,-22.369877,37.84,101594.0,1.2071048
1416970417,-20.874325,37.84,101575.99,1.2068908
1416987599,-21.873121,37.84,101588.0,1.2070335
1416999278,-21.624743,37.84,101585.0,1.2069979
1417022104,-21.207256,37.829998,101580.0,1.2069384
1417034315,-20.213745,37.829998,101568.0,1.2067958
1417046108,-21.54019,37.829998,101584.0,1.206986
1417070122,-20.95888,37.84,101576.99,1.2069027
1417080338,-21.957676,37.84,101588.99,1.2070453
1417091858,-21.455635,37.84,101582.99,1.206974
1417115478,-22.70281,37.84,101598.0,1.2071524
1417127272,-22.206053,37.84,101592.0,1.207081
1417139284,-21.043432,37.84,101578.0,1.2069147
1417163977,-20.874325,37.84,101575.99,1.2068908
1417174897,-21.291811,37.84,101581.0,1.2069503
1417187226,-21.709297,37.84,101586.0,1.2070097
1417209259,-22.454432,37.84,101594.99,1.2071166
1417222899,-21.291811,37.84,101581.0,1.2069503
1417233261,-21.207256,37.84,101580.0,1.2069384
1417256285,-21.709297,37.84,101586.0,1.2070097
1417267269,-21.709297,37.84,101586.0,1.2070097
1417278939,-21.455635,37.84,101582.99,1.206974
1417302668,-20.95888,37.829998,101576.99,1.2069027
1417315207,-21.957676,37.829998,101588.99,1.2070453
1417326945,-19.960081,37.829998,101565.0,1.2067602
1417350922,-21.043432,37.829998,101578.0,1.2069147
1417363539,-21.455635,37.829998,101582.99,1.206974
1417375271,-20.12919,37.829998,101567.0,1.206784
1417403728,-22.1215,37.829998,101591.0,1.2070692
1417415264,-22.206053,37.829998,101592.0,1.207081
1417427756,-21.207256,37.829998,101580.0,1.2069384
1417451187,-21.873121,37.82,101588.0,1.2070335
1417461259,-21.291811,37.82,101581.0,1.2069503
1417473261,-20.12919,37.82,101567.0,1.206784
1417497269,-20.95888,37.82,101576.99,1.2069027
1417510538,-21.957676,37.82,101588.99,1.2070453
1417521269,-19.960081,37.82,101565.0,1.2067602
1417545255,-22.1215,37.829998,101591.0,1.2070692
1417556286,-20.874325,37.829998,101575.99,1.2068908
1417593257,-22.623539,37.829998,101597.0,1.2071404
1417604286,-21.709297,37.829998,101586.0,1.2070097
1417615499,-21.122702,37.829998,101579.0,1.2069266
1417639747,-21.376366,37.829998,101582.0,1.2069622
1417652002,-22.290607,37.829998,101593.0,1.2070929
1417662253,-20.462122,37.829998,101571.0,1.2068315
1417684879,-20.625946,37.829998,101573.0,1.2068553
1417696284,-20.625946,37.829998,101573.0,1.2068553
1417708045,-21.291811,37.829998,101581.0,1.2069503
1417730270,-22.1215,37.829998,101591.0,1.2070692
1417743322,-20.12919,37.829998,101567.0,1.206784
1417754272,-21.207256,37.829998,101580.0,1.2069384
1417780395,-21.709297,37.829998,101586.0,1.2070097
1417792338,-20.795055,37.829998,101575.0,1.206879
1417803889,-22.70281,37.829998,101598.0,1.2071524
1417829257,-21.709297,37.809998,101586.0,1.2070097
1417840366,-22.290607,37.809998,101593.0,1.2070929
1417852354,-19.796259,37.809998,101563.0,1.2067364
1417874259,-21.873121,37.82,101588.0,1.2070335
1417887544,-21.709297,37.82,101586.0,1.2070097
1417900452,-23.120296,37.82,101603.0,1.2072117
1417924096,-21.957676,37.82,101588.99,1.2070453
1417935707,-21.709297,37.82,101586.0,1.2070097
1417946273,-20.795055,37.82,101575.0,1.206879
1417970270,-21.376366,37.82,101582.0,1.2069622
1417983270,-21.207256,37.82,101580.0,1.2069384
1417995256,-22.036945,37.82,101590.0,1.2070572
1418018291,-22.623539,37.809998,101597.0,1.2071404
1418029178,-22.206053,37.809998,101592.0,1.207081
1418039257,-22.1215,37.809998,101591.0,1.2070692
1418062261,-20.95888,37.82,101576.99,1.2069027
1418072553,-21.376366,37.82,101582.0,1.2069622
1418085591,-21.207256,37.82,101580.0,1.2069384
1418107269,-21.709297,37.809998,101586.0,1.2070097
1418119272,-22.454432,37.809998,101594.99,1.2071166
1418130548,-21.455635,37.809998,101582.99,1.206974
1418153255,-21.122702,37.809998,101579.0,1.2069266
1418164624,-21.624743,37.809998,101585.0,1.2069979
1418175269,-21.207256,37.809998,101580.0,1.2069384
1418200508,-20.213745,37.809998,101568.0,1.2067958
1418211352,-20.213745,37.809998,101568.0,1.2067958
1418224544,-22.206053,37.809998,101592.0,1.207081
1418247260,-21.207256,37.809998,101580.0,1.2069384
1418259261,-21.873121,37.809998,101588.0,1.2070335
1418271259,-21.043432,37.809998,101578.0,1.2069147
1418294306,-20.7105,37.809998,101574.0,1.2068671
1418305253,-20.874325,37.809998,101575.99,1.2068908
1418315341,-20.541391,37.809998,101572.0,1.2068434
1418340824,-19.711704,37.809998,101562.0,1.2067245
1418352527,-21.376366,37.809998,101582.0,1.2069622
1418363270,-21.709297,37.809998,101586.0,1.2070097
1418387271,-19.299501,37.809998,101557.0,1.2066652
1418400289,-21.624743,37.809998,101585.0,1.2069979
1418411258,-21.54019,37.809998,101584.0,1.206986
1418435260,-20.7105,37.8,101574.0,1.2068671
1418446410,-20.462122,37.8,101571.0,1.2068315
1418457341,-22.206053,37.8,101592.0,1.207081
1418481581,-20.462122,37.8,101571.0,1.2068315
1418493268,-20.37757,37.8,101569.99,1.2068195
1418505644,-22.787363,37.8,101599.0,1.2071642
1418529450,-21.122702,37.8,101579.0,1.2069266
1418546179,-21.207256,37.8,101580.0,1.2069384
1418557931,-21.709297,37.8,101586.0,1.2070097
1418581595,-21.122702,37.79,101579.0,1.2069266
1418593517,-21.207256,37.79,101580.0,1.2069384
1418605705,-21.376366,37.79,101582.0,1.2069622
1418629925,-20.625946,37.79,101573.0,1.2068553
1418641327,-21.455635,37.79,101582.99,1.206974
1418653619,-19.960081,37.79,101565.0,1.2067602
1418677495,-23.120296,37.79,101603.0,1.2072117
1418689391,-19.796259,37.79,101563.0,1.2067364
1418701356,-20.795055,37.79,101575.0,1.206879
1418723257,-22.538986,37.79,101596.0,1.2071285
1418733428,-21.455635,37.79,101582.99,1.206974
1418745323,-21.54019,37.79,101584.0,1.206986
1418769235,-21.376366,37.78,101582.0,1.2069622
1418793588,-21.207256,37.78,101580.0,1.2069384
1418816964,-21.122702,37.78,101579.0,1.2069266
1418830380,-21.54019,37.78,101584.0,1.206986
1418841330,-20.293015,37.78,101569.0,1.2068077
1418869185,-21.207256,37.79,101580.0,1.2069384
1418881301,-21.54019,37.79,101584.0,1.206986
1418892296,-21.043432,37.79,101578.0,1.2069147
1418916265,-20.795055,37.78,101575.0,1.206879
1418928271,-21.709297,37.78,101586.0,1.2070097
1418940341,-20.293015,37.78,101569.0,1.2068077
1418964261,-21.709297,37.78,101586.0,1.2070097
1418975263,-21.709297,37.78,101586.0,1.2070097
1418986167,-21.624743,37.78,101585.0,1.2069979
1419010025,-23.120296,37.79,101603.0,1.2072117
1419020254,-20.795055,37.79,101575.0,1.206879
1419032274,-21.54019,37.79,101584.0,1.206986
1419058128,-20.462122,37.78,101571.0,1.2068315
1419070470,-20.95888,37.78,101576.99,1.2069027
1419082172,-20.541391,37.78,101572.0,1.2068434
1419105756,-22.036945,37.78,101590.0,1.2070572
1419118025,-21.043432,37.78,101578.0,1.2069147
1419129742,-19.62715,37.78,101561.0,1.2067127
1419154275,-21.624743,37.78,101585.0,1.2069979
1419164271,-20.795055,37.78,101575.0,1.206879
1419176272,-20.213745,37.78,101568.0,1.2067958
1419202133,-21.54019,37.78,101584.0,1.206986
1419212271,-21.207256,37.78,101580.0,1.2069384
1419224274,-21.376366,37.78,101582.0,1.2069622
1419250143,-20.625946,37.78,101573.0,1.2068553
1419260261,-21.788567,37.78,101587.0,1.2070216
1419274927,-21.455635,37.78,101582.99,1.206974
1419298344,-22.369877,37.77,101594.0,1.2071048
1419308260,-20.541391,37.77,101572.0,1.2068434
1419322180,-20.12919,37.77,101567.0,1.206784
1419345259,-21.122702,37.77,101579.0,1.2069266
1419356370,-20.37757,37.77,101569.99,1.2068195
1419368297,-19.880812,37.77,101563.99,1.2067482
1419391588,-21.54019,37.78,101584.0,1.206986
1419403261,-20.795055,37.78,101575.0,1.206879
1419413253,-21.043432,37.78,101578.0,1.2069147
1419437259,-20.795055,37.78,101575.0,1.206879
1419451158,-20.213745,37.78,101568.0,1.2067958
1419463263,-23.120296,37.78,101603.0,1.2072117
1419487227,-21.291811,37.77,101581.0,1.2069503
1419497253,-22.1215,37.77,101591.0,1.2070692
1419509295,-20.7105,37.77,101574.0,1.2068671
1419535196,-21.957676,37.78,101588.99,1.2070453
1419546877,-21.122702,37.78,101579.0,1.2069266
1419557270,-21.788567,37.78,101587.0,1.2070216
1419587783,-21.455635,37.78,101582.99,1.206974
1419599709,-20.462122,37.78,101571.0,1.2068315
1419610910,-22.623539,37.78,101597.0,1.2071404
1419633294,-19.62715,37.77,101561.0,1.2067127
1419645255,-20.044636,37.77,101566.0,1.2067721
1419657259,-23.86543,37.77,101612.0,1.2073187
1419679264,-19.880812,37.78,101563.99,1.2067482
1419691657,-20.625946,37.78,101573.0,1.2068553
1419703234,-21.54019,37.78,101584.0,1.206986
1419726261,-21.376366,37.77,101582.0,1.2069622
1419738273,-20.874325,37.77,101575.99,1.2068908
1419749272,-22.623539,37.77,101597.0,1.2071404
1419770253,-21.043432,37.78,101578.0,1.2069147
1419781266,-19.796259,37.78,101563.0,1.2067364
1419820481,-20.541391,37.77,101572.0,1.2068434
1419832299,-22.036945,37.77,101590.0,1.2070572
1419843986,-20.874325,37.77,101575.99,1.2068908
1419868920,-21.624743,37.77,101585.0,1.2069979
1419880351,-20.37757,37.77,101569.99,1.2068195
1419892279,-21.873121,37.77,101588.0,1.2070335
1419914253,-22.70281,37.77,101598.0,1.2071524
1419926266,-21.043432,37.77,101578.0,1.2069147
1419937271,-21.043432,37.77,101578.0,1.2069147
1419959967,-21.709297,37.78,101586.0,1.2070097
1419971895,-22.871918,37.78,101600.0,1.2071761
1419983862,-21.043432,37.78,101578.0,1.2069147
1420007750,-22.70281,37.77,101598.0,1.2071524
1420020021,-20.625946,37.77,101573.0,1.2068553
1420031758,-20.95888,37.77,101576.99,1.2069027
1420055725,-20.12919,37.77,101567.0,1.206784
1420066257,-21.122702,37.77,101579.0,1.2069266
1420078257,-22.290607,37.77,101593.0,1.2070929
1420100356,-20.044636,37.77,101566.0,1.2067721
1420112289,-20.541391,37.77,101572.0,1.2068434
1420122271,-21.376366,37.77,101582.0,1.2069622
1420147941,-20.541391,37.77,101572.0,1.2068434
1420159686,-21.376366,37.77,101582.0,1.2069622
1420170347,-21.291811,37.77,101581.0,1.2069503
1420194256,-20.625946,37.77,101573.0,1.2068553
1420205261,-21.376366,37.77,101582.0,1.2069622
1420216494,-21.122702,37.77,101579.0,1.2069266
1420240738,-20.541391,37.76,101572.0,1.2068434
1420252463,-21.043432,37.76,101578.0,1.2069147
1420263260,-22.1215,37.76,101591.0,1.2070692
1420288510,-21.376366,37.77,101582.0,1.2069622
1420300761,-22.369877,37.77,101594.0,1.2071048
1420316579,-20.213745,37.77,101568.0,1.2067958
1420339257,-22.206053,37.76,101592.0,1.207081
1420352412,-22.454432,37.76,101594.99,1.2071166
1420364776,-20.541391,37.76,101572.0,1.2068434
1420387270,-21.624743,37.76,101585.0,1.2069979
1420400504,-20.293015,37.76,101569.0,1.2068077
1420411282,-21.291811,37.76,101581.0,1.2069503
1420435258,-21.455635,37.76,101582.99,1.206974
1420446271,-21.207256,37.76,101580.0,1.2069384
1420457260,-20.213745,37.76,101568.0,1.2067958
1420480618,-21.291811,37.76,101581.0,1.2069503
1420493126,-22.206053,37.76,101592.0,1.207081
1420504505,-19.880812,37.76,101563.99,1.2067482
1420528729,-21.709297,37.76,101586.0,1.2070097
1420539255,-21.291811,37.76,101581.0,1.2069503
1420551268,-20.541391,37.76,101572.0,1.2068434
1420574559,-22.290607,37.76,101593.0,1.2070929
1420585756,-20.541391,37.76,101572.0,1.2068434
1420621454,-21.873121,37.76,101588.0,1.2070335
1420633339,-20.795055,37.76,101575.0,1.206879
1420646045,-19.880812,37.76,101563.99,1.2067482
1420669715,-20.37757,37.76,101569.99,1.2068195
1420680936,-20.462122,37.76,101571.0,1.2068315
1420693232,-21.54019,37.76,101584.0,1.206986
1420717235,-21.54019,37.75,101584.0,1.206986
1420730701,-21.207256,37.75,101580.0,1.2069384
1420742193,-20.541391,37.75,101572.0,1.2068434
1420765626,-21.624743,37.75,101585.0,1.2069979
1420777322,-20.874325,37.75,101575.99,1.2068908
1420789505,-20.37757,37.75,101569.99,1.2068195
1420813712,-22.206053,37.75,101592.0,1.207081
1420825334,-20.37757,37.75,101569.99,1.2068195
1420837960,-21.788567,37.75,101587.0,1.2070216
1420861627,-19.711704,37.75,101562.0,1.2067245
1420873116,-21.291811,37.75,101581.0,1.2069503
1420886096,-21.54019,37.75,101584.0,1.206986
1420910212,-20.462122,37.739998,101571.0,1.2068315
1420921373,-22.036945,37.739998,101590.0,1.2070572
1420937735,-20.95888,37.739998,101576.99,1.2069027
1420960912,-20.795055,37.739998,101575.0,1.206879
1420974075,-21.624743,37.739998,101585.0,1.2069979
1420985265,-20.625946,37.739998,101573.0,1.2068553
1421009310,-22.70281,37.739998,101598.0,1.2071524
1421019342,-21.043432,37.739998,101578.0,1.2069147
1421031257,-22.369877,37.739998,101594.0,1.2071048
1421053975,-21.207256,37.73,101580.0,1.2069384
1421064256,-21.873121,37.73,101588.0,1.2070335
1421078568,-20.541391,37.73,101572.0,1.2068434
1421102492,-21.291811,37.73,101581.0,1.2069503
1421115218,-22.369877,37.73,101594.0,1.2071048
1421126271,-20.462122,37.73,101571.0,1.2068315
1421150386,-21.455635,37.73,101582.99,1.206974
1421163056,-20.044636,37.73,101566.0,1.2067721
1421174271,-19.62715,37.73,101561.0,1.2067127
1421198144,-21.043432,37.73,101578.0,1.2069147
1421222131,-19.796259,37.73,101563.0,1.2067364
1421244280,-21.376366,37.73,101582.0,1.2069622
1421256271,-20.293015,37.73,101569.0,1.2068077
1421268260,-20.37757,37.73,101569.99,1.2068195
1421294205,-22.623539,37.73,101597.0,1.2071404
1421304260,-21.291811,37.73,101581.0,1.2069503
1421316272,-20.795055,37.73,101575.0,1.206879
1421342365,-19.711704,37.73,101562.0,1.2067245
1421355354,-21.376366,37.73,101582.0,1.2069622
1421367259,-19.960081,37.73,101565.0,1.2067602
1421390323,-22.1215,37.73,101591.0,1.2070692
1421400259,-20.625946,37.73,101573.0,1.2068553
1421414166,-21.291811,37.73,101581.0,1.2069503
1421438109,-20.293015,37.719997,101569.0,1.2068077
1421450040,-20.462122,37.719997,101571.0,1.2068315
1421462164,-20.37757,37.719997,101569.99,1.2068195
1421485737,-21.788567,37.719997,101587.0,1.2070216
1421496318,-19.54788,37.719997,101560.0,1.2067008
1421507263,-20.044636,37.719997,101566.0,1.2067721
1421529270,-21.207256,37.719997,101580.0,1.2069384
1421542884,-22.036945,37.719997,101590.0,1.2070572
1421555254,-21.122702,37.719997,101579.0,1.2069266
1421579687,-21.624743,37.71,101585.0,1.2069979
1421591273,-20.37757,37.71,101569.99,1.2068195
1421601283,-21.207256,37.71,101580.0,1.2069384
1421627780,-22.290607,37.71,101593.0,1.2070929
1421639259,-19.880812,37.71,101563.99,1.2067482
1421651876,-20.795055,37.71,101575.0,1.206879
1421677253,-22.036945,37.71,101590.0,1.2070572
1421689284,-21.207256,37.71,101580.0,1.2069384
1421701255,-21.54019,37.71,101584.0,1.206986
1421736278,-20.462122,37.71,101571.0,1.2068315
1421748039,-20.95888,37.71,101576.99,1.2069027
1421771302,-20.795055,37.7,101575.0,1.206879
1421783133,-22.454432,37.7,101594.99,1.2071166
1421795692,-21.376366,37.7,101582.0,1.2069622
1421819181,-22.206053,37.7,101592.0,1.207081
1421830935,-22.369877,37.7,101594.0,1.2071048
1421841258,-19.463326,37.7,101559.0,1.2066889
1421865295,-21.788567,37.71,101587.0,1.2070216
1421878526,-21.207256,37.71,101580.0,1.2069384
1421889269,-21.207256,37.71,101580.0,1.2069384
1421911704,-22.036945,37.7,101590.0,1.2070572
1421922264,-20.95888,37.7,101576.99,1.2069027
1421934257,-21.873121,37.7,101588.0,1.2070335
1421959334,-20.541391,37.71,101572.0,1.2068434
1421971600,-21.624743,37.71,101585.0,1.2069979
1421983706,-21.624743,37.71,101585.0,1.2069979
1422007749,-20.625946,37.69,101573.0,1.2068553
1422020525,-21.624743,37.69,101585.0,1.2069979
1422031729,-20.625946,37.69,101573.0,1.2068553
1422055372,-22.454432,37.69,101594.99,1.2071166
1422067818,-20.7105,37.69,101574.0,1.2068671
1422080149,-20.625946,37.69,101573.0,1.2068553
1422102344,-20.625946,37.69,101573.0,1.2068553
1422114299,-20.12919,37.69,101567.0,1.206784
1422126257,-20.12919,37.69,101567.0,1.206784
1422147625,-22.036945,37.69,101590.0,1.2070572
1422159729,-21.122702,37.69,101579.0,1.2069266
1422171613,-22.1215,37.69,101591.0,1.2070692
1422196016,-22.1215,37.69,101591.0,1.2070692
1422207721,-21.122702,37.69,101579.0,1.2069266
1422243769,-21.957676,37.69,101588.99,1.2070453
1422255776,-19.463326,37.69,101559.0,1.2066889
1422266306,-19.711704,37.69,101562.0,1.2067245
1422292750,-22.1215,37.69,101591.0,1.2070692
1422304294,-20.95888,37.69,101576.99,1.2069027
1422315997,-22.538986,37.69,101596.0,1.2071285
1422338254,-20.7105,37.68,101574.0,1.2068671
1422351735,-20.37757,37.68,101569.99,1.2068195
1422362295,-22.036945,37.68,101590.0,1.2070572
1422383260,-22.1215,37.68,101591.0,1.2070692
1422395256,-20.213745,37.68,101568.0,1.2067958
1422407260,-20.7105,37.68,101574.0,1.2068671
1422431271,-20.213745,37.68,101568.0,1.2067958
1422443259,-21.291811,37.68,101581.0,1.2069503
1422455340,-20.7105,37.68,101574.0,1.2068671
1422476969,-21.291811,37.68,101581.0,1.2069503
1422487257,-20.874325,37.68,101575.99,1.2068908
1422499259,-21.957676,37.68,101588.99,1.2070453
1422524650,-21.709297,37.68,101586.0,1.2070097
1422536526,-23.20485,37.68,101604.0,1.2072237
1422547272,-20.293015,37.68,101569.0,1.2068077
1422570259,-21.709297,37.67,101586.0,1.2070097
1422581253,-21.709297,37.67,101586.0,1.2070097
1422592530,-21.54019,37.67,101584.0,1.206986
