timestamp,gyro_rad[0],gyro_rad[1],gyro_rad[2],gyro_integral_dt,accelerometer_timestamp_relative,accelerometer_m_s2[0],accelerometer_m_s2[1],accelerometer_m_s2[2],accelerometer_integral_dt
1398997038,-0.015937164,-0.06754961,-0.028262323,3979,0,-0.37248638,0.26471218,-10.409841,3979
1399001038,-0.0071608685,0.027834408,0.001958627,4000,0,0.06902339,0.27697805,-10.026509,4000
1399005040,-0.00049075566,-0.007891449,-0.007224495,4002,0,0.35746312,-0.043594882,-9.058603,4002
1399009038,-0.01110323,-0.04610813,-0.04317579,3998,0,-0.08568423,0.2586778,-10.7928915,3998
1399013038,-0.030718667,3.0424706e-05,0.009902402,4000,0,0.90026504,-0.29539347,-8.804937,4000
1399017040,-0.018714905,-0.040903233,-0.034369737,4002,0,-0.5434866,-0.19064367,-10.105006,4002
1399021064,-0.01790426,0.0070785377,-0.00012476475,4024,0,0.26807317,0.3322791,-10.505554,4024
1399025038,0.0013525296,-0.014274126,-0.011997507,3974,0,0.21952459,-0.2546706,-8.984236,3974
1399029038,-0.008148459,-0.024739241,-0.022702763,4000,0,0.004855735,0.29110238,-10.513145,4000
1399033038,-0.009271167,-0.015847387,-0.0022278042,4000,0,0.58585733,-0.07266559,-9.066397,4000
1399037038,-0.0020947142,-0.012707026,-0.034761187,4000,0,-0.26909953,0.40824008,-9.532307,4000
1399041039,-0.013264532,-0.030205082,0.00960333,4001,0,0.100259915,0.117906965,-10.950246,4001
1399045038,0.009771498,0.03214744,-0.029514145,3999,0,0.53433144,-0.6435393,-8.632857,3999
1399049060,0.009850595,-0.077998616,0.011220009,4022,0,0.2182124,0.11964568,-10.647636,4022
1399053040,-0.017951187,-0.016034914,-0.011904121,3980,0,-0.046401583,-0.2944985,-9.468165,3980
1399057038,-0.0056626876,-0.0021996289,-0.027227623,3998,0,0.19754636,0.4764963,-8.8617,3998
1399061038,-0.04941584,-0.09102394,0.0066277017,4000,0,-0.25974518,0.011910661,-11.14843,4000
1399065038,0.011069334,0.07413278,-0.035471328,4000,0,0.64869064,-0.44542044,-7.769558,4000
1399069038,-0.028747628,-0.1390427,0.031745765,4000,0,0.21453246,0.7328417,-11.643143,4000
1399073038,-0.050073788,0.045414954,-0.027081918,4000,0,0.035614915,-0.8618759,-8.931919,4000
1399077060,-0.043925103,-0.070771486,-0.016152361,4022,0,0.5170902,0.9121307,-9.64939,4022
1399081038,-0.06568324,-0.07273212,0.010588675,3978,0,-0.8898607,-0.6414672,-10.683643,3978
1399085038,0.011975052,0.096061684,-0.024475083,4000,0,1.5068558,-0.123067334,-8.273451,4000
1399089038,-0.07106485,-0.21039179,0.040303107,4000,0,-0.8313135,0.5181937,-11.637894,4000
1399093039,-0.032781538,0.1380485,-0.033247754,4001,0,0.5999921,-0.8493846,-8.360476,4001
1399097038,-0.06927877,-0.1858301,-0.0136948,3999,0,0.6160078,1.4297957,-10.5864,3999
1402194640,-0.043262262,-0.18267623,-0.023934698,4002,0,-0.06552011,1.1628596,-9.589248,4002
1402198638,-0.028920164,0.09104951,0.010919338,3998,0,-0.27451968,-0.61384606,-10.504749,3998
1402202642,0.015954245,-0.016355157,-0.018840177,4004,0,1.460289,0.16974509,-8.514611,4004
1402206640,-0.017549202,-0.1093045,0.023416849,3998,0,-1.1283877,0.063046604,-11.284904,3998
1402210639,-0.0063081495,0.10212515,-0.013871392,3999,0,1.1833239,-0.5294924,-9.3595495,3999
1402214638,-0.030416058,-0.15292646,-0.02586221,3999,0,-0.39687228,0.7854101,-9.943793,3999
1402218638,-0.0038849795,0.12366792,0.009241077,4000,0,-0.11149803,-0.6744,-9.313955,4000
1402222639,0.020518152,-0.06434806,-0.030131409,4001,0,0.6597719,0.5404314,-9.338018,4001
1402226638,-0.009446321,-0.0037958766,0.025148377,3999,0,-0.5002762,0.111097805,-10.678911,3999
1402230642,-0.014844967,0.025020665,-0.02369963,4004,0,0.9415726,-0.2723556,-9.415353,4004
1402234638,-0.037401095,-0.0690374,-0.013590704,3996,0,-0.32870892,0.3213591,-10.148359,3996
1402238641,-0.028896892,0.06952663,0.015931066,4003,0,0.5351056,-0.44810697,-9.467591,4003
1402242638,-0.020845829,-0.06932456,-0.033997968,3997,0,-0.16866563,0.018637981,-9.722041,3997
1402246638,-0.032773703,0.06294268,0.029681604,4000,0,0.23052955,0.07995702,-9.927552,4000
1402250638,-0.03328442,-0.035816483,-0.02130386,4000,0,0.37088344,-0.15944844,-9.466051,4000
1402254638,-0.037066456,0.005876167,-0.013605202,4000,0,-0.098414496,0.7057973,-10.165554,4000
1402258638,-0.030842327,0.008695496,0.013949999,4000,0,0.59099567,-0.04888992,-9.391361,4000
1402262638,-0.0176647,-0.009857746,-0.04702748,4000,0,-0.71765345,-0.042995606,-10.3365755,4000
1402266639,-0.028323999,0.05894797,0.03377791,4001,0,0.77837163,-0.070484184,-9.335331,4001
1402270640,-0.018017216,-0.05739312,-0.02807907,4001,0,-0.014886084,-0.5645219,-9.535795,4001
1402274639,-0.018845942,0.05040826,0.004991516,3999,0,0.60969746,0.57352936,-10.49312,3999
1402278638,-0.018576888,-0.052900825,0.0212096,3999,0,0.04761374,-0.2122858,-9.186676,3999
1402282638,0.0028464226,0.03506263,-0.043407466,4000,0,-0.54913807,0.39596635,-10.046909,4000
1402286639,-0.033222545,0.0057465276,0.036828037,4001,0,0.7831509,0.28259313,-9.553899,4001
1402290640,-0.0110441195,-0.015206516,-0.036028072,4001,0,-0.029263927,-0.7496588,-9.297069,4001
1402294638,-0.014607915,0.0071718753,0.018609134,3998,0,0.6290348,0.5572951,-11.117185,3998
1402298638,-0.020911237,-0.038424823,0.008553045,4000,0,-0.12085201,-0.67462486,-8.710545,4000
1402302662,-0.0053946394,0.023139657,-0.03114773,4024,0,-0.18141854,0.2854681,-10.236773,4024
1402306638,-0.03758418,-0.010294879,0.025086408,3976,0,0.4810756,0.21432929,-9.646416,3976
1402310641,0.012281253,0.03372333,-0.038870245,4003,0,-0.052553236,-0.39391646,-8.631857,4003
1402314638,-0.017411925,-0.012618224,0.021502852,3997,0,0.3324965,0.9116299,-11.871742,3997
1402318640,-0.022786178,0.021284528,8.996265e-05,4002,0,0.19217375,-0.80105615,-7.7803307,4002
1402322639,-0.012646949,-0.016786594,-0.018052567,3999,0,0.109562665,0.33468375,-11.452163,3999
1402326638,-0.041116465,0.011293651,0.01894756,3999,0,0.17016971,-0.39835212,-9.559621,3999
1402330638,0.019168308,0.02784641,-0.019552466,4000,0,0.26384306,-0.19343856,-8.083448,4000
1402334638,-0.051427927,-0.053895522,0.014569787,4000,0,-0.24521807,0.7742886,-12.428223,4000
1402338638,-0.012676784,0.10197971,-0.018997509,4000,0,0.87734896,-0.50158197,-6.8960147,4000
1402342638,-0.032348577,-0.09137409,0.0015148809,4000,0,-0.2915345,0.5834796,-12.234482,4000
1402346639,-0.048975606,0.06404453,0.0035007414,4001,0,0.50908387,-0.68659097,-9.308326,4001
1402350638,-0.0024405078,-0.018216211,0.00012745759,3999,0,0.40836737,0.17738079,-9.018817,3999
1402354641,-0.051891424,-0.027414791,0.020506544,4003,0,-0.7322765,0.030201944,-11.678559,4003
1402358638,-0.01597303,0.10939722,-0.00926327,3997,0,1.1652633,-0.20122422,-6.5991244,3997
1402362638,-0.049513165,-0.12815787,0.002981115,4000,0,-0.96772623,0.55161494,-12.134715,4000
1402366638,-0.012642432,0.1747638,-0.0051577566,4000,0,0.8694713,-0.43149465,-8.580665,4000
1402370638,-0.0062331827,-0.115200095,-0.0051510627,4000,0,0.0479861,0.3139732,-9.493518,4000
1402374638,-0.02877831,0.06524991,0.0053544817,4000,0,-0.48717833,-0.2818846,-11.702121,4000
1402378639,0.008247113,0.059347246,0.006463041,4001,0,1.630986,0.010499702,-7.3956027,4001
1402386639,0.015200966,0.15515329,0.00028691225,4001,0,1.2257329,-0.31519407,-8.025779,4001
1402390640,0.0013516076,-0.13441542,0.0029347907,4001,0,-0.7163009,0.6963569,-10.318184,4001
1402394638,0.0044087213,0.14503384,0.007505264,3998,0,0.2062341,-0.37801924,-10.155221,3998
1402398639,0.016289655,-0.04799958,-0.01753687,4001,0,1.269358,0.2903621,-8.44697,4001
1402402638,-0.013568983,-0.0034931293,0.021724276,3999,0,-1.2389997,-0.16236715,-11.426193,3999
1402406639,0.01112417,0.09665009,-0.0032266036,4001,0,1.4616897,-0.17027922,-8.300547,4001
1402410638,-0.020349398,-0.12184249,0.010720004,3999,0,-0.99681157,0.27073148,-10.407088,3999
1402414638,-0.007154385,0.15092729,0.01792561,4000,0,0.5775559,-0.5910655,-9.741169,4000
1402418638,-0.0037574545,-0.12740849,-0.011381899,4000,0,0.63292426,0.35013512,-9.177124,4000
1402422638,-0.005672772,0.0667353,0.03263472,4000,0,-0.6311846,-0.026669474,-10.534509,4000
1402426647,0.007960606,-0.0033181722,-0.016533418,4009,0,1.0314306,0.19389148,-8.908901,4009
1402430638,-0.025292577,-0.03495556,-0.008259608,3991,0,-0.6217643,0.1360972,-10.405539,3991
1402434638,-0.0075449846,0.100317754,0.014462665,4000,0,0.8962324,-0.4721542,-9.461592,4000
1402438638,-0.005708774,-0.11361364,-0.0011508522,4000,0,-0.3166534,0.023692738,-9.69835,4000
1402442638,0.00043528737,0.11035134,0.038980033,4000,0,0.03537437,-0.009220991,-10.094182,4000
1402446638,0.0031702074,-0.0697712,-0.017646054,4000,0,0.49212098,0.32934502,-9.116434,4000
1402450638,-0.0080031,0.05519791,-0.0014076291,4000,0,-0.47113487,0.1987902,-10.133062,4000
1402454638,0.008881149,0.02418523,0.023003073,4000,0,0.8348653,-0.059469756,-9.476628,4000
1402458638,0.004894847,-0.06169911,-0.01420215,4000,0,-0.49706054,-0.31450796,-10.101536,4000
1402462638,0.006460258,0.0879052,0.035735056,4000,0,0.62303424,0.007868341,-10.125062,4000
1402466638,0.0011649904,-0.10670039,-0.0152581455,4000,0,-0.029828964,-0.17994453,-9.343371,4000
1402470639,0.0100496905,0.09076191,0.0068239425,4001,0,0.28958175,0.35197338,-9.786161,4001
1402474641,0.015612897,-0.0695658,0.01975425,4002,0,0.113708995,0.15973622,-9.2885065,4002
1402478639,0.04549523,0.035365466,-0.012264575,3998,0,-0.35167402,-0.10291993,-10.202922,3998
1402482639,0.0218772,-0.0035609987,0.04247609,4000,0,0.92742515,0.5087946,-10.183365,4000
1402486638,0.019922039,-0.042544708,-0.02081618,3999,0,-0.35127726,-0.78144616,-9.624498,3999
1402490638,0.033551227,0.08257232,0.027516881,4000,0,0.76534164,0.42703652,-9.989397,4000
1402494638,0.024733974,-0.0843669,0.031416114,4000,0,-0.42258582,-0.24236175,-8.941185,4000
1402498638,0.06283013,0.082270086,-0.009200195,4000,0,0.0068557123,0.11965195,-10.393108,4000
1402502638,0.023224168,-0.030360095,0.044394802,4000,0,0.6250222,0.59018624,-10.024971,4000
1402506638,0.046252515,0.030384997,-0.014661952,4000,0,-0.36339766,-0.7024245,-8.769757,4000
1402510638,0.033740066,0.023248259,0.031950973,4000,0,0.884619,0.8059746,-10.706863,4000
1402515439,0.010864724,-0.009269961,0.010552682,4801,0,-0.21675788,-0.4447192,-8.99227,4801
1402519438,0.029480109,0.060083542,0.014277235,3999,0,0.5034104,0.7706059,-11.184995,3999
1402523438,0.0128649175,-0.054462977,0.027625497,4000,0,-0.12031783,-0.57202923,-8.6622715,4000
1402527439,0.042467576,0.0819323,-0.00092238886,4001,0,0.16447851,-0.30358753,-10.2797985,4001
1402531439,0.011609488,-0.025265213,0.04076159,4000,0,0.3958946,0.3432297,-10.07392,4000
1402535438,0.061326336,0.06714794,0.008403435,3999,0,-0.082615376,-0.24431781,-8.269711,3999
1402539441,0.023611661,-0.00080405007,0.018249705,4003,0,-0.06922848,0.84694475,-11.797915,4003
1402543438,0.034565523,0.04146949,0.016790055,3997,0,0.6056008,-0.4365122,-7.7841587,3997
1402547440,0.045982685,0.013663013,0.0141965225,4002,0,-0.04523409,-0.017689785,-10.850517,4002
1402551440,0.020064961,0.025963599,0.041596897,4000,0,0.39534345,-0.11412755,-10.008694,4000
1402555438,0.069381654,0.03732762,0.03334257,3998,0,0.23162147,-0.41132784,-8.564138,3998
1402559449,0.027287334,-0.013535262,0.01808298,4011,0,-0.44251275,0.6449611,-11.945651,4011
1402563438,0.038007524,0.09089521,0.017855354,3989,0,0.9423963,-0.13643405,-6.7626295,3989
1402567438,0.0245853,-0.024976397,0.016746912,4000,0,-0.56866676,0.37878573,-11.141683,4000
1402571438,0.010805177,0.102167316,0.020312682,4000,0,0.63267446,-0.19017355,-9.787688,4000
1402575439,0.043885008,-0.029866915,0.040471863,4001,0,0.23137361,-0.50309277,-9.065709,4001
1402579438,0.021794824,0.016241416,0.022156501,3999,0,-0.58094954,-0.00091167464,-12.005588,3999
1402583440,0.045825902,0.08550213,0.020587593,4002,0,1.6086148,-0.11503273,-6.9299994,4002
1402587438,0.019905498,-0.076054655,0.014497341,3998,0,-1.1527847,0.63078886,-11.255692,3998
1402591438,0.033961587,0.16231859,0.026260875,4000,0,0.6732335,-0.09692369,-9.023681,4000
1402595438,0.032395758,-0.09624241,0.026122816,4000,0,0.1799237,0.117543496,-9.231409,4000
1402599441,0.023223082,0.086836345,0.03041009,4003,0,-0.16549595,-0.31590244,-11.585054,4003
1402603438,0.030279383,-0.0036499018,0.022119991,3997,0,1.7806726,-0.16239232,-7.8245726,3997
1402607438,0.0035984716,-0.061608613,0.024110382,4000,0,-1.5185544,0.04075152,-11.131426,4000
1402611441,0.03428915,0.1266624,0.026244834,4003,0,0.9275805,0.026468577,-8.780598,4003
1402615439,0.03292752,-0.12338162,0.023126971,3998,0,-0.55077976,0.26302034,-9.510287,3998
1402619478,0.035092212,0.12880197,0.033109315,4039,0,0.49119526,-0.24159952,-10.637599,4039
1402623438,0.019551324,-0.08780513,0.007939683,3960,0,1.1620841,0.16794915,-8.814791,3960
1402627445,0.019751007,0.046029005,0.025522215,4007,0,-1.1697987,-0.01919962,-11.371133,4007
1402631438,0.041563656,0.037201,0.018768964,3993,0,1.0861423,0.13378775,-8.723061,3993
1402635438,0.029476067,-0.085819274,0.024458077,4000,0,-0.7755648,-0.15773839,-10.030709,4000
1402639438,0.03933148,0.12113451,0.039818324,4000,0,0.9407124,-0.33103856,-9.877757,4000
1402643438,0.03833649,-0.12563123,0.011128087,4000,0,0.41646472,0.22182274,-9.270377,4000
1402647438,0.040268227,0.087800354,0.040342063,4000,0,-0.64867884,0.06053017,-10.417458,4000
1402651438,0.046766806,-0.053653266,0.009530498,4000,0,0.98248565,0.5451282,-9.078936,4000
1402655439,0.03695647,-0.0058716675,0.010587797,4001,0,-0.62856394,-0.26017073,-10.341811,4001
1402659439,0.0678208,0.08686079,0.028659891,4000,0,1.050031,-0.20766799,-9.511958,4000
1402663440,0.060915902,-0.11617686,0.018553725,4001,0,-0.24310827,-0.22022088,-9.717323,4001
1402667441,0.08059047,0.13963178,0.042283107,4001,0,0.09961533,0.014408141,-10.557602,4001
1402671440,0.05940238,-0.105058715,-0.00306682,3999,0,0.5628617,0.5966353,-8.833988,3999
1402675438,0.060779303,0.08742146,0.012285116,3998,0,-0.64147824,-0.055008408,-10.048479,3998
1402679438,0.062828645,0.039861273,0.029722465,4000,0,0.984419,0.43515262,-9.207299,4000
1402683441,0.049438152,-0.07320853,0.00585401,4003,0,-0.41557038,-0.7259608,-10.5430565,4003
1402687438,0.06989589,0.11617695,0.050041713,3997,0,0.60886526,0.053214405,-10.257685,3997
1402691438,0.042919368,-0.10767723,-0.004408272,4000,0,-0.02495579,-0.1151026,-9.016145,4000
1402695441,0.06355682,0.14122576,0.010887931,4003,0,0.061247617,0.26253235,-9.611083,4003
1402699438,0.045946658,-0.043388266,0.019129975,3997,0,0.28367966,0.4100216,-9.056721,3997
1402703438,0.050386056,0.049883723,-0.010345576,4000,0,-0.4365522,-0.44038835,-10.533757,4000
1402707438,0.04510238,0.051492225,0.05089395,4000,0,1.0575002,0.5156883,-10.316036,4000
1402711439,0.029012186,-0.06266073,-0.01080407,4001,0,-0.3819614,-0.7784439,-9.516659,4001
1402715438,0.06192333,0.1317431,0.01902327,3999,0,0.8933676,0.30077115,-10.150076,3999
1402719441,0.022791572,-0.081134684,0.026619438,4003,0,-0.36444777,0.061433103,-8.913595,4003
1402723438,0.042700864,0.109103665,-0.017596528,3997,0,-0.24252698,-0.08589213,-9.961345,3997
1402727438,-0.002906977,-0.024770176,0.036110774,4000,0,0.9225691,0.6898406,-9.998289,4000
1402731439,0.035521246,0.03269736,-0.014010456,4001,0,-0.5534907,-1.0713725,-9.213316,4001
1402735438,0.037986804,0.060075518,0.014391649,3999,0,1.2249101,0.75809896,-10.214469,3999
1402739441,-0.0038759692,-0.085531384,0.0053245234,4003,0,-0.6094905,-0.4893671,-8.987127,4003
1402743438,0.018080007,0.12924522,-0.008873979,3997,0,0.1775774,0.014885595,-11.064131,3997
1402747438,-0.015514893,-0.07894877,0.032749645,4000,0,0.48191774,0.26919642,-8.751243,4000
1402751439,0.056568835,0.08803146,-0.010944869,4001,0,-0.30398345,-0.5183429,-9.4302635,4001
1402755440,0.017836476,0.0015647219,0.019497981,4001,0,0.95574456,0.9639331,-11.030546,4001
1402759438,0.016061267,-0.018832462,-0.005954997,3998,0,-0.42402163,-0.73326766,-8.531963,3998
1402763438,0.02210432,0.060872454,-0.0096158665,4000,0,0.20309536,0.6192933,-11.35778,4000
1402767438,0.01878801,-0.03937222,0.0063078315,4000,0,0.43262327,-0.04886571,-8.34359,4000
1402771439,0.07668241,0.06997803,-0.009912564,4001,0,0.09395958,-0.5164645,-9.813035,4001
1402775438,0.029280562,-0.0024483656,0.024648461,3999,0,0.13033375,0.5341896,-11.119538,3999
1402779441,0.053278074,0.039556853,-0.009323537,4003,0,0.11376534,-0.43344283,-7.466351,4003
1402783438,0.016364748,-0.0041716383,-0.0052457275,3997,0,-0.27222937,0.78282076,-12.114494,3997
1402791438,0.054556757,-0.0044472185,0.008474843,4000,0,-0.1930866,-0.17406072,-10.368008,4000
1402795439,0.013162116,0.029746315,0.018692525,4001,0,0.059271626,0.27353838,-10.871676,4001
1402799438,0.031100292,0.018998818,0.01140208,3999,0,0.42918745,-0.45325267,-7.7302322,3999
1402803438,0.004764838,-0.030249815,-0.0059391144,4000,0,-0.65049475,0.6397928,-11.846912,4000
1402807438,0.021165712,0.062561154,-0.0004533788,4000,0,1.3267447,-0.34616017,-7.2159495,4000
1402811442,0.026806235,-0.046136398,0.0046401597,4004,0,-0.68820536,0.24464083,-11.060073,4004
1402815438,0.000625306,0.08118261,0.0009516632,3996,0,0.45446151,0.0908466,-10.489807,3996
1402819441,0.015123566,-0.033678677,0.013157406,4003,0,0.6225591,-0.4284956,-8.16651,4003
1402823438,-0.006561453,-0.021888329,0.0081965225,3997,0,-0.6681267,0.07801046,-12.085959,3997
1402827438,0.033734303,0.055170503,-0.0021616616,4000,0,1.4645556,-0.1866398,-7.5093694,4000
1402831438,0.012724296,-0.079781614,-0.0072040115,4000,0,-1.0355371,0.5649925,-10.864456,4000
1402835439,0.016326783,0.11759681,-0.009366313,4001,0,0.435367,0.023605619,-9.507325,4001
1402839438,0.01843543,-0.08259861,-0.004125093,3999,0,0.4610973,-0.0016881066,-8.91125,3999
1402843439,0.004682492,0.025880152,0.010568245,4001,0,-0.15141322,-0.24183288,-11.491503,4001
1402847440,0.026520701,-0.0020660872,-0.020929936,4001,0,1.2859977,0.024249172,-8.342239,4001
1402851438,0.015917528,-0.050875247,0.004494394,3998,0,-1.1438276,0.1914792,-11.012046,3998
1402855438,0.036185306,0.08022956,-0.014624184,4000,0,0.70335186,-0.1230358,-8.664205,4000
1402859438,0.022103274,-0.090589285,-0.004478358,4000,0,-0.18177694,0.3219488,-9.430788,4000
1402863438,0.021823172,0.08246676,0.012140658,4000,0,0.3054007,-0.11013348,-10.312052,4000
1402867438,0.03260796,-0.08890251,-0.026767267,4000,0,0.9023123,0.19889678,-9.478086,4000
1402871439,0.01897419,0.0049722996,0.008610045,4001,0,-0.9674675,-0.12719269,-11.136878,4001
1402875440,0.04636859,0.02499547,-0.028198691,4001,0,1.035689,0.016835356,-8.373307,4001
1402879439,0.0148712415,-0.0993192,-0.013887149,3999,0,-0.47785038,0.1535979,-10.143767,3999
1402883438,0.031526994,0.12780926,0.019917345,3999,0,0.4627282,-0.10485696,-9.714508,3999
1402887438,0.024606619,-0.1358927,-0.02009881,4000,0,0.1869724,0.1253463,-9.77298,4000
1402891438,0.022641446,0.06457488,0.01622555,4000,0,-0.34910953,0.083821006,-10.319958,4000
1402895438,0.021332016,-0.057183947,-0.020626616,4000,0,1.1003717,0.21590026,-8.599878,4000
1402899438,-0.012458333,-0.046091624,-0.013264248,4000,0,-0.74221826,-0.30463067,-10.727267,4000
1402903438,0.017623601,0.08938587,0.021565862,4000,0,0.8686439,-0.10548263,-8.941204,4000
1402907439,-0.010252307,-0.14988127,-0.012015369,4001,0,-0.6643927,-0.04206975,-10.498767,4001
1402911438,0.006133641,0.15025143,0.005659624,3999,0,0.3546637,0.15413748,-9.778057,3999
1402915439,-0.0017508777,-0.1285324,-0.0273474,4001,0,0.843071,0.35572276,-9.218221,4001
1402919439,0.0006398343,0.071920946,-0.033313084,4000,0,-0.6578875,-0.23582433,-10.513744,4000
1402923439,0.023043308,0.022785828,0.006461368,4000,0,0.96687514,0.4104273,-8.790737,4000
1402927438,-0.01066351,-0.074153915,-0.028937602,3999,0,-1.0512215,-0.53588927,-10.869625,3999
1402931439,0.008825776,0.12712464,0.016052084,4001,0,1.4888223,0.18438083,-9.451297,4001
1402935438,-0.016359407,-0.17333862,-0.019951902,3999,0,-0.43175882,-0.011125755,-9.566372,3999
1402939440,0.025263324,0.15601483,-0.022731315,4002,0,0.06638303,0.21547139,-9.661765,4002
1402943438,0.001205003,-0.11133172,-0.00085874036,3998,0,0.49279362,0.4447539,-8.925714,3998
1402947442,0.008301607,0.04658813,-0.032232836,4004,0,-0.978367,-0.51664895,-11.004032,4004
1402951438,-0.0036298635,0.03418411,0.014589783,3996,0,1.903791,0.3473538,-9.091937,3996
1402955438,-0.0032063224,-0.12608239,-0.01755607,4000,0,-0.9244763,-0.7200107,-9.7036495,4000
1402959438,0.025166102,0.13158073,-0.0084288595,4000,0,0.81001556,0.4560163,-10.682443,4000
1402963441,-0.003675176,-0.157327,-0.0073524886,4003,0,-0.08703333,0.40396002,-8.278867,4003
1402968238,0.014684822,0.07936307,-0.023154054,4797,0,-0.2361041,-0.16116975,-11.103078,4797
1402972239,-0.010013961,-0.102702014,-0.0027462866,4001,0,0.7760998,0.5280005,-8.08763,4001
1402976238,0.040009387,0.03431613,-0.032291953,3999,0,-0.715402,-0.50598294,-10.217798,3999
1402980238,0.016424956,-0.0011737734,0.0094409995,4000,0,1.3567307,0.85010654,-10.322191,4000
1402984240,0.01673371,-0.09125193,-0.020495651,4002,0,-0.6290266,-0.81656754,-8.837588,4002
1403000238,0.005067517,-0.05047357,0.003196185,4000,0,0.5405091,0.71438724,-10.645768,4000
1403004238,0.028526377,-0.021622777,-0.022223374,4000,0,-0.14225735,-0.6515183,-7.6626387,4000
1403008238,-0.0024200696,-0.055769324,-0.018934216,4000,0,0.3540276,0.8080525,-11.984564,4000
1403012238,-0.020991484,-0.06510656,-0.02488661,4000,0,0.52604306,-0.74738234,-7.8450527,4000
1403016238,0.03334461,0.013261589,-0.019832509,4000,0,-0.27443704,-0.0145384995,-10.974746,4000
1403020238,-0.024843136,-0.06359993,-0.009083349,4000,0,0.0126021635,0.38854417,-10.075605,4000
1403024240,0.02786589,0.02121614,-0.015529428,4002,0,0.34487396,-0.3412271,-8.457336,4002
1403028238,-0.028206691,-0.063989244,-0.014237791,3998,0,-0.035881426,0.70228004,-11.9994955,3998
1403032238,-0.005087303,0.015022071,-0.02232295,4000,0,0.8050064,-0.45032233,-7.5339317,4000
1403036238,-0.0038507294,-0.031615462,-0.011529146,4000,0,-0.5302548,0.55717367,-10.568406,4000
1403040238,-0.03669872,6.1822902e-06,-0.018662931,4000,0,0.13143945,-0.23981683,-9.890067,4000
1403044238,-0.010832575,0.016418608,-0.0035909468,4000,0,0.78270304,-0.36929974,-8.709356,4000
1403048238,-0.0340824,-0.07821378,0.0018843453,4000,0,-0.45973623,0.19123925,-11.340745,4000
1403052239,-0.0019942846,0.058241725,-0.022544753,4001,0,0.9833635,-0.11584584,-8.215232,4001
1403056238,-0.013258524,-0.04576875,-0.014109744,3999,0,-0.7415695,0.7356939,-11.008632,3999
1403060238,-0.00818739,0.062059306,-0.033076745,4000,0,0.34073463,-0.16976604,-9.380722,4000
1403064238,0.0013609092,-0.006717072,-0.011050964,4000,0,0.37699926,-0.11349283,-9.325515,4000
1403068238,-0.016449643,0.013113863,-0.00739421,4000,0,-0.17511606,-0.105071455,-10.68342,4000
1403072238,0.0035945266,0.023090264,-0.014548753,4000,0,1.185546,-0.1669502,-8.518365,4000
1403076238,-0.01624656,-0.028232278,-0.0070768925,4000,0,-1.2175244,0.38506803,-11.416097,4000
1403080238,0.004557201,0.08030966,-0.03213872,4000,0,0.72727144,-0.050820295,-8.483584,4000
1403084238,-0.0070661353,-0.024923056,-0.02153653,4000,0,-0.11304117,0.2631007,-9.741048,4000
1403088238,-0.005652662,0.07226751,-0.01610327,4000,0,0.24660535,0.07196001,-10.035649,4000
1403092238,0.002662049,-0.019618457,-0.019104088,4000,0,0.76661265,-0.07483244,-9.670061,4000
1403096238,-0.012275339,0.0039248704,0.0026394057,4000,0,-0.5423411,-0.11897115,-11.085486,4000
1403100238,0.0065114186,0.020244427,-0.021974523,4000,0,0.61913556,-0.2255255,-8.625291,4000
1403104238,-0.007159622,-0.0147813745,-0.023743339,4000,0,-0.119038135,0.33903748,-9.670051,4000
1403108238,0.008776801,0.088470586,-0.002155366,4000,0,0.07907456,0.14271933,-9.329537,4000
1403112238,0.00401484,-0.041068032,-0.023241507,4000,0,0.3985016,0.04564202,-10.37513,4000
1403116238,0.006886737,0.057085562,-0.0015479124,4000,0,-0.134335,0.22922377,-10.292119,4000
1403120238,-0.0036695378,-0.033332657,-0.023105664,4000,0,0.7402663,-0.1585338,-9.142696,4000
1403124238,-0.019647704,0.01618968,-0.020942736,4000,0,-0.31016368,-0.23917285,-10.110771,4000
1403128238,-0.007761018,0.039396938,-0.0016656126,4000,0,0.47016245,0.073386714,-8.970303,4000
1403132238,-0.014419151,-0.044630177,-0.025114039,4000,0,-0.35760432,-0.06190412,-10.237148,4000
1403136238,0.00050101045,0.093645275,0.0016228422,4000,0,0.5957184,0.44436842,-9.281778,4000
1403140238,-0.010418042,-0.07144571,-0.020231146,4000,0,0.18333393,0.010749357,-9.59838,4000
1403144238,-0.017206818,0.10366409,-0.039489947,4000,0,-0.11669418,0.078759685,-10.428293,4000
1403148238,-0.012787062,-0.026919685,-0.002767819,4000,0,0.7102623,0.3272466,-9.041951,4000
1403152238,-0.03262336,-0.001681198,-0.038755067,4000,0,-0.9537527,-0.5821093,-10.522259,4000
1403156238,-0.0096354885,0.09597979,0.004531575,4000,0,1.3629494,0.30324,-8.774609,4000
1403160239,-0.019793225,-0.107269235,-0.018223345,4001,0,-0.43580684,-0.055802464,-10.253868,4001
1403164238,0.0034520642,0.1605048,-0.038961314,3999,0,0.3896824,0.44270647,-10.052519,3999
1403168238,-0.013726614,-0.11568573,5.715206e-05,4000,0,0.21190087,0.32411885,-9.214497,4000
1403172238,0.0040628756,0.10157619,-0.050807606,4000,0,-0.7435109,-0.68399024,-10.73311,4000
1403176238,0.010186553,0.039331395,0.0040767323,4000,0,1.7224166,0.75781935,-8.50369,4000
1403180252,-0.011039355,-0.070062965,-0.018398123,4014,0,-0.9739628,-0.72626317,-10.352635,4014
1403184238,0.021935115,0.15442634,-0.03152285,3986,0,0.9545125,0.5064057,-10.4806595,3986
1403216238,-0.041832242,-0.093587175,0.0062433323,4000,0,0.6258615,0.75132245,-10.360486,4000
1403220241,0.022210142,0.115308434,-0.028912932,4003,0,-0.48693156,-0.8917339,-8.629938,4003
1403224238,-0.013952714,-0.0041800677,-0.01784686,3997,0,0.6838571,1.2943685,-11.102172,3997
1403228239,-0.04498123,5.8880276e-05,-0.00627663,4001,0,0.07059643,-0.84246397,-7.891776,4001
1403232238,-0.032689936,0.07479064,-0.038009435,3999,0,0.3896984,0.0773123,-11.231892,3999
1403236238,-0.07504363,-0.058744278,0.0063386825,4000,0,-0.2985899,0.2558609,-10.174338,4000
1403240238,0.010705885,0.13595751,-0.012148739,4000,0,0.26766315,-0.75801766,-8.353395,4000
1403244238,-0.063583255,-0.07844999,-0.021365808,4000,0,0.037201103,1.2119939,-11.421718,4000
1403248238,-0.037266247,0.13020329,-0.02043087,4000,0,0.56937045,-0.84521276,-7.743714,4000
1403252238,-0.05909341,-0.003559497,-0.025028942,4000,0,0.2896332,0.67083585,-11.296113,4000
1403256239,-0.08024793,-0.017525047,-0.012549322,4001,0,-0.07631823,-0.50479025,-9.368783,4001
1403260238,-0.028803037,0.08067516,-0.0054316237,3999,0,0.460778,-0.36531812,-9.251828,3999
1403264238,-0.09465083,-0.10176156,-0.009859773,4000,0,-0.2921784,0.8053071,-10.949967,4000
1403268238,-0.051011693,0.10522045,-0.0042037806,4000,0,0.99948,-0.63537395,-8.205315,4000
1403272238,-0.052060004,-0.06754094,-0.031021234,4000,0,-0.6081615,0.9222518,-10.802798,4000
1403276238,-0.039080903,0.064595,-0.006850114,4000,0,0.4241775,-0.47513393,-8.898838,4000
1403280238,-0.027280174,-0.006539989,-0.014437797,4000,0,0.28130555,0.118196085,-10.178523,4000
1403284238,-0.052736122,-0.03138743,-0.021998268,4000,0,-0.2495245,-0.033474762,-10.520403,4000
1403288238,-0.0055214544,0.07652468,-0.006340515,4000,0,1.0918206,-0.4975689,-8.616244,4000
1403292238,-0.013634177,-0.0627176,-0.015255236,4000,0,-0.6264212,0.70806295,-10.97207,4000
1403296238,-0.0058752797,0.04274033,-0.0030611488,4000,0,0.725934,-0.2340525,-9.000695,4000
1403300238,-0.009327703,-0.016009595,-0.022478672,4000,0,-0.42233455,0.5606283,-10.561262,4000
1403304238,-0.018937608,0.0067214184,-0.01654435,4000,0,0.26767674,-0.1250279,-9.731662,4000
1403308238,0.015396203,0.036828037,-0.022597793,4000,0,0.74822444,-0.09446308,-8.929158,4000
1403312239,0.0047187693,-0.022259789,-0.007159093,4001,0,-0.38717905,0.2900182,-10.6314125,4001
1403316238,0.002727258,0.04902197,-0.011741419,3999,0,0.41730702,-0.2909973,-9.474595,3999
1403320238,0.002241112,0.008229525,-0.02230959,4000,0,-0.027792126,0.31826127,-9.939153,4000
1403324238,0.0015431403,0.030580962,-0.0057252,4000,0,0.21146762,-0.24216197,-9.625986,4000
1403328238,0.0263239,0.05215959,-0.022418967,4000,0,0.48092026,-0.020729482,-9.161519,4000
1403332238,0.00030556344,0.010945786,-5.388881e-05,4000,0,-0.1905202,0.39917156,-10.328775,4000
1403336238,-0.014562683,0.047959905,-0.015698023,4000,0,0.3564343,-0.23370115,-9.852591,4000
1403340238,-0.0353334,0.018568942,-0.02764208,4000,0,0.25716162,0.2154731,-9.559275,4000
1403344239,-0.033167552,0.010259469,0.008375966,4001,0,0.18007815,-0.36463514,-9.787143,4001
1403348241,-0.01644426,0.041385867,-0.019602418,4002,0,0.2260104,-0.19965355,-9.598338,4002
1403352239,-0.022564916,0.02193322,0.00741812,3998,0,0.06540341,0.371939,-10.096203,3998
1403356238,-0.029624414,0.0363944,-0.014982184,3999,0,-0.10055391,-0.17731902,-9.610062,3999
1403360238,-0.026416494,0.070888326,-0.029553177,4000,0,0.4417437,0.6100987,-9.104681,4000
1403364239,-0.035012938,-0.011985503,0.018570082,4001,0,0.19542092,-0.22765644,-9.965659,4001
1403368239,-0.027210655,0.061824597,-0.03751537,4000,0,0.04121851,-0.2684947,-10.190709,4000
1403372238,-0.019245949,-0.0015427043,0.024507964,3999,0,0.5043464,0.17698129,-9.742499,3999
1403376238,-0.010306646,0.012894222,-0.019163786,4000,0,-0.34419844,-0.65289396,-9.999844,4000
1403380238,-0.013160873,0.069468535,-0.022349643,4000,0,1.0011806,0.8453185,-9.114557,4000
1403384238,-0.034793027,-0.07283481,0.010002284,4000,0,-0.43927014,-0.10731109,-9.946874,4000
1403388238,-0.009079244,0.13115954,-0.044185054,4000,0,0.035492413,0.17747848,-9.723333,4000
1403392239,-0.028897798,-0.07267102,0.017773096,4001,0,0.5128192,0.41721883,-9.930879,4001
1403396239,0.006279613,0.066360585,-0.032493,4000,0,-0.37088582,-1.1469678,-10.197234,4000
1403400238,0.017479792,0.019525776,-0.0028380996,3999,0,1.2954983,0.8137209,-9.712037,3999
1403404240,-0.0065048,-0.06331353,0.012785559,4002,0,-0.83690774,-0.50776523,-9.711248,4002
1403408238,0.025271205,0.12953772,-0.038432263,3998,0,0.34821352,0.4817121,-9.683395,3998
1403413041,-0.0025326288,-0.10490598,0.018937498,4803,0,-0.10749847,0.033423368,-9.938216,4803
1403417060,0.042126372,0.14996584,-0.037132096,4019,0,0.09126742,-0.18523449,-9.468301,4019
1403421038,-0.027145797,-0.12533322,0.013990589,3978,0,0.8933278,0.7109897,-10.0797415,3978
1403425040,0.014881357,0.09403628,-0.031025043,4002,0,-0.5479027,-1.0368452,-8.993978,4002
1403429040,0.0024802387,-0.04021491,-0.011410561,4000,0,0.9019713,1.0973839,-10.60113,4000
1403433038,-0.02242066,-0.04034598,0.012633087,3998,0,-0.74219567,-0.8225622,-9.172593,3998
1403437040,0.019965129,0.09739155,-0.050367005,4002,0,0.958151,0.032479733,-9.789103,4002
1403441038,-0.04003872,-0.12707093,0.016689096,3998,0,-0.27754742,0.46671382,-10.172916,3998
1403445060,0.043189954,0.16182455,-0.024256937,4022,0,0.17278343,-0.7129167,-8.483494,4022
1403449038,-0.02843902,-0.13327551,-0.019881502,3978,0,0.27895755,1.2844356,-11.913574,3978
1403453038,-0.01399703,0.095578894,-0.013858478,4000,0,0.025683805,-1.0598383,-8.401866,4000
1403457038,0.005401425,0.011777885,-0.0411775,4000,0,0.57226074,0.7008248,-9.869689,4000
1403461038,-0.053639345,-0.046241883,0.017554691,4000,0,-0.63868284,-0.1922796,-10.244168,4000
1403465038,0.025980683,0.12815836,-0.011408695,4000,0,1.030782,-0.712063,-8.895301,4000
1403469039,-0.034429584,-0.16382802,-0.007979028,4001,0,-0.5946513,1.1670594,-11.711896,4001
1403473060,0.02531386,0.20046453,-0.0152541,4021,0,0.6980917,-0.78084964,-7.845515,4021
1403477038,-0.0022939416,-0.078007996,-0.032011833,3978,0,-0.11904676,1.1158944,-10.160242,3978
1403481039,-0.03037456,0.06144331,0.00407087,4001,0,0.14739382,-0.7306607,-10.324862,4001
1403485040,0.026952093,0.045088112,-0.0034597458,4001,0,0.8624923,-0.21860947,-9.142538,4001
1403489038,-0.018560298,-0.102174334,-0.0010985727,3998,0,-0.94253135,0.58427066,-11.775204,3998
1403493038,0.051239945,0.1889863,0.0022200523,4000,0,1.5347726,-0.60163444,-7.494966,4000
1403497038,0.0034893577,-0.15818958,-0.03891667,4000,0,-0.92378646,1.0228586,-10.928218,4000
1403501060,0.0066746636,0.16855288,0.0017818508,4022,0,0.36534923,-0.4446942,-9.353006,4022
1403505041,0.024972567,-0.053462204,-0.017647428,3981,0,0.46715444,0.38675705,-8.602914,3981
1403509038,0.016357461,-0.0069039296,0.0053859935,3997,0,-0.5049731,-0.063573524,-11.492778,3997
1403513038,0.04591636,0.108644865,-0.0070458944,4000,0,1.7350609,-0.37599316,-8.143498,4000
1403517038,0.0075850673,-0.12287263,-0.020695489,4000,0,-1.1386504,0.40130997,-10.988652,4000
1403521038,0.0076975827,0.1572191,-0.0100995,4000,0,0.6556705,-0.25419095,-8.92594,4000
1403525038,-0.0057698754,-0.09581925,-0.02690564,4000,0,-0.1067865,0.68011236,-9.038765,4000
1403529058,-0.0027544547,0.067889325,0.005229421,4020,0,-0.12434127,-0.3106271,-10.507436,4020
1403533038,0.011467163,0.015251359,-0.02878625,3980,0,1.301147,-0.041684523,-8.596581,3980
1403537038,-0.011545736,-0.07434778,-0.009691056,4000,0,-0.8986981,0.29492503,-10.991887,4000
1403541039,-0.035857067,0.08679364,-0.017410856,4001,0,0.8704235,-0.4320847,-9.232106,4001
1403545040,-0.053612415,-0.08579126,-0.037806604,4001,0,-0.22929077,0.46245095,-9.513884,4001
1403549039,-0.05021397,0.08216816,0.010793449,3999,0,0.04146558,-0.302819,-9.96295,3999
1403553038,-0.006154755,-0.0060585462,-0.035689358,3999,0,0.6156008,0.04639612,-9.19072,3999
1403557060,-0.034259807,-0.012397523,0.014936783,4022,0,-0.32625708,0.30596685,-10.680864,4022
1403561038,-0.052689675,0.03688644,-0.027675958,3978,0,0.70486176,-0.31441563,-9.503029,3978
1403565038,-0.07154041,-0.0354949,-0.04501751,4000,0,-0.13760592,0.49878612,-9.489466,4000
1403569038,-0.06157203,0.0506926,0.009862127,4000,0,0.18306221,-0.47121987,-9.824409,4000
1403573038,-0.024850575,-0.042361703,-0.040291555,4000,0,0.3018895,0.05147894,-9.688423,4000
1403577038,-0.040971704,0.004090178,0.023434388,4000,0,0.028285308,0.1712437,-10.586079,4000
1403581038,-0.022443688,-0.0046620485,-0.024297642,4000,0,0.41995573,-0.14813879,-9.449215,4000
1403585060,-0.03624535,-0.0024361657,-0.037045136,4022,0,0.10553933,0.77049416,-9.582565,4022
1403589038,-0.024846604,0.011859299,0.005136374,3978,0,0.15195677,-0.11048281,-10.133996,3978
1403593038,0.009951655,0.007246709,-0.055928048,4000,0,-0.04151594,-0.23217817,-9.332731,4000
1403597038,0.011210061,-0.003217,0.02698851,4000,0,0.34257612,0.29890558,-10.448755,4000
1403601041,0.00659447,-0.015013998,-0.04329783,4003,0,0.18375888,-0.65093416,-9.6467495,4003
1403605038,0.006733729,0.028121226,-0.020785628,3997,0,0.6173713,0.65003604,-9.986812,3997
1403609038,-0.0003563701,-0.036390413,0.0048336014,4000,0,-0.44199866,-0.1646577,-9.732767,4000
1403613060,0.058042902,0.06321764,-0.06203665,4022,0,0.015210961,0.27619928,-9.264148,4022
1403617041,0.019307625,-0.03242782,0.026706057,3981,0,0.50976074,0.5186423,-10.493864,3981
1403621038,0.029443542,0.02987516,-0.04555145,3997,0,0.1477867,-1.1333277,-8.939065,3997
1403625040,0.010340033,-0.03154359,-0.0009646182,4002,0,0.8826918,0.8305739,-10.872781,4002
1403629038,-0.0013980366,-0.03192514,0.000596973,3998,0,-0.5769512,-0.712904,-9.288333,3998
1403633038,0.04093735,0.063605905,-0.06030914,4000,0,0.31058055,0.37626016,-9.748958,4000
1403637038,-0.019604346,-0.05832168,0.019632826,4000,0,0.03892119,0.18357961,-9.815463,4000
1403641060,0.027063167,0.095048115,-0.06010135,4022,0,0.16414833,-0.5670595,-8.510411,4022
1403645041,-0.023233665,-0.07777454,-0.0006221975,3981,0,0.6832286,1.2120053,-11.529662,3981
1403649038,-0.008850278,0.039685316,-0.012653095,3997,0,-0.21319821,-0.98635054,-8.78849,3997
1403653038,0.020572143,-0.0031690162,-0.050428007,4000,0,0.25244936,0.50837255,-10.642456,4000
1403657038,-0.018059755,-0.0071554375,0.011166703,4000,0,-0.14804684,-0.23378834,-9.458715,4000
1403661038,0.03275472,0.08800207,-0.045692366,4000,0,0.649686,-0.17503461,-8.421861,4000
1403665038,-0.028423088,-0.08825407,-0.0017891154,4000,0,-0.21619993,0.9625628,-12.249648,4000
1403669058,0.013254394,0.1468398,-0.015211115,4020,0,0.4679174,-0.81478894,-7.4273405,4020
1403673038,-0.010141208,-0.07345999,-0.048748326,3980,0,-0.21765438,0.88611394,-11.467348,3980
1403677041,-0.022156365,0.10153453,-0.0117246555,4003,0,0.53588355,-0.7192983,-9.208171,4003
1403681038,0.020440377,0.00017359086,-0.024198193,3997,0,0.7817592,0.03242123,-8.9562845,3997
1403685040,-0.031102259,-0.04276503,-0.0017742994,4002,0,-0.8473354,0.31547317,-11.863188,4002
1403689039,-0.0030764472,0.13275702,-0.018301066,3999,0,1.0607636,-0.39747754,-6.9704638,3999
1403693041,-0.027320024,-0.1396866,-0.034950923,4002,0,-0.89037144,0.6732807,-11.888834,4002
1403697058,-0.008388821,0.18557276,-0.019785894,4017,0,0.91862184,-0.36514702,-8.619341,4017
1403701038,0.010670419,-0.119922355,-0.026429262,3980,0,0.17972527,0.3746253,-9.43008,3980
1403705038,-0.023348968,0.068173766,-0.0106998375,4000,0,-0.6975837,-0.13416153,-11.873513,4000
1403709038,0.014623232,0.064830884,-0.026613912,4000,0,1.7877682,-0.100737825,-7.0023756,4000
1403713038,-0.0044001467,-0.14550363,-0.02645467,4000,0,-1.3245077,0.30009395,-12.23459,4000
1403717040,0.038809955,0.20244427,-0.012460727,4002,0,1.1814858,-0.36389637,-8.017346,4002
1403721038,0.023014547,-0.18750075,-0.021477493,3998,0,-0.4373379,0.51199895,-9.712707,3998
1403725059,0.016723352,0.14050433,-0.006984157,4021,0,-0.20832406,-0.20015982,-10.913842,4021
1403729038,0.003155101,-0.055730164,-0.035792,3979,0,1.5770278,0.37465176,-7.854238,3979
1403733038,-0.020303536,-0.03856286,-0.018774148,4000,0,-1.2362661,-0.2619485,-11.898212,4000
1403737038,0.021841966,0.10577655,-0.021464316,4000,0,1.7892647,-0.112945035,-8.621175,4000
1403741038,0.0010138795,-0.1732012,-0.022097303,4000,0,-1.1130617,0.05818724,-9.974133,4000
1403745039,0.00043686363,0.16671617,-0.0026150628,4001,0,0.41938037,-0.3435512,-10.199016,4001
1403749038,-0.020399863,-0.12215731,-0.03726821,3999,0,0.76475924,0.36867973,-8.523514,3999
1403753060,-0.021206385,0.06332071,-0.0118491165,4022,0,-0.9018526,0.11396376,-10.821534,4022
1403757041,-0.0036659492,0.004855423,-0.024291635,3981,0,1.3819487,0.32965702,-8.726095,3981
1403761039,-0.024736414,-0.063555494,-0.026813554,3998,0,-1.059849,-0.0741492,-10.452231,3998
1403765038,-0.013448965,0.085868366,-0.010132539,3999,0,1.1053693,-0.46691123,-9.92212,3999
1403769039,-0.015755858,-0.12620316,-0.03361959,4001,0,0.021075835,-0.14353177,-9.31335,4001
1403773038,-0.003273625,0.099072024,-0.00777696,3999,0,0.035727683,0.23512308,-10.39999,3999
1403777038,-0.0040318477,-0.08610738,-0.03904126,4000,0,0.6048971,0.51577777,-9.188547,4000
1403781060,0.00511352,0.050487295,-0.03356837,4022,0,-0.56084,0.17929883,-9.934865,4022
1403785038,0.01084483,-0.00047515405,-0.018902807,3978,0,0.9022423,0.04393159,-9.853865,3978
1403789038,0.022917468,-0.03344326,-0.050430313,4000,0,-0.1591096,-0.54110307,-9.419563,4000
1403793038,0.029876756,0.060278013,0.003936861,4000,0,0.5682802,0.35345188,-10.469687,4000
1403797040,0.00616281,-0.095374584,-0.046839494,4002,0,-0.27761033,-0.1577878,-9.43347,4002
1403813039,0.0063928273,-0.044979606,0.009522635,3979,0,0.40501782,0.51206213,-11.230654,3979
1403817038,0.01144464,-0.0043998784,-0.05707927,3999,0,-0.008251678,-0.5763603,-8.98885,3999
1403821040,0.03278435,0.04382424,-0.018762566,4002,0,0.69597137,0.59132177,-9.9864025,4002
1403825038,0.010869889,-0.0451791,-0.018966094,3998,0,-0.47051147,-0.20638902,-9.169127,3998
1403829041,0.036061577,0.07221494,-0.031797525,4003,0,0.6533303,-0.17353573,-10.207914,4003
1403833038,-0.0062943106,-0.0463848,0.0014350141,3997,0,-0.015646873,0.5633474,-10.560206,3997
1403837059,0.027808186,0.06690215,-0.051668033,4021,0,0.10621527,-0.45401832,-8.543513,4021
1403841038,-0.004369268,0.014188626,-0.019837096,3979,0,0.47181,0.84967726,-10.86339,3979
1403845038,-0.019206777,-0.00873132,-0.025105398,4000,0,-0.19070229,-0.6752667,-8.779844,4000
1403849039,0.0013626355,0.04674394,-0.028343841,4001,0,0.36069366,0.09770786,-10.350796,4001
1403853840,-0.022379205,-0.0063273245,-0.012838399,4801,0,-0.115626104,-0.056000605,-9.392084,4801
1403857839,0.021830685,0.04894458,-0.035648104,3999,0,0.65672654,-0.30917132,-9.869469,3999
1403861838,-0.006061696,-0.025659787,-0.0016990595,3999,0,0.30209342,0.27380165,-10.416833,3999
1403865838,0.0275829,0.043445878,-0.027830279,4000,0,0.2890444,-0.28256083,-8.647904,4000
1403869838,0.0066076387,0.010650656,-0.033301517,4000,0,-0.25231126,0.8677922,-11.247584,4000
1403873838,0.005907575,0.04912193,-0.022487076,4000,0,0.48883346,-0.24502166,-7.9232144,4000
1403877840,0.012354493,-0.012101806,-0.033014756,4002,0,-0.09799951,-0.13424002,-10.565889,4002
1403881838,2.1615711e-05,0.030948484,-0.004253342,3998,0,0.6277195,-0.089034416,-9.947222,3998
1403885838,0.03040145,-0.033143297,-0.016260147,4000,0,0.459155,-0.1866391,-8.974558,4000
1403905841,0.004663767,-0.104215644,-0.014162954,4003,0,0.23071009,-0.12511732,-9.7531595,4003
1403909838,0.0062101595,0.025130227,-0.038672358,3997,0,-0.39100987,-0.05412613,-11.397284,3997
1403913838,0.017030707,-0.015512913,-0.014530512,4000,0,1.2837253,0.060932204,-7.7258515,4000
1403917838,0.00062996993,-0.062679745,-0.040453054,4000,0,-1.1248888,-0.2795322,-10.673022,4000
1403921838,0.007250538,0.075656995,-0.0047981907,4000,0,0.9755542,0.28039852,-9.207071,4000
1403925838,-0.014235073,-0.12970212,-0.013606044,4000,0,-0.27523386,0.19803345,-9.524078,4000
1403929838,-0.006661176,0.06700869,-0.034756266,4000,0,-0.0018530353,0.050632905,-11.095867,4000
1403933840,-0.020190934,-0.093163274,-0.01176751,4002,0,1.3949714,0.17475766,-8.603427,4002
1403937838,-0.011312111,-0.0009764742,-0.043508396,3998,0,-1.0323492,-0.51876706,-10.514634,3998
1403941838,-0.0064127003,0.024492366,-0.011525963,4000,0,1.0050676,0.498733,-9.448234,4000
1403945838,-0.019022588,-0.09557909,-0.019877093,4000,0,-0.42336234,-0.4053939,-9.556455,4000
1403949838,0.0045661363,0.06772209,-0.033648454,4000,0,0.56894404,-0.006815709,-10.632439,4000
1403953838,-0.0139773665,-0.12197463,-0.0118901115,4000,0,0.5565406,0.4527541,-9.000861,4000
1403957838,0.0073215845,0.07440215,-0.03490947,4000,0,-0.66581875,-0.08664284,-9.787539,4000
1403961838,-0.014567029,-0.06971629,-0.01737205,4000,0,0.6343845,0.853012,-10.214651,4000
1403965838,-0.005384487,-0.0017091152,-0.026306821,4000,0,-0.041129313,-0.92425835,-9.258155,4000
1403969838,0.020785023,0.0042584506,-0.021174066,4000,0,0.803326,0.30020228,-10.374336,4000
1403973838,-0.01574366,-0.108803734,-0.00353986,4000,0,-0.28296593,-0.31921837,-9.218316,4000
1403977839,0.022943819,0.07719168,-0.033540033,4001,0,0.22008301,-0.18690215,-9.803938,4001
1403981841,-0.027835468,-0.14465408,-0.0148961935,4002,0,0.048408266,0.7962696,-10.670089,4002
1403985838,0.015617779,0.10424042,-0.04311434,3997,0,0.30190438,-0.84614795,-8.428174,3997
1403989841,0.005597835,-0.09389513,-0.009395937,4003,0,0.57819945,1.3074445,-10.503706,4003
1403993838,-0.014774225,-0.014238002,-0.019662125,3997,0,-0.34374213,-0.8722164,-9.66534,3997
1403997838,0.010113427,0.02133466,-0.024460604,4000,0,0.91047156,0.30830377,-10.151835,4000
1404001838,-0.060422882,-0.16691047,-0.00229908,4000,0,-0.80317163,-0.26649693,-9.88972,4000
1404005839,0.038023733,0.14078729,-0.028885907,4001,0,1.2100879,-0.36040834,-8.530143,4001
1404009838,-0.050866935,-0.22236328,0.002184509,3999,0,-0.22665599,1.2369196,-11.221075,3999
1404013838,0.018286947,0.11733302,-0.020340104,4000,0,0.09759622,-1.0008874,-9.224316,4000
1404017838,-0.0077888938,-0.09066162,-0.01889253,4000,0,0.5959221,1.0479237,-9.710092,4000
1404021841,-0.04008782,-0.04643042,-0.018791303,4003,0,-0.61058617,-0.9433208,-9.728393,4003
1404025838,0.010365288,0.040690035,-0.008665399,3997,0,1.6041256,0.1370489,-9.07364,3997
1404029838,-0.034474365,-0.18064903,-0.0008618444,4000,0,-1.2078121,0.3461337,-10.990514,4000
1404033838,0.03834291,0.1292931,-0.0068441113,4000,0,0.7909902,-0.57214457,-8.982907,4000
1404037840,-0.011401677,-0.17279999,-0.030135617,4002,0,0.07790627,0.9970311,-10.018367,4002
1404041838,-0.015108029,0.0383158,-0.005544909,3998,0,-0.085724525,-0.65928483,-9.467677,3998
1404045838,-7.7856894e-05,-0.04396401,-0.02750665,4000,0,1.0221492,0.41624466,-9.552355,4000
1404049841,-0.0048445957,-0.09443183,0.0037507808,4003,0,-0.91510224,0.16468902,-10.347086,4003
1404053838,0.040838268,0.06651722,-0.028449783,3997,0,0.7784495,-0.53011024,-9.538797,3997
1404057838,0.012561141,-0.10979202,-0.03208868,4000,0,0.1553401,0.5608295,-10.160381,4000
1404061838,0.0070352377,0.033052992,-0.0029193517,4000,0,0.19987917,-0.5798259,-9.2685585,4000
1404065838,0.003901888,-0.023098568,-0.043232106,4000,0,0.14706846,0.43024617,-9.899446,4000
1404069841,-0.0012997757,-0.029457774,0.016623635,4003,0,-0.13180542,0.11001634,-9.407403,4003
1404073838,0.014885365,0.023526642,-0.030218247,3997,0,0.34429047,-0.19772378,-10.091545,3997
1404077838,-0.006325257,-0.053065468,-0.02428902,4000,0,0.39966413,0.38649946,-9.80278,4000
1404081838,-0.016801877,0.00492526,0.012326378,4000,0,0.12678094,-0.55391955,-9.5134,4000
1404085838,-0.013350481,-0.023330668,-0.055265702,4000,0,-0.0024302825,0.23011315,-10.042985,4000
1404089838,-0.016726032,-0.0026516675,0.016542729,4000,0,0.25542006,-0.010363029,-9.526448,4000
1404093838,0.016723802,-0.008815108,-0.028538292,4000,0,0.24156404,-0.41030028,-9.900892,4000
1404097839,-0.0038690004,-0.026246503,-0.010104691,4001,0,0.44708806,0.61918575,-9.701642,4001
1404101841,-0.01949432,-0.016176298,0.0064955275,4002,0,0.04355223,-0.14189634,-9.678299,4002
1404105838,-0.023559896,0.0017361504,-0.0551765,3997,0,-0.23006602,0.33188725,-9.927021,3997
1404109838,-0.023254773,-0.020037271,0.025637655,4000,0,0.6727517,0.039446518,-9.431706,4000
1404113838,0.0012731635,-0.021507477,-0.030147256,4000,0,-0.02907036,-0.768637,-9.858449,4000
1404117838,0.0059493207,-0.019001072,0.015343404,4000,0,0.5980281,0.3752802,-10.336484,4000
1404121838,-0.010681245,-0.052344758,0.0027358858,4000,0,-0.06929773,-0.21620013,-9.126087,4000
1404125838,-0.0008542564,0.007934473,-0.048142865,4000,0,-0.07913939,0.60004103,-10.171076,4000
1404129840,-0.017725145,-0.028739342,0.011041896,4002,0,0.559222,0.20087032,-9.464914,4002
1404133840,0.040430557,0.026077434,-0.046445575,4000,0,-0.03384163,-0.5085941,-9.046451,4000
1404137838,0.027765417,-0.049203705,0.017430028,3998,0,0.6843759,0.7512898,-11.344396,3998
1404141838,0.001351491,-0.024691755,-0.0036713658,4000,0,-0.1026773,-0.8529829,-8.692028,4000
1404145838,0.019111047,-0.013974478,-0.03732211,4000,0,0.29148364,0.4163042,-10.539212,4000
1404149838,-0.010805681,-0.04545195,0.009633158,4000,0,0.028193036,-0.018982526,-9.343194,4000
1404153840,0.06841903,0.05820518,-0.031960726,4002,0,0.15953381,-0.21591744,-8.121624,4002
1404157838,0.001830434,-0.10895861,0.008791374,3998,0,0.25740877,0.9675268,-12.402447,3998
1404161838,0.014353022,0.07472323,-0.01863623,4000,0,0.4847655,-0.74766475,-7.655921,4000
1404165839,0.0058848383,-0.10005829,-0.032036744,4001,0,0.07620948,0.7295561,-11.34678,4001
1404169838,-0.024718607,0.010871274,0.0033063374,3999,0,-0.090491734,-0.7621469,-9.437508,3999
1404173838,0.035522692,0.015913023,-0.026339885,4000,0,0.71843547,0.13057038,-8.576821,4000
1404177840,-0.031657673,-0.103216305,0.0055931103,4002,0,-0.8077476,0.42778695,-11.901446,4002
1404181838,0.01603535,0.15053688,-0.020883018,3998,0,1.1827489,-0.39196074,-6.9375443,3998
1404185838,-0.03859935,-0.17721325,-0.020218419,4000,0,-0.66527855,0.76150835,-11.870117,4000
1404189839,-0.02443374,0.154963,-0.008807157,4001,0,0.48724803,-0.60944706,-9.085533,4001
1404193838,-0.0010778919,-0.08537281,-0.02999363,3999,0,0.49753812,0.45699158,-8.523944,3999
1404197838,-0.041002676,-0.017909685,0.0009571645,4000,0,-0.93750554,-0.30454573,-12.424414,4000
1404201838,0.008028424,0.115622714,-0.013767524,4000,0,2.098304,-0.25798798,-7.127714,4000
1404205841,-0.035786416,-0.2142365,-0.011158823,4003,0,-1.3093792,0.5225721,-12.090661,4003
1404217838,-0.017441828,0.08366068,-0.002819188,3998,0,-0.3673846,-0.6475143,-10.770491,3998
1404221838,0.011060136,-0.025566481,-0.03296674,4000,0,1.7058421,0.17803495,-8.094737,4000
1404225838,-0.016500276,-0.11139382,-0.0016326829,4000,0,-1.2816162,0.08278928,-11.763156,4000
1404229838,0.012109207,0.10977427,-0.0165216,4000,0,1.3584661,-0.3472316,-8.581645,4000
1404233838,-0.012056452,-0.18662143,-0.0260822,4000,0,-0.70864254,0.3435021,-9.722439,4000
1404237839,-0.0041528926,0.114115134,-0.00067839434,4001,0,0.13994598,-0.45968437,-9.74914,4001
1404241838,0.012577773,-0.11295871,-0.038764242,3999,0,0.88121766,0.471461,-8.875015,3999
1404245838,0.004850894,-0.018248247,0.003450787,4000,0,-0.7584327,0.28726974,-10.9402075,4000
1404249838,0.031024596,0.0069250255,-0.0269364,4000,0,1.001867,-0.023326924,-9.093637,4000
1404253838,0.014686849,-0.07685634,-0.030025823,4000,0,-0.49126565,0.122927584,-10.001309,4000
1404257838,0.007933775,0.055159047,0.0076556276,4000,0,0.66868573,-0.4373561,-9.6315565,4000
1404261838,0.011881098,-0.10845577,-0.042629443,4000,0,0.003689274,0.13564813,-9.669732,4000
1404265840,0.0034194223,0.05845854,0.012269858,4002,0,0.06813611,0.15350766,-10.054588,4002
1404269838,0.01704205,-0.07546259,-0.035029538,3998,0,0.4520349,0.027728362,-9.108778,3998
1404273839,0.017033787,0.033691492,-0.032245375,4001,0,-0.17176138,0.37125307,-9.964614,4001
1404277838,-0.008421299,-0.00050856493,0.001343739,3999,0,0.5881213,0.041785702,-10.004324,3999
1404281840,0.0028048146,-0.03240332,-0.053433158,4002,0,-0.30188322,-0.29320773,-9.687074,4002
1404286638,0.000618273,0.021803556,0.008597987,4798,0,0.43082902,0.47159234,-10.054701,4798
1404290639,0.020888412,-0.044646576,-0.053161778,4001,0,-0.024195626,-0.5974819,-9.296587,4001
1404294639,0.01870133,0.06488113,0.0013906746,4000,0,0.7373371,0.3936317,-10.123031,4000
1404298639,-0.00698334,-0.06983525,-0.005500079,4000,0,-0.4735216,-0.15283795,-9.067774,4000
1404302640,0.016031032,0.069764316,-0.044250946,4001,0,0.13009198,0.20539266,-9.991014,4001
1404306639,-0.024239736,-0.059051044,0.012022944,3999,0,0.2933276,0.42778307,-10.012795,3999
1404310641,0.01243738,0.031157015,-0.05274607,4002,0,-0.1625186,-0.5680946,-8.908426,4002
1404314638,-0.009971694,-0.010730004,-0.0020685955,3997,0,0.7315755,0.8827764,-10.532705,3997
1404318688,-0.012289415,-0.03824228,-0.029805154,4050,0,-0.21583319,-0.5472184,-8.675368,4050
1404322641,-0.007471323,0.03267032,-0.028825734,3953,0,0.2431495,0.41072166,-11.08787,3953
1404326638,-0.024694728,-0.055039182,-0.00097148324,3997,0,0.2199286,-0.12740874,-9.219772,3997
1404330639,0.028972888,0.030533493,-0.036942523,4001,0,0.2514717,-0.5030299,-9.294056,4001
1404334640,-0.00043572616,-0.046944126,-0.000624676,4001,0,0.24765871,0.7455414,-11.236418,4001
1404338638,0.019389156,0.021660225,-0.019429445,3998,0,0.17135811,-0.24315593,-7.894659,3998
1404342638,-0.003195487,-0.0376385,-0.041230273,4000,0,-0.24082467,0.75058454,-11.6395,4000
1404346638,-0.01105936,0.022470374,-0.017589588,4000,0,0.70979995,-0.47229782,-8.202398,4000
1404350638,0.02618458,-0.057381175,-0.01606754,4000,0,0.2319306,-0.17347667,-9.991352,4000
1404354638,-0.013461562,-0.03817904,-0.0056477906,4000,0,-0.05846528,0.029624088,-11.445956,4000
1404358638,0.016826741,-0.0017929428,-0.020778773,4000,0,0.79448676,-0.20020756,-7.4799786,4000
1404362638,-0.014601991,-0.095608056,-0.041972402,4000,0,-0.9093871,0.43237278,-11.868447,4000
1404366638,0.002013726,0.08537084,-0.03086607,4000,0,1.1539332,-0.20317347,-7.658111,4000
1404370638,0.0029174555,-0.14923991,-0.023515394,4000,0,-0.38382688,0.17361854,-10.616519,4000
1404374639,-0.0017453543,0.070373744,-0.014210939,4001,0,0.27777827,-0.03512756,-10.88636,4001
1404378638,0.0077041085,-0.088374145,-0.023764879,3999,0,1.0540161,0.17748621,-8.151711,3999
1404382638,-0.017898556,-0.048304778,-0.029579451,4000,0,-1.0597924,-0.2135845,-11.61357,4000
1404386638,0.0010583837,0.040346023,-0.014156401,4000,0,1.5414166,-0.06817809,-7.9871483,4000
1404390638,-0.02088476,-0.16556922,-0.015740128,4000,0,-1.0475087,-0.018396769,-10.452566,4000
1404394639,-0.0047469717,0.10038615,-0.009603017,4001,0,0.5650812,0.060592115,-10.148316,4001
1404398639,-0.017235097,-0.153241,-0.021197228,4000,0,0.40024665,0.27438277,-8.6975975,4000
1404402640,-0.012960437,0.049400836,-0.025255041,4001,0,-0.6570459,0.052837707,-11.047989,4001
1404406638,-0.008914224,-0.06592861,-0.018710528,3998,0,1.4206059,0.4122309,-8.697781,3998
1404410638,-0.023565248,-0.06276895,-0.022858895,4000,0,-1.032497,-0.44271418,-10.468279,4000
1404418640,7.1467686e-05,-0.11489583,-0.020902291,4000,0,-0.014471236,-0.10136925,-9.357238,4000
1404422638,0.010926627,0.08879979,-0.012432276,3998,0,0.27499425,0.027593939,-10.468934,3998
1404426638,-0.010740964,-0.115098074,-0.016542695,4000,0,0.23464738,0.52925277,-9.334441,4000
1404430638,0.014687687,0.08943749,-0.033147912,4000,0,-0.6807554,-0.252086,-9.561076,4000
1404434638,-0.0017607029,-0.06063502,-0.006441298,4000,0,0.94165796,0.5458724,-9.863111,4000
1404438638,-0.011099539,-0.01609489,-0.035826407,4000,0,0.011208234,-0.80255985,-10.014978,4000
1404442639,0.014993716,0.03506438,0.00050289585,4001,0,0.71704906,0.3248747,-10.151386,4001
1404446640,-0.031551432,-0.116365485,-0.023313295,4001,0,-0.6450463,-0.23780458,-9.137083,4001
1404450638,0.0054888455,0.09720967,-0.025373122,3998,0,0.48188794,-0.07045847,-9.205969,3998
1404454638,-0.056934454,-0.14469387,-0.0017996026,4000,0,-0.14411835,0.7133921,-10.744482,4000
1404458638,0.021240406,0.108883336,-0.022415577,4000,0,0.32653198,-0.76028585,-8.819636,4000
1404462638,-0.0059931558,-0.103577726,0.004807345,4000,0,0.3313066,1.1631548,-10.69733,4000
1404466638,-0.025814084,-0.018167706,-0.028970169,4000,0,-0.24032466,-0.94704515,-9.115503,4000
1404470639,-0.011489884,0.022511747,-0.026538221,4001,0,1.2149365,0.39280015,-10.120765,4001
1404474640,-0.070318,-0.13015315,-0.005876665,4001,0,-1.1000694,-0.24336724,-10.088121,4001
1404478638,0.018249352,0.1008433,-0.02146381,3998,0,1.1667408,-0.33618632,-9.369303,3998
1404482639,-0.035183426,-0.1672157,0.00058357976,4001,0,-0.38945648,0.85060036,-10.541672,4001
1404486639,0.0027867353,0.083052255,-0.019602736,4000,0,0.26340246,-0.52902585,-8.847178,4000
1404490639,-0.033220742,-0.0734654,-0.030289683,4000,0,0.59976786,0.68830436,-10.095599,4000
1404494638,-0.03604338,-0.024286404,-0.0063752295,3999,0,-0.68745625,-0.24168418,-9.588172,3999
1404498638,-0.0063554733,0.02660523,-0.020768574,4000,0,1.0326881,-0.13262631,-9.789271,4000
1404502638,-0.031862963,-0.1243487,-0.01095668,4000,0,-0.41545463,0.3472354,-10.173875,4000
1404506641,-0.013757338,0.036120374,-0.011678415,4003,0,0.5399481,-0.7737486,-9.222897,4003
1404510638,-0.028624287,-0.055863615,-0.03210245,3997,0,0.088918716,0.6116576,-10.255513,3997
1404514639,-0.018185928,-0.031006169,0.012898843,4001,0,0.049684744,-0.34743527,-8.921733,4001
1404518638,-0.014284206,0.0025967075,-0.030364169,3999,0,-0.09147839,0.14701743,-10.769722,3999
1404522638,-0.020925237,-0.032372005,-0.006905932,4000,0,0.7143614,0.5997225,-8.995837,4000
1404526638,-0.020658104,-0.01980711,-0.0025038584,4000,0,-0.092745006,-0.42228928,-10.0535965,4000
1404530638,-0.019930925,0.014676349,-0.04243701,4000,0,0.27346054,0.38783073,-10.14682,4000
1404534638,-0.032286488,-0.05439223,0.025628444,4000,0,0.19681716,-0.29304937,-9.166983,4000
1404538667,-0.0109311,0.0042078733,-0.037892994,4029,0,-0.17487055,-0.29921493,-10.266011,4029
1404542638,-0.022214198,-0.042159494,0.00020442593,3971,0,0.78421456,0.31518716,-9.377531,3971
1404546638,0.0040864865,-0.0005811091,-0.009440948,4000,0,-0.42395368,-0.16770995,-9.676532,4000
1404550638,0.0073971953,0.021916775,-0.04250855,4000,0,0.35900843,0.7325369,-9.823874,4000
1404554638,-0.010035103,-0.05786463,0.019904286,4000,0,0.11207535,-0.026832853,-9.714237,4000
1404558638,0.0019338533,0.040473398,-0.04409186,4000,0,0.07611124,-0.51492596,-9.898186,4000
1404562638,-0.004438065,-0.049170986,0.026568243,4000,0,0.78303474,0.27806205,-9.778567,4000
1404566638,0.007798497,-0.010413722,-0.011862469,4000,0,-0.20984831,-0.61331004,-9.747456,4000
1404570638,0.013892928,0.007916458,-0.025808271,4000,0,0.41003013,0.75064355,-10.374353,4000
1404574641,-0.0136191705,-0.0655497,0.015866524,4003,0,-0.011467433,-0.052136175,-8.789401,4003
1404578638,0.023658123,0.043112364,-0.036701024,3997,0,0.011469984,-0.15852027,-9.112449,3997
1404582639,-0.018251518,-0.08996946,0.021704433,4001,0,0.587862,0.74619234,-10.917153,4001
1404586640,0.013606021,0.0602769,-0.014556645,4001,0,-0.12563333,-0.95289916,-8.8385315,4001
1404590638,0.016108409,-0.072368145,-0.019389551,3998,0,0.5076578,0.7178391,-11.194571,3998
1404594641,-0.010421528,-0.010653602,0.007956822,4003,0,-0.16426174,-0.701113,-8.758742,4003
1404598638,0.0331052,0.041384738,-0.03332931,3997,0,0.5287274,0.08416225,-9.035127,3997
1404602638,-0.03739154,-0.099626385,0.019784939,4000,0,-0.6728261,0.45434466,-11.051221,4000
1404606642,0.03066112,0.12401864,-0.015899854,4004,0,0.80534005,-0.45241123,-7.9454284,4004
1404610638,-0.031520646,-0.17464915,-0.018254895,3996,0,-0.06125039,1.012587,-12.096628,3996
1404626638,-0.0030314666,0.09836994,-0.018593382,4000,0,1.6775526,-0.38768524,-7.4859834,4000
1404630639,-0.052252557,-0.19865435,-3.270706e-05,4001,0,-1.1970148,0.48339516,-12.385122,4001
1404634638,-0.014490581,0.20466387,0.0009173048,3999,0,1.2872771,-0.66229135,-7.891981,3999
1404638640,-0.037347063,-0.21473339,-0.033702064,4002,0,-0.46954057,0.9255751,-10.138886,4002
1404642640,-0.052758716,0.12910804,-0.006729008,4000,0,-0.460092,-0.51380146,-10.619794,4000
1404646638,-0.01321069,-0.026940774,-0.012872552,3998,0,1.9031202,0.28373724,-7.583642,3998
1404650638,-0.053690106,-0.12861341,0.0040897205,4000,0,-1.2331948,-0.17617966,-12.433493,4000
1404654638,-0.0073842225,0.14093257,-0.012279315,4000,0,1.6664639,-0.31881174,-7.996266,4000
1404658638,-0.044801403,-0.2024431,-0.015511403,4000,0,-1.2948962,0.56475294,-10.3996,4000
1404662638,-0.023950394,0.16296472,-0.0007386032,4000,0,0.2903513,-0.7199204,-9.761055,4000
1404666648,-0.00963331,-0.111513294,-0.04032076,4010,0,0.9037571,0.67912006,-8.495874,4010
1404670638,-0.018637558,0.023805069,0.00829841,3990,0,-0.8226021,-0.011900256,-11.484348,3990
1404674638,0.010538295,0.06608671,-0.020338813,4000,0,1.3772663,0.08059457,-8.542979,4000
1404678638,-0.02509686,-0.10346123,-0.014234677,4000,0,-1.0634339,0.13519649,-10.520844,4000
1404682638,-0.01552058,0.110351995,-0.002552436,4000,0,0.73240906,-0.78619486,-9.717304,4000
1404686638,-0.011880332,-0.080692455,-0.03413545,4000,0,0.36507696,0.20646466,-9.279301,4000
1404690638,-0.016692113,0.07127822,0.009655241,4000,0,-0.13096918,-0.10385118,-10.361073,4000
1404694639,0.004427828,-0.02134437,-0.028116835,4001,0,0.47194797,0.40147024,-9.403662,4001
1404698640,-0.017688828,0.0412068,-0.022228887,4001,0,-0.491523,0.3115219,-9.949876,4001
1404702638,-0.014206173,0.01848185,-0.009525726,3998,0,0.7461178,-0.16250828,-9.819872,3998
1404706638,-0.0076012905,-0.02921506,-0.036442053,4000,0,-0.08534033,-0.25999463,-9.347723,4000
1404710654,-0.017968725,0.04639448,0.029996108,4016,0,0.44556653,0.12971804,-10.5019045,4016
1404714639,-0.034467593,-0.049809895,-0.040318325,3985,0,-0.05320947,-0.19569588,-9.360822,3985
1404718638,-0.01908386,0.075141504,-0.0070732012,3999,0,0.39332327,0.19968271,-9.900365,3999
1404722651,-0.029674351,-0.050709616,-0.0043171044,4013,0,-0.092034474,-0.18401602,-9.618892,4013
1404726640,0.024438187,0.074006364,-0.03212505,3989,0,0.43378764,-0.07972579,-8.995344,3989
1404730638,-0.026222585,-0.043910123,0.02090265,3998,0,0.23211285,0.47024107,-11.057097,3998
1404734638,-0.014282382,0.038117167,-0.042112462,4000,0,-0.04436133,-0.50982416,-8.893954,4000
1404738638,-0.013367558,0.03419406,-0.005089176,4000,0,0.67549914,0.6299473,-10.207552,4000
1404742639,-0.03561965,-0.03452061,-0.005579255,4001,0,-0.47281098,-0.5917247,-9.052004,4001
1404746638,0.00564627,0.060920823,-0.01315012,3999,0,0.7766596,-0.113430746,-10.154603,3999
1404750638,-0.030671379,-0.04751348,0.017551478,4000,0,-0.17568603,0.27510858,-10.298543,4000
1404754638,0.0116632,0.082701266,-0.027946142,4000,0,0.35967025,-0.36111772,-8.648218,4000
1404759439,-0.02403075,-0.019936161,0.00924477,4801,0,0.06966461,0.3587566,-10.831493,4801
1404763439,0.016589675,0.07390761,-0.021981804,4000,0,0.35199806,-0.48365805,-8.099512,4000
1404767442,-0.0027314695,0.0033061765,-0.024102291,4003,0,0.02440799,0.7811752,-10.782449,4003
