timestamp,roll,pitch,yaw,thrust
1399021237,-0.007173423,-0.028785903,-0.013069584,0.6810989
1399049223,-0.006317126,-0.023000805,-0.012018756,0.6817277
1399081212,-0.013992533,-0.013092832,-0.011408791,0.6819454
1401293175,-0.029591033,0.026689796,-0.04500795,0.6784413
1402206774,-0.028690336,0.014788522,-0.024546396,0.682634
1402238798,-0.03208535,0.0014366393,-0.024219215,0.67823565
1402270806,-0.023853987,0.006425489,-0.024286127,0.679049
1402302826,-0.009252207,0.012110809,-0.0244153,0.67949617
1402334796,-0.002258395,0.013483606,-0.024146426,0.6821484
1402366898,-0.005253195,0.005532401,-0.024805391,0.6750108
1402398801,0.00524668,0.005578422,-0.025649725,0.6760094
1402426773,0.01667361,0.006658212,-0.026821168,0.67700785
1402458761,0.022051679,0.021277862,-0.027707856,0.6795826
1402490799,0.037834905,0.017977724,-0.028846353,0.6776957
1402523559,0.016954316,0.029044364,-0.031468622,0.6752467
1402555565,0.03343045,0.02812779,-0.034634665,0.6763801
1402587601,0.041545287,0.03891059,-0.03813549,0.6822293
1402619637,0.034468796,0.015625726,-0.041734528,0.6813308
1402651569,0.03839363,0.01718716,-0.04541475,0.6778595
1402683600,0.015546916,0.033180445,-0.04826134,0.6802155
1402715564,0.028471794,0.019606495,-0.05048271,0.67757916
1402747603,0.020879747,0.009296369,-0.051905118,0.67612356
1402779605,0.005903461,0.006612816,-0.053055294,0.67507553
1402811606,0.0064295754,0.010782215,-0.053758804,0.6835442
1402843619,0.0008241731,0.00031266606,-0.054199945,0.68189615
1402875567,-0.0009088066,-0.014597118,-0.054066125,0.67609215
1402907566,-0.0010636084,0.0022041977,-0.05390257,0.68047553
1402939620,-0.0014399941,-0.0031982583,-0.052764047,0.6782264
1402972391,-0.006456578,-0.010965365,-0.051528107,0.67597824
1403004400,-0.023211112,0.009952239,-0.05046774,0.67672414
1403036405,-0.01225793,0.027390895,-0.04858082,0.68143684
1403068405,-0.015370076,0.025397047,-0.04715928,0.6801273
1403100397,-0.01516977,0.018743504,-0.045744944,0.6749574
1403132405,-0.016981218,0.029570349,-0.044296496,0.67979926
1403164401,-0.018386498,0.026396532,-0.04249612,0.67953473
1403228405,-0.04696224,0.029400246,-0.03874232,0.6781273
1403260372,-0.017037714,0.025954489,-0.037101343,0.6800152
1403292365,-0.000871968,0.04053819,-0.035923563,0.6821247
1403324409,-0.01959523,0.028207568,-0.03438639,0.67837375
1403356400,-0.010348605,0.027697133,-0.033596955,0.6786111
1403388400,-0.0027312809,0.022820376,-0.032873042,0.67997605
1403421218,0.0007049416,0.011022972,-0.03162341,0.6788904
1403453200,-0.014754069,0.022820422,-0.03053152,0.6753124
1403485212,0.0031212224,0.014266515,-0.029321484,0.677357
1403517218,-0.0032194795,0.035467744,-0.028801844,0.68100643
1403549202,-0.012249409,0.016785251,-0.02680313,0.68196154
1403581211,0.0042771357,0.016417036,-0.025745317,0.67937523
1403613233,0.0047347066,0.016626235,-0.02383574,0.6786935
1403645213,0.010090328,0.01741884,-0.02133183,0.6824026
1403677303,-0.010673263,0.013602464,-0.019123115,0.6764412
1403709202,0.0043524653,-0.001100565,-0.017173277,0.6741546
1403741206,0.005661233,0.030131971,-0.014905615,0.67995256
1403773203,0.017914664,0.015537632,-0.012593866,0.68046206
1403837232,-0.0062301797,0.007470167,-0.007041676,0.6763314
1403869996,0.011062844,0.002054183,-0.004166479,0.68051744
1403902107,-4.32821e-05,-0.022281634,-0.0010747884,0.67990565
1403933998,-0.0030444234,-0.026513852,0.0013966984,0.677292
1403966002,-0.014905581,-0.019034214,0.003978919,0.67817855
1403998016,0.0059748287,-0.028141966,0.0063758898,0.67857987
1404029999,0.009066979,-0.0041250503,0.007898858,0.68018097
1404061959,-0.0020661212,-0.019960403,0.009577723,0.6768521
1404094195,0.0068556108,-0.026864456,0.010991208,0.6784089
1404125996,0.01509179,-0.024450382,0.011813254,0.678641
1404157997,0.008260872,-0.030234933,0.013535319,0.6826678
1404190010,-0.0066242316,-0.039126888,0.014808482,0.67586434
1404222008,0.014067103,-0.049482618,0.016033486,0.6763743
1404253997,0.007655686,-0.030770442,0.01789654,0.68020254
1404286799,0.010451127,-0.04450282,0.020309735,0.67994606
1404318858,-0.0070015527,-0.041769877,0.022080751,0.680026
1404350796,0.0022180418,-0.043080643,0.024531377,0.6827383
1404382806,0.0019682872,-0.023621298,0.02698428,0.6826973
1404446805,0.0010914048,-0.024052558,0.030845452,0.67810965
1404478774,0.007563093,-0.041309055,0.032588612,0.6784703
1404510801,0.015506785,-0.022195576,0.03414941,0.67986333
1404542796,0.013358962,-0.0257869,0.03562621,0.67818666
1404574800,-0.0020754195,-0.012092551,0.036637973,0.67697155
1404606763,-0.0059078834,-0.020032035,0.036905643,0.6780487
1404638995,0.012171693,0.0054907356,0.037780184,0.6811891
1404666786,0.014414429,-0.0060108015,0.03871599,0.67888457
1404698798,0.00063616724,0.009573153,0.0402761,0.6796063
1404730799,0.0064084614,0.009524813,0.041844238,0.68132806
1404763561,0.0021667487,0.0120116575,0.04219186,0.67706746
1404795599,0.0022393283,0.010412459,0.04300893,0.68277985
1404827836,8.347859e-05,0.0073063974,0.043584857,0.6802917
1404859596,0.016431374,-0.002282057,0.044334967,0.6814429
1404891595,-0.0055232598,-0.0013971165,0.04454892,0.67867386
1404923610,0.013134544,-0.014770928,0.044562694,0.67844486
1404955604,0.023523692,-0.012827408,0.04437889,0.6793852
1404987595,0.037223004,-0.017093584,0.04436555,0.6829205
1405051565,0.035251226,-0.014986142,0.041849528,0.678163
1405079618,0.031313807,-0.025400452,0.041449197,0.6769913
1405111559,0.03274975,-0.007367864,0.03994526,0.6792507
1405143598,0.04067072,-0.003234206,0.03876188,0.68245625
1405175618,0.04304836,0.010309438,0.037189215,0.6813212
1405208410,0.041518103,-0.0012211176,0.03573339,0.67749125
1405240595,0.034508437,0.004250332,0.034098234,0.6796859
1405272463,0.04530947,-0.0071618385,0.03232316,0.67943025
1405304402,0.03989598,0.013882273,0.031132724,0.68136466
1405336400,0.02346975,-0.001247469,0.03070639,0.6765698
1405368413,0.016982263,0.0048138923,0.030505534,0.67672545
1405400365,0.014889116,0.016150203,0.030920861,0.67801875
1405464402,-0.008853872,0.014169544,0.03194905,0.6780661
1405492400,-0.006982262,0.0076254397,0.032111306,0.6776087
1405524395,-0.0074823485,0.0054233894,0.031686734,0.6775972
1405588400,0.0024412116,0.0142883435,0.028134353,0.6802206
1405653294,0.008307242,0.016786966,0.02174364,0.6808193
1405685259,-0.0028506946,0.028974703,0.018064922,0.67771846
1405713223,-0.008198724,0.033879895,0.015782803,0.67803305
1405745204,0.01082556,0.016299471,0.012912171,0.6783133
1405777168,0.0136718275,0.045118902,0.009828705,0.67949796
1405809163,0.014422927,0.031566635,0.0070107663,0.6787445
1405873202,0.018620394,0.04875432,-0.0005229989,0.6773065
1405905163,0.024714913,0.05974868,-0.0045768297,0.683507
1405937238,0.015018614,0.043254107,-0.008493819,0.6827853
1405965229,0.025556702,0.054144263,-0.011553295,0.68240345
1405997203,0.02763092,0.031291604,-0.014223814,0.68092126
1406029205,0.012704265,0.04386236,-0.017123109,0.67909425
1406061959,0.026071912,0.026407119,-0.019263912,0.6819875
1406094008,0.031032136,0.03673886,-0.020992061,0.6807033
1406126016,0.029901482,0.02024518,-0.022525935,0.67552406
1406158008,0.02790213,0.03343067,-0.024313863,0.67898864
1406189997,0.039753325,0.022209395,-0.026268372,0.68152064
1406221998,0.049506154,0.025489824,-0.026942734,0.68490785
1406253999,0.025108114,0.020675123,-0.027836762,0.68006337
1406286008,0.027173594,0.0136357,-0.028438345,0.68059534
1406318007,0.026321905,0.007427103,-0.028139059,0.68125564
1406350011,0.029874478,-0.00527447,-0.026783437,0.6809621
1406378020,0.036193535,-0.0074263304,-0.026507765,0.6825867
1406409962,0.01113658,-0.0042275325,-0.024679815,0.68195635
1406441996,0.010774406,-0.024779579,-0.02413663,0.67437726
1406474008,0.015085256,-0.016557496,-0.022947662,0.6794332
1406506759,0.019421933,-0.0114890905,-0.021603145,0.6831478
1406538809,0.00142515,-0.01501374,-0.021232434,0.67972916
1406570958,0.009568226,-0.033534165,-0.020922532,0.679574
1406602805,0.018732311,-0.01617775,-0.020314457,0.6825289
1406634796,0.02353074,-0.027180789,-0.019916166,0.6797398
1406666996,0.033277217,-0.033834703,-0.020436605,0.67658013
1406698844,0.025420867,-0.01673366,-0.021201557,0.674635
1406730806,0.037710816,-0.007471714,-0.02116278,0.68200505
1406762798,0.028321996,-0.0016929811,-0.020951679,0.6815248
1406794907,0.026227819,-0.012559297,-0.020267516,0.67830217
1406822808,0.0338573,-0.0033083418,-0.019888166,0.6793202
1406854788,0.021103848,0.022922732,-0.019278485,0.6793316
1406886759,0.029662348,0.00866547,-0.018489191,0.6806708
1406918761,0.039164506,0.02240548,-0.017891563,0.680286
1406950796,0.035926137,0.014053697,-0.016003082,0.6780071
1406982796,0.020938445,0.015957005,-0.014646527,0.6773613
1407011663,0.016767656,0.023807907,-0.013370237,0.6802004
1407043599,0.019762484,0.015244235,-0.01310081,0.6771469
1407075600,0.029259654,0.017129552,-0.0124903275,0.6793511
1407107561,0.017645728,0.035469852,-0.012333651,0.6821182
1407139570,0.018978357,0.026878191,-0.012901629,0.67980593
1407171601,0.007165499,0.034207225,-0.014295083,0.6776107
1407203596,0.017635109,0.021267436,-0.014577761,0.6783562
1407235602,0.011590527,0.025103139,-0.015123545,0.68105924
1407267689,0.0014735194,-0.0026110474,-0.015508797,0.67712647
1407299601,0.005695334,-0.00012208342,-0.016889207,0.67784214
1407331598,-0.0035954465,0.004983693,-0.017863216,0.67999005
1407363607,0.008279141,0.005826655,-0.018968474,0.68183583
1407395572,-0.008641645,-0.0026673991,-0.020495445,0.67791444
1407423607,-0.0025930495,-0.011255851,-0.021330727,0.67778325
1407456403,-0.004871519,-0.00315876,-0.022794645,0.6804829
1407488402,-0.015744492,0.0078057954,-0.023487648,0.6827619
1407520403,0.0015510635,-0.013038198,-0.023809627,0.68181515
1407552364,0.0018185036,-0.0016606206,-0.024304282,0.68020463
1407584399,-0.0030581348,-0.006346416,-0.023706183,0.67836887
1407616412,0.0035817006,0.009526517,-0.023221914,0.67893517
1407648398,0.012790821,0.0039076814,-0.022836016,0.67823005
1407676407,0.0075024646,0.0016239927,-0.022434875,0.67795163
1407708398,0.007971378,0.0005184833,-0.021773823,0.68022424
1407740403,-0.01476518,0.0040322673,-0.021801395,0.6797224
1407772414,0.00124221,0.0066818376,-0.022593498,0.6804356
1407804363,0.004004265,0.014393604,-0.02339055,0.6819846
1407836414,0.0042975764,-0.007030309,-0.023324847,0.6828952
1407868406,-0.0071219974,0.002187203,-0.024240002,0.67799085
1407897228,-0.016318124,-0.0002815761,-0.024505427,0.6808245
1407929165,-0.13469021,-0.06460391,-0.024976093,0.6787878
1407961170,-0.08174455,-0.040774982,-0.02607941,0.6859131
1407993209,-0.028765561,-0.0343086,-0.026058244,0.6874171
1408025202,-0.015742794,-0.0055244146,-0.026429325,0.6794564
1408057203,-0.008083946,0.017858239,-0.02619792,0.6784026
1408089199,0.009940284,0.01982779,-0.02495326,0.6833955
1408121240,0.010447258,0.014418256,-0.024181679,0.68135166
1408149184,0.012668739,0.024186209,-0.02333669,0.68321794
1408181229,0.014494006,-0.004033134,-0.02195239,0.68014866
1408213202,0.007533228,0.013760629,-0.020765873,0.67809486
1408245199,0.0072642644,0.0018139019,-0.018777259,0.678942
1408277221,0.01833896,0.0120917745,-0.01672658,0.67991906
1408310011,0.004777582,-0.003885479,-0.014309499,0.67480916
1408338027,0.012455825,-0.0028313582,-0.0123760905,0.6768973
1408369999,0.0066821747,0.005192307,-0.010290971,0.676711
1408401996,-0.0065020435,0.0010013793,-0.009053108,0.6766011
1408433961,0.0018570502,0.007197712,-0.0075693023,0.6812501
1408466006,0.052912205,0.011320713,-0.006085766,0.68232363
1408498002,0.01578137,-0.008895272,-0.0057166982,0.6786945
1408530036,-0.0062769107,-0.01554383,-0.005079392,0.67741925
1408561971,-0.019498179,-0.0026374136,-0.004615227,0.68046886
1408590027,-0.08377823,-0.0029013897,-0.0036148003,0.6787496
1408621996,-0.11434665,0.014787441,-0.0025983357,0.68214273
1408653998,-0.14475946,-0.008215139,-0.0016070285,0.6800244
1408685999,-0.11910972,-0.0012606422,-0.0009559192,0.6800259
1408717962,-0.08856964,0.0016548006,-0.0011578006,0.6795866
1408750806,-0.07293439,-0.006269067,-0.0014263997,0.6793821
1408782802,-0.053842317,-0.015398059,-0.002373762,0.6764231
1408810807,-0.029434308,-0.031081554,-0.003610664,0.6764663
1408842989,-0.01040502,-0.020026067,-0.005283626,0.67664856
1408874898,-0.006297941,0.0011393038,-0.006356913,0.67895734
1408906796,0.023606151,0.0024337366,-0.007672666,0.68114203
1408938779,0.03340699,0.004313706,-0.00947719,0.67839116
1408970795,0.03728344,0.0051004793,-0.011092705,0.67559326
1409002799,0.04360315,0.012831371,-0.0126827,0.67964476
1409034801,0.045417782,0.0054082973,-0.014149476,0.67823315
1409062798,0.0423446,0.0074898824,-0.015251475,0.6784846
1409094804,0.04840985,0.015389632,-0.016121304,0.6810456
1409126759,0.028453916,0.01618331,-0.01687447,0.67645293
1409158956,0.025427945,0.015375092,-0.017507736,0.6751868
1409190829,0.029127363,0.017869418,-0.018026194,0.67709976
1409223604,0.04187143,0.0006319428,-0.01784035,0.6787465
1409255610,0.038476165,0.002239563,-0.017901063,0.67689425
1409287565,0.038881227,-0.017843729,-0.017775856,0.676509
1409319559,0.036647916,0.0009120897,-0.017026195,0.68020386
1409351603,0.019988844,-0.011520662,-0.014443972,0.67981374
1409383611,8.7791006e-05,-0.013674457,-0.011569152,0.67699057
1409415596,-0.007715876,-0.014145037,-0.007500503,0.6779276
1409447603,-0.0059063975,-0.005200454,-0.002476868,0.6827719
1409475611,-0.0200393,-0.016826214,0.0022974033,0.6798083
1409507596,0.012006083,0.12211106,0.0073723714,0.6817264
1409539561,-0.017426241,0.03301717,0.012991434,0.67862034
1409571607,-0.037389245,-0.001012141,0.019408483,0.681796
1409603617,-0.032272376,-0.020832103,0.026391765,0.6826795
1409635569,-0.017277984,0.0006302192,0.033334248,0.6833758
1409664403,-0.023800027,0.010697045,0.039806947,0.68064743
1409696405,-0.011831043,0.013131178,0.046937447,0.6806785
1409728405,-0.029272785,0.021666324,0.05414181,0.68200463
1409760400,-0.019904567,-0.0032707856,0.059793677,0.6785721
1409792404,-0.010151717,0.024805356,0.06569001,0.6813703
1409824409,-0.005249238,0.009378036,0.07142363,0.6811047
1409856363,-0.008262594,0.024078716,0.0764926,0.68061084
1409888402,-0.005859111,0.013985519,0.081110105,0.67810243
1409920392,-0.017061047,0.018932397,0.084708214,0.67598665
1409952430,-0.010906633,-0.0030474626,0.08801194,0.67512184
1409984405,-0.013124872,0.018317565,0.09127117,0.6813262
1410016403,0.00043593845,-0.0106072705,0.0946197,0.67963374
1410048403,0.003292449,-0.008635844,0.097841576,0.67903274
1410080413,-0.010680369,-0.027852453,0.10133837,0.67796123
1410109225,-0.019736301,-0.036630575,0.10455571,0.67864335
1410141165,-0.018086635,-0.016637865,0.10751546,0.67412096
1410173163,0.0059038927,-0.019418236,0.11075105,0.67867917
1410205211,-0.005048128,0.0033333618,0.11308249,0.68020135
1410237211,-0.004534749,-0.012034617,0.11579655,0.67929846
1410269201,-0.015078116,0.0062500443,0.11887442,0.68089557
1410301216,-0.026966715,-0.0020090041,0.12109515,0.6785261
1410333226,-0.096443325,0.36499247,0.12460433,0.6764912
1410361184,-0.022946954,0.15745713,0.12643702,0.6778952
1410393174,-0.015734335,0.0071523213,0.12668402,0.68529814
1410425207,-0.010546514,-0.051339447,0.12781818,0.69043225
1410457203,0.014556046,-0.08229767,0.1281585,0.6899427
1410489212,0.016175434,-0.035867214,0.12849845,0.68963057
1410522016,0.0033626168,-0.04432333,0.1285886,0.68394864
1410553996,0.0004930191,-0.31633684,0.12551822,0.6855692
1410585965,0.005434208,-0.09722526,0.1249647,0.69722974
1410618022,0.010218843,-0.0054585016,0.122370906,0.68307245
1410649951,0.036132805,0.06771321,0.11964823,0.6811562
1410681999,0.016138628,0.027337944,0.11568766,0.67778623
1410714008,0.02238304,0.005398322,0.11105558,0.6785469
1410745969,0.028597247,-0.013449845,0.10584869,0.67966413
1410774008,0.018358052,-0.02172456,0.101902455,0.6797199
1410805999,0.007727359,-0.018860063,0.09736164,0.6829615
1410837961,0.022742791,-0.040550746,0.09323996,0.681649
1410870007,0.026661457,-0.015296947,0.08983158,0.68488526
1410901996,-0.009191635,-0.037628006,0.08776163,0.6802254
1410934761,-0.014810462,-0.029758602,0.08582848,0.6799335
1410966807,0.0019008154,-0.030749748,0.0845317,0.6844821
1410994761,0.008053022,-0.019208595,0.082839146,0.6836945
1411026808,-0.008941083,-0.015138216,0.08148757,0.6818658
1411058762,-0.0020759578,-0.029309142,0.08089746,0.68172956
1411090806,-0.018938573,-0.02464825,0.08116347,0.6823501
1411122797,-0.015430974,-0.032710537,0.08094061,0.678774
1411154951,0.14175227,0.1638521,0.08062005,0.68008363
1411186813,0.04347991,0.053000864,0.07923163,0.68026835
1411218798,-0.01173843,-0.025509868,0.0769121,0.68378514
1411246807,-0.010700907,-0.06804621,0.07712832,0.6853778
1411278759,0.013470591,-0.05891364,0.07813166,0.68589175
1411310798,0.007279571,-0.071849845,0.08155856,0.68269914
1411342762,0.0011107853,-0.063863434,0.08426795,0.67835784
1411374797,0.007678402,-0.076310076,0.08719871,0.67808217
1411406796,-0.012294,-0.04960813,0.09085973,0.68090636
1411435604,-0.0064484403,-0.04810898,0.093850754,0.6793697
1411467562,0.013535535,-0.02802567,0.09764323,0.6788602
1411499670,0.004343337,-0.011417349,0.10157385,0.67799944
1411531599,0.0031634439,-0.005405838,0.10535341,0.678596
1411563597,0.0019151398,-0.0031888208,0.108889066,0.6748808
1411595619,0.00307482,0.013018227,0.112732746,0.6760102
1411627597,0.0012708664,-0.0015448986,0.11650816,0.67490137
1411659602,0.0010532127,0.024595035,0.1203268,0.6782871
1411691610,-0.0084082065,0.020198444,0.12408674,0.6783291
1411723597,-0.007889086,0.0303042,0.12787984,0.6798972
1411755566,-0.02344274,0.011081689,0.13260064,0.67812544
1411787608,-0.03816269,0.019906528,0.13620362,0.6763354
1411819596,-0.025103053,0.015402269,0.1399176,0.6765491
1411851600,-0.033122983,0.020388123,0.14323291,0.6750639
1411884371,0.027479129,-0.09947735,0.14689806,0.6779952
1411916401,-0.024626918,-0.019879907,0.15061192,0.68274635
1411948406,-0.0406992,0.026809731,0.1544558,0.68250746
1411980381,-0.048340548,0.032720268,0.15742804,0.6798552
1412012401,-0.0492054,0.03428065,0.15988576,0.6755832
1412044407,-0.036910646,0.015755245,0.16233937,0.67580533
1412072397,-0.04309079,-0.004045267,0.16488725,0.6772072
1412104404,-0.05503005,0.008972697,0.1677168,0.6771887
1412136403,-0.019862115,-0.009111023,0.16948201,0.6751467
1412168365,-0.017747795,-0.00019415186,0.17233011,0.6782701
1412200404,-0.008325313,-0.0036914577,0.17441078,0.6777449
1412232401,-0.017500311,-0.0050377017,0.17636958,0.67736787
1412264399,-0.025231726,0.0010526823,0.17828664,0.6793871
1412296400,-0.01986056,-0.018373212,0.17947839,0.6786556
1412325206,-0.01548736,-0.006568449,0.18081889,0.68209344
1412357163,-0.021120558,0.0010912381,0.18159135,0.68010545
1412389169,-0.01366778,0.0035646718,0.18192577,0.6805729
1412421209,-0.03217328,-0.0035975666,0.18223357,0.6799387
1412453162,-0.036066238,0.0068795495,0.18187228,0.67851627
1412485203,-0.020998303,0.005342136,0.18126617,0.6800347
1412549238,-0.0094594965,0.010328824,0.17899421,0.67990273
1412581176,-0.011928757,0.025315108,0.17740089,0.67807317
1412613302,0.004400937,0.022373663,0.17538987,0.6804164
1412645202,-0.00071339007,0.020630088,0.17310835,0.68027395
1412677212,-0.008638565,0.016889539,0.17055702,0.6791096
1412709211,-0.020567318,0.009322449,0.16853695,0.67920935
1412741228,-0.018268624,0.011240213,0.16565675,0.67987394
1412773999,-0.002018129,0.007921874,0.16324927,0.680853
1412806009,-0.0047907275,0.019509412,0.1606895,0.6789279
1412837959,0.0034914687,0.033116568,0.15869187,0.6805465
1412869961,-0.0020865353,0.01944689,0.15693161,0.6802693
1412902010,-0.007923635,0.023610119,0.15378368,0.6808876
1412930016,-0.011785975,0.014611373,0.15137717,0.68034244
1412962010,-0.017170887,0.00035890788,0.14891723,0.68116945
1412993996,-0.04054668,-0.010982185,0.14553508,0.67846066
1413026004,0.058051202,-0.07597578,0.14303249,0.6816125
1413058008,0.0026542558,-0.040303003,0.14047156,0.6829819
1413089996,-0.000523697,0.002835863,0.13809739,0.68860596
1413122007,-0.018281206,0.0071404134,0.13495876,0.6866486
1413154019,-0.022670079,0.011865236,0.13106053,0.6839882
1413186796,-0.03075361,0.0018921511,0.1269143,0.68097574
1413218799,-0.014749985,-0.0024833237,0.122127175,0.67475814
1413250948,-0.015409513,0.012603755,0.11690944,0.680148
1413282796,-0.013792594,-0.010051602,0.11161786,0.67935246
1413314825,-0.017370136,0.014882263,0.10709385,0.6846741
1413346958,-0.02015731,-0.010395322,0.102086656,0.682496
1413378796,-0.025031006,-0.0072402675,0.09670635,0.6808581
1413410798,-0.028157087,-0.01438896,0.09211855,0.68178004
1413442796,-0.017690277,-0.022111632,0.0866435,0.67839336
1413474791,0.0047890814,-0.010694601,0.082130596,0.6833762
1413506951,-0.0010106215,-0.00029828746,0.07756176,0.68014497
1413538796,-0.0007405721,0.012568355,0.07329707,0.6824212
1413570797,-0.0031782663,-0.003355068,0.07002901,0.68214387
1413602923,0.010693483,0.010961453,0.06605224,0.68246925
1413634951,0.11986713,-0.22333887,0.06284566,0.68109244
1413667599,0.029300172,-0.080129765,0.061264396,0.68472075
1413699563,-0.016429158,0.003078265,0.059917692,0.6895623
1413731621,-0.037115194,0.05217427,0.05742519,0.6843269
1413763596,-0.028644044,0.054569684,0.054722764,0.6822746
1413795610,-0.03212648,0.069418386,0.051963374,0.6777399
1413827596,-0.021179581,0.04363583,0.049244657,0.67867696
1413859598,-0.040002532,0.042642724,0.046972174,0.6792992
1413891619,-0.06282786,0.031338796,0.04402299,0.6826157
1413923596,-0.06230376,0.023219146,0.040888365,0.68028986
1413955609,-0.093636036,0.026626932,0.03802621,0.68038994
1413983602,-0.08414305,0.043983605,0.035587978,0.6831192
1414015559,-0.05633369,0.026037972,0.032393157,0.6797903
1414047600,-0.037289917,0.049762193,0.029358875,0.6809174
1414080416,-0.017914265,0.032768827,0.024752628,0.6788917
1414112398,0.004348048,0.052109014,0.020523999,0.6814785
1414144399,0.010735213,0.040250823,0.016494205,0.6807755
1414172400,0.01000385,0.038976762,0.0134053985,0.6795219
1414204405,0.0066906107,0.038364094,0.010249247,0.67917913
1414236401,0.013179359,0.028383154,0.007817576,0.684868
1414268397,0.008470185,0.032087296,0.0050348733,0.6804128
1414300404,0.012320386,0.013718026,0.0021988547,0.6809302
1414332416,-0.014156119,0.020606138,-0.0005099118,0.67818415
1414364400,0.0002715979,0.010449302,-0.0016984874,0.68043226
1414396406,-0.0033003741,0.017994799,-0.0025284402,0.682252
1414424401,-0.0013892973,0.012558723,-0.003158189,0.6805624
1414456401,0.008548971,0.021001762,-0.003754721,0.6828989
1414488589,0.005455582,0.00875394,-0.004069105,0.6795361
1414521200,-0.007303791,0.028646778,-0.0040196707,0.6826861
1414553223,-0.0040649115,0.0051107625,-0.005083434,0.6777046
1414585214,-0.009661164,0.028801262,-0.00559034,0.6801878
1414617223,-0.00079697947,0.004177843,-0.0064268284,0.6802483
1414645223,0.0040186225,0.011394687,-0.0073269038,0.6798989
1414677200,0.003279605,0.019050883,-0.008294091,0.67947835
1414709165,-0.00024978607,0.021548646,-0.009568443,0.6817193
1414741216,-0.007877592,0.019613711,-0.011732869,0.6790988
1414773163,-0.003815802,0.01208767,-0.0137130255,0.67979443
1414805207,-0.022345023,0.02303625,-0.015836198,0.67843676
1414837200,0.0007599641,0.0021674423,-0.018621847,0.6787003
1414869193,-0.011549335,0.016516933,-0.020412462,0.6807578
1414897226,-0.013986798,0.016827097,-0.022037888,0.6776946
1414929200,-0.0005230789,0.004019895,-0.024127996,0.6818014
1414962000,0.0005008341,0.008169174,-0.026034094,0.6813343
1414994007,-0.0031371382,0.00057534926,-0.028110724,0.6829459
1415025996,-0.0045188037,-0.017118009,-0.030596085,0.6757727
1415058031,0.011063258,-0.011413024,-0.033070948,0.678493
1415089996,0.0049433615,-0.027889024,-0.0358138,0.6788248
1415122003,0.015871078,-0.015441746,-0.03771759,0.68285406
1415154010,0.005406279,-0.011785813,-0.038914226,0.68045604
1415186003,-0.0014771468,-0.015515666,-0.04020146,0.67690057
1415217963,0.00031139236,-0.021750141,-0.041398518,0.67283356
1415250006,0.013181311,-0.017961904,-0.042320333,0.67792565
1415282008,0.0127448775,-0.023263033,-0.04313667,0.6765549
1415310016,0.003963015,-0.03224236,-0.043056488,0.6775955
1415341999,0.025643146,-0.01502609,-0.042605408,0.6830132
1415374948,0.037415612,-0.004749678,-0.041867796,0.682306
1415406807,0.024412706,-0.0015748746,-0.040567763,0.67734355
1415438796,0.0069163996,-0.011858839,-0.039197974,0.6749217
1415470996,0.0077353204,-0.00738667,-0.038162537,0.6764519
1415498796,-0.00323871,-0.0035187674,-0.036649905,0.67579806
1415530801,0.009103266,-0.02509316,-0.035619374,0.6756649
1415562804,0.011711531,-0.0058064633,-0.034602355,0.6808723
1415594795,0.016686758,-0.016873626,-0.034705162,0.6776951
1415626762,0.18561909,0.13495281,-0.035225473,0.6786563
1415658809,0.033446144,0.02540672,-0.037033778,0.67503613
1415690800,-0.030207895,-0.02665941,-0.03698919,0.68040085
1415722759,-0.030972645,-0.055693306,-0.03642537,0.6824096
1415750797,-0.024145078,-0.049197417,-0.035848238,0.67989284
1415783567,-0.024893638,-0.039728165,-0.03580281,0.67832494
1415815598,-0.0034213616,-0.052383974,-0.035207063,0.6773314
1415847606,-0.031714164,-0.035788346,-0.034486555,0.6800152
1415879607,-0.035999846,-0.055397205,-0.033846475,0.6773005
1415911610,-0.035355035,-0.040441144,-0.033553507,0.6752431
1415943609,-0.031493668,-0.048975043,-0.033340026,0.6785835
1415971627,-0.04095238,-0.032638133,-0.03319291,0.6767398
1416003595,-0.043817338,-0.026367791,-0.033417527,0.6752139
1416035613,-0.0273331,-0.030667378,-0.032894745,0.676856
1416067605,-0.038147494,-0.017235884,-0.03199363,0.68046165
1416099609,-0.028757857,-0.040864285,-0.031507038,0.67903495
1416131567,-0.03741043,-0.03160409,-0.03175916,0.67636395
1416163609,-0.030591186,-0.03777846,-0.031736795,0.6772947
1416195614,-0.030925484,-0.03323301,-0.031847432,0.67715657
1416227559,-0.018874954,-0.027204648,-0.031581353,0.67853063
1416259561,-0.024933869,-0.01452169,-0.031610403,0.6794174
1416324400,-0.014507753,-0.023084262,-0.032632623,0.6758582
1416356402,-0.00554798,-0.0172985,-0.03266672,0.6782467
1416384400,-0.006192516,-0.0033616836,-0.03251006,0.6770085
1416416410,-0.007939216,-0.0109463725,-0.031681117,0.6772501
1416448400,-0.012259339,-0.010011341,-0.030130148,0.6804725
1416480365,-0.015831955,-0.014263573,-0.028769087,0.67767423
1416512401,-0.015752876,-0.028101489,-0.027153226,0.6764237
1416544402,-0.031361613,-0.019797493,-0.02504838,0.67467934
1416576400,-0.00426123,-0.030597765,-0.023609152,0.67964524
1416608405,0.0010447509,-0.018918445,-0.02235567,0.6772111
1416636402,0.0007637762,-0.023810614,-0.021558985,0.67644954
1416668403,-0.0012336363,-0.009671347,-0.019998401,0.6797798
1416700383,-0.008752803,-0.020653086,-0.019237438,0.6763323
1416733169,-0.0095688505,-0.008402144,-0.017739424,0.6748552
1416765202,-0.007293698,-0.023183808,-0.017524539,0.6729212
1416797203,0.006975217,-0.014051561,-0.017280594,0.6750477
1416829223,0.0053221774,-0.010666697,-0.01672908,0.6768023
1416857227,0.010290178,-0.020029046,-0.017004866,0.6776307
1416889163,0.010240834,-0.0074255685,-0.017247997,0.67830503
1416921171,0.014863533,-0.0197022,-0.017112095,0.67853165
1416953202,0.0019545562,-0.004139914,-0.017070118,0.68008393
1416985317,0.002358528,-0.021197014,-0.018476162,0.6746212
1417017218,0.008928396,-0.018029515,-0.018511172,0.6796742
1417049163,-0.0043360163,-0.02435821,-0.017735615,0.67888975
1417077210,-0.0082716765,-0.023819448,-0.017687704,0.67913306
1417109959,-0.01367788,-0.01481179,-0.01773657,0.6802768
1417141963,-0.005708365,-0.019915078,-0.017312136,0.6791289
1417173999,-0.021393562,-0.02064805,-0.016705386,0.6776441
1417205959,-0.0022574414,-0.039798386,-0.016337948,0.6771252
1417237995,-0.008795154,-0.015005806,-0.014528644,0.681052
1417269970,-0.01132641,-0.012728071,-0.013028674,0.68135
1417298193,-0.014030071,-0.0031763567,-0.012087808,0.6813725
1417329998,-0.014135482,-0.012177757,-0.011161633,0.6781648
1417362009,-0.00687421,-0.008944948,-0.009756094,0.68011844
1417393997,-0.008950933,-0.00058460893,-0.008752076,0.6768018
1417425999,-0.00013220341,-0.010322761,-0.0076754764,0.67785895
1417457960,-0.0076482575,-0.0011061442,-0.0069926362,0.6786696
1417489997,0.0046118684,-0.014796121,-0.0066554053,0.679567
1417522030,0.0056379237,-0.0054348563,-0.0062669637,0.6787234
1417550009,-0.00030050986,-0.008067553,-0.0063192076,0.67779404
1417582820,-0.000121348916,-0.0009778817,-0.006119905,0.67983806
1417614795,0.026406022,-0.02844074,-0.005827851,0.6769714
1417646830,0.037774038,-0.020330181,-0.0060858354,0.678995
1417678799,0.08607301,-0.031371098,-0.0065741157,0.67578316
1417710801,0.15861836,-0.012526476,-0.0075027356,0.6823312
1417738806,0.26517972,-0.0053677354,-0.0075907516,0.68123204
1417770798,0.19009493,0.00471217,-0.0074278554,0.6828094
1417802762,0.31989798,-0.016653469,-0.0061285538,0.687489
1417834799,0.24928008,-0.030386554,-0.0058272043,0.6829047
1417866796,0.16948856,-0.01700312,-0.007222156,0.68879205
1417898803,0.120460555,-0.02790992,-0.008113122,0.6851349
1417930813,0.07251839,-0.014765645,-0.009016146,0.6852912
1417962796,0.03075533,-0.022222841,-0.0085397065,0.6816962
1417991603,0.009698986,-0.022405524,-0.008306867,0.68258184
1418023611,-0.014779119,-0.0032978794,-0.008953657,0.6812248
1418055566,-0.023850635,-0.009022536,-0.009096757,0.68087053
1418087610,-0.04024617,0.0033999165,-0.010416688,0.6774923
1418119606,-0.02305975,-0.0075582955,-0.011272247,0.67920655
1418151596,-0.032621205,0.018262928,-0.012832196,0.6812127
1418183604,-0.015642943,0.0036005988,-0.0138755925,0.6794466
1418211610,-0.008554356,0.01250882,-0.015921133,0.6813864
1418243606,-0.0073775547,0.02176164,-0.018568896,0.6789991
1418275595,-0.010039537,0.016142795,-0.020559276,0.68121797
1418307569,-0.01796057,0.014752787,-0.022915335,0.676204
1418339607,0.0050785225,0.00925739,-0.024536366,0.6783278
1418371595,-0.010313419,0.015238506,-0.025370723,0.67983866
1418403611,0.010426882,0.001676671,-0.026179517,0.67850107
1418431596,0.012294194,0.0068570552,-0.027167762,0.67978704
1418464401,0.029504871,0.013291102,-0.02762851,0.68018883
1418496403,0.026363378,0.012598752,-0.027461302,0.67950493
1418528400,0.015717957,-0.0015149118,-0.026948022,0.6751042
1418560405,0.032174554,0.008702678,-0.026555136,0.6767609
1418592402,0.023049114,0.0029662962,-0.025127707,0.67653817
1418624400,0.023491573,-0.0023303053,-0.02307723,0.6768815
1418652409,0.020681512,0.001420706,-0.021436907,0.6789523
1418684412,0.01802528,-7.531949e-05,-0.019269943,0.67824256
1418716365,0.021956138,-0.0006895114,-0.016985508,0.6796116
1418748407,0.0147672575,-0.019133138,-0.014946384,0.6768528
1418812368,0.014161386,-0.010582714,-0.0129699325,0.6749115
1418844408,0.01602386,-0.014557305,-0.012148913,0.676326
1418876397,0.014263568,-0.011539011,-0.011125791,0.6790675
1418909163,0.0077544306,0.0021730887,-0.010774983,0.6796168
1418941220,0.007576739,-0.006931896,-0.009908754,0.6775763
1418973209,-0.008397686,0.010511554,-0.009522906,0.68034726
1419005256,0.00086814456,-0.008342498,-0.008948149,0.6786233
1419037168,-0.007405334,0.015350699,-0.009138044,0.6812451
1419069208,-0.009351347,0.00018335535,-0.009032793,0.6815953
1419101180,-0.014476274,-0.00060326036,-0.010649277,0.6792458
1419133203,-0.0054336144,-0.0031007724,-0.012621732,0.67835224
1419165170,-0.01643028,0.0038306797,-0.015022899,0.67873514
1419197201,0.0015406806,-0.014583717,-0.017124573,0.6794408
1419229165,-0.00141923,-0.0006481372,-0.019413317,0.6801378
1419261212,-0.004691154,-0.005923013,-0.022322822,0.68094003
1419293225,-0.0077254013,0.0053648697,-0.027005669,0.6764733
1419326003,0.0020342218,0.007736038,-0.031473365,0.6823717
1419358193,-0.005818532,0.017913653,-0.036162283,0.6842784
1419390012,0.0017060569,0.006025529,-0.04050365,0.6844396
1419422003,-0.007819159,0.005690257,-0.044954814,0.680029
1419454016,0.005721193,0.0131117655,-0.04906461,0.6798375
1419485996,0.008457346,0.008134279,-0.052636743,0.67876244
1419517965,0.014522912,0.022228852,-0.055881884,0.68155336
1419549996,0.010492356,0.024066988,-0.059184387,0.67805654
1419581995,0.018680058,0.027846046,-0.062101893,0.677656
1419613999,0.013634097,0.039307974,-0.06500341,0.6787308
1419645968,0.020768037,0.036662947,-0.06718994,0.68341315
1419678010,0.01988187,0.030263418,-0.06927899,0.6816515
1419705969,0.028300287,0.033762038,-0.07133222,0.6801723
1419738926,0.036008332,0.02515815,-0.07355274,0.6848258
1419770899,0.019077534,0.016028456,-0.07641714,0.6787911
1419834807,0.03914756,0.0024644493,-0.080487706,0.6787308
1419866799,0.037353557,-0.011173976,-0.081325054,0.68195456
1419898807,0.016342245,-0.025243491,-0.08267557,0.6756092
1419930796,0.02559863,-0.027503738,-0.083665766,0.67681366
1419962768,0.012076422,-0.015362858,-0.083938114,0.6789565
1419994796,0.018351577,-0.02028887,-0.08388655,0.68437636
1420026764,0.010256506,-0.023578104,-0.08331049,0.68208396
1420058798,0.00398285,-0.026727194,-0.08247097,0.6780227
1420090814,-0.0321185,0.05262914,-0.08105041,0.6785526
1420122973,0.01312298,0.0070062527,-0.078981765,0.6762114
1420154804,0.027200222,0.018423926,-0.0769662,0.6792782
1420187608,0.029418588,-0.008930912,-0.07372105,0.67841387
1420219596,0.037426066,0.013237394,-0.071302086,0.6772254
1420251568,0.031124396,0.008550084,-0.06884766,0.678875
1420283602,0.012773524,0.022838203,-0.066402115,0.6796457
1420315564,0.0056415745,-0.00900196,-0.063647985,0.6789999
1420347598,-0.005059107,0.0039936807,-0.060652092,0.6790772
1420379559,-0.008230071,-0.008777635,-0.057319395,0.6771412
1420411610,-0.007931841,-0.0036144797,-0.053570468,0.67903584
1420443565,0.0008539798,0.0010582177,-0.049598433,0.6791442
1420475597,-0.0029150506,0.018984854,-0.045278534,0.6804679
1420507567,-0.0034775503,0.006019985,-0.041584764,0.67564964
1420535604,0.0016532233,0.024119228,-0.03801258,0.6765687
1420568400,-0.004894905,0.03577144,-0.034009308,0.6747515
1420600412,-0.00053299806,0.028735418,-0.030532936,0.6726
1420632420,0.0070623117,0.04501126,-0.027092982,0.6745481
1420664408,0.022161486,0.054216616,-0.023320016,0.6774736
1420696363,0.022198131,0.07066224,-0.020280793,0.68009657
1420724403,0.01759544,0.05474861,-0.017859925,0.67830044
1420756404,0.021256432,0.04471921,-0.015012072,0.6767437
1420788364,0.030916892,0.06817498,-0.011683913,0.6792624
1420820405,0.021950096,0.050228924,-0.008301772,0.67751795
1420852413,0.016628694,0.049410902,-0.00551314,0.6763244
1420884431,0.026191294,0.037624817,-0.0026482947,0.67808914
1420916379,0.025619712,0.045463793,0.00068901514,0.68008095
1420948404,0.036693703,0.027114073,0.0034342601,0.6776465
1420980373,0.040290672,0.045470126,0.0066639804,0.68040156
1421012400,0.033178143,0.018776517,0.009038593,0.67707574
1421044408,0.029746074,0.02438888,0.011870342,0.6763503
1421077200,0.014961774,0.0024717883,0.014494242,0.6781904
1421109200,0.018135682,0.0074628573,0.016923055,0.678655
1421141185,0.021114992,0.001357052,0.019982588,0.68011415
1421169190,0.0246081,-0.0069837766,0.022402935,0.67922074
1421201204,0.020489644,0.008312542,0.02489324,0.67999285
1421233210,0.027704038,-0.01333003,0.027289199,0.6773049
1421265163,0.013760647,0.0012210722,0.028873444,0.67706853
1421297172,0.01968315,-0.008892821,0.02992481,0.67696077
1421329210,0.0158074,-0.010406581,0.030789318,0.67779946
1421361163,0.008525964,-0.011958199,0.032224577,0.6811708
1421393251,-0.004092143,-0.003495019,0.033425607,0.6799005
1421425217,0.005098723,-0.0035610117,0.034654237,0.68121284
1421457276,-0.022245755,0.007771537,0.03557252,0.67988807
1421489165,-6.1892824e-05,-0.005830095,0.03490999,0.6784035
1421522194,0.0011420264,-0.004624127,0.03535266,0.67919534
1421554010,0.003099909,0.0061884974,0.035972156,0.6796664
1421582009,-0.010755889,0.007099335,0.03662249,0.679506
1421613996,-0.010669245,0.0020274632,0.037339427,0.6790955
1421645981,-0.017266028,0.012450496,0.038081765,0.68067336
1421677967,-0.018961828,0.001841157,0.038118843,0.677275
1421709996,-0.00939075,0.016190484,0.03812946,0.67941034
1421741965,-0.01648979,0.0145915095,0.038384814,0.67594635
1421773996,-0.004490363,0.014120188,0.038783044,0.67882043
1421806017,-0.015755316,0.018347973,0.039176803,0.67841524
1421834009,-0.014407346,0.013306851,0.03874976,0.6780852
1421866011,0.08086316,0.011639404,0.038161762,0.6804711
1421898808,0.07285203,-0.032416847,0.03787499,0.67782557
1421930801,0.040322345,-0.09485899,0.037889827,0.67943096
1421962796,0.01613174,-0.15340377,0.038120277,0.6772103
1421994800,-0.009634102,-0.1295301,0.038044482,0.679402
1422026801,-0.012670091,-0.1314409,0.03799509,0.6785877
1422054801,-0.025953362,-0.12054172,0.037637327,0.6775574
1422086798,-0.027805276,-0.09218385,0.03652317,0.6755758
1422118801,-0.020712499,-0.08991947,0.035079423,0.67717385
1422150793,-0.02415937,-0.040937062,0.032685697,0.6772801
1422182852,-0.022666438,-0.038472634,0.030387122,0.6754216
1422214811,-0.038185224,0.011802191,0.027621116,0.6777031
1422246806,-0.026555354,0.013221966,0.02431404,0.673717
1422274796,-0.023221163,0.0076986994,0.021912426,0.6791599
1422306800,-0.031392463,0.023392215,0.018838907,0.676921
1422338940,-0.018292706,0.017284034,0.016397765,0.6763131
1422371608,-0.014588659,0.017693738,0.013380919,0.6745248
1422403610,-0.0026583155,0.022511091,0.010864983,0.6762604
1422435598,-0.01699859,0.03409369,0.0082979705,0.6778103
1422467621,-0.012954261,0.0066659385,0.0055031464,0.6744901
1422499629,-0.01651008,0.02110739,0.0029212509,0.67404974
1422531620,-0.010829894,0.011518303,0.0018899518,0.676204
1422563561,-0.009397488,0.026111081,0.00025417074,0.6757839
1422595632,0.0030612496,0.013893823,-0.0013766098,0.6785986
1422627634,-0.014144861,0.023956295,-0.0031246801,0.67949015
1422659609,-0.0028811316,-0.01192282,-0.005501159,0.67520946
1422691570,0.22512797,0.10218197,-0.008990327,0.6777669
1422719602,0.08253217,0.034509346,-0.012155546,0.67348844
1422751609,-0.006756466,-0.026845029,-0.015913798,0.6802111
1422783559,-0.03426435,-0.057323515,-0.018654184,0.68415606
1422816406,-0.017985975,-0.06686517,-0.02054941,0.6854621
1422880406,0.002562012,-0.063895985,-0.026397096,0.67972547
1422908409,0.0124601405,-0.059324022,-0.028271176,0.6793086
1422940400,-0.0019672315,-0.051025316,-0.030694684,0.6758498
1422972369,-0.003563773,-0.042650342,-0.031907186,0.68069756
1423004407,-0.006873256,-0.034769963,-0.032623194,0.6782671
1423068399,-0.017593672,-0.046216603,-0.033856537,0.6758956
1423100400,0.008220582,-0.054460477,-0.03465507,0.67736846
1423132405,0.008106741,-0.05965615,-0.035002757,0.676495
1423160402,0.0009879312,-0.049989633,-0.035275906,0.6762978
1423192402,0.018021895,-0.0471491,-0.035349786,0.6786165
1423225210,0.018507063,-0.040422518,-0.035281383,0.6770997
1423257217,0.02604295,-0.03575616,-0.034703184,0.6766511
1423289200,0.020281468,-0.030721774,-0.034828555,0.6729781
1423321200,0.029070592,-0.024689948,-0.03410647,0.6763683
1423353223,0.029970815,-0.032439522,-0.034286473,0.6741862
1423381231,0.02536281,-0.030204596,-0.03436558,0.67519253
1423413212,0.039058182,-0.021638507,-0.033458915,0.6777674
1423445200,0.029983955,-0.02183431,-0.032766666,0.6763441
1423477273,0.01891205,-0.026931936,-0.03197663,0.67663467
1423509219,0.011287831,-0.03866266,-0.031677037,0.67109466
1423541200,0.025703419,-0.016893884,-0.031421613,0.6756342
1423573170,0.012405124,-0.016030146,-0.030868152,0.67547387
1423605328,0.015678694,-0.012509998,-0.030873336,0.6776843
1423637199,0.013241675,-0.017492995,-0.030667556,0.67476803
1423669996,0.0129980035,-0.0012403545,-0.030398017,0.6748481
1423701966,0.0074006314,-0.027989712,-0.030342916,0.6739279
1423734036,0.012453812,-0.012868271,-0.03063785,0.67750293
1423766016,0.005342828,-0.022846589,-0.030515864,0.6785666
1423793969,0.010052703,-0.030345606,-0.030818196,0.6753752
1423825996,0.013298552,-0.017598365,-0.030880386,0.67648196
1423858006,-0.005020012,-0.02922764,-0.030911038,0.67333907
1423889973,-0.005137976,-0.013138019,-0.030947804,0.673225
1423921959,-0.012430728,-0.016984813,-0.030885229,0.67540836
1423953984,-0.0002548998,-0.016046902,-0.030789198,0.6774654
1423985962,-0.0045021316,-0.01885356,-0.031133479,0.6757111
1424018009,-0.011509654,-0.021313861,-0.031749837,0.6773335
1424046008,-0.00072916737,-0.014453093,-0.03239644,0.67916477
1424078759,-0.023666725,-0.033394624,-0.03330239,0.6710662
1424110799,-0.009666927,-0.03858652,-0.03473305,0.6747173
1424142834,-0.012183509,-0.04332723,-0.036310583,0.67600745
1424174796,-0.015364334,-0.041475143,-0.037523694,0.6786159
1424206765,-0.030475982,-0.05371958,-0.038431305,0.6746632
1424266772,-0.017646467,-0.044870086,-0.040675018,0.67525345
1424298759,-0.026144594,-0.03752038,-0.04220685,0.67322594
1424330751,-0.019557148,-0.031803276,-0.04340367,0.67501664
1424362807,-0.021679128,-0.038866494,-0.044778176,0.6730908
1424394806,-0.006481958,-0.030556232,-0.045730207,0.67582417
1424426950,-0.02806412,-0.027479118,-0.047329336,0.67228025
1424458819,-0.017100753,-0.03435497,-0.0491552,0.6723978
1424490801,-0.016601479,-0.02412963,-0.05057767,0.6737522
1424523596,-0.0077364896,-0.036007002,-0.05186958,0.6767545
1424555569,-0.026177073,-0.036475893,-0.05369936,0.67195714
1424587607,-0.014950641,-0.046268594,-0.055357892,0.6715709
1424619598,-0.018104058,-0.017725833,-0.05658336,0.6763548
1424651645,-0.0057327305,-0.029167658,-0.0571875,0.67584395
1424683605,-0.019299448,-0.024860557,-0.05751425,0.67659503
1424715567,-0.017874122,-0.03727503,-0.05838741,0.67355144
1424747599,-0.015157925,-0.028389612,-0.05922474,0.6804386
1424779563,-0.0038543588,-0.042981282,-0.06023582,0.678004
1424811616,-0.0023088036,-0.035797156,-0.060834683,0.6765584
1424843610,-0.011754742,-0.041986085,-0.061039962,0.67250264
1424875601,-0.010103165,-0.033733375,-0.06094473,0.67594194
1424904376,-0.013305996,-0.021030644,-0.06105517,0.6777451
1424936400,0.00485525,-0.036848534,-0.06126006,0.6755794
1424968403,0.005901975,-0.020017348,-0.061155472,0.6792918
1425000393,-0.005928642,-0.032005984,-0.061173458,0.6752171
1425032406,-0.0011984478,-0.021609241,-0.06140271,0.67586213
1425064406,-0.004909981,-0.024259953,-0.06104703,0.67591816
1425096415,-0.0035027547,-0.010960332,-0.060048204,0.6775861
1425124404,-0.0068276892,-0.009515704,-0.05942178,0.6775699
1425156403,-0.010877124,-0.017896729,-0.057587177,0.67834145
1425188401,0.14456464,0.016989257,-0.05652256,0.674868
1425220403,0.05035786,-0.021674516,-0.05646104,0.6726183
1425284402,-0.011782531,-0.033530343,-0.056229006,0.68161047
1425316400,0.005031622,-0.032474674,-0.055920582,0.67762107
1425344400,0.021236332,-0.0068809055,-0.05478573,0.67868966
1425377200,0.014522495,-0.010778613,-0.053671625,0.67283094
1425409206,0.022735206,-0.0037433726,-0.052166365,0.6793494
1425441208,0.026059996,-0.007323273,-0.051186193,0.6781834
1425473236,0.020690734,-0.009924259,-0.050035007,0.677974
1425505219,-0.0032282015,-0.014479298,-0.049369972,0.6761043
1425537224,-0.0048967246,-0.022995463,-0.04772442,0.6820256
1425565227,-0.0035503884,-0.022434948,-0.046738934,0.6783138
1425597203,-0.0063557616,-0.017360386,-0.045231868,0.6782888
1425629212,0.00083917537,-0.012579977,-0.043211207,0.67980385
1425661210,-0.016033802,-0.009322991,-0.041837376,0.67649096
1425693202,-0.019721026,-0.004097617,-0.04023627,0.6792956
1425726014,-0.016253997,-0.0069048293,-0.039373517,0.6786318
1425754020,-0.007852812,-0.006662649,-0.038507655,0.675859
1425786049,0.00292554,0.004487461,-0.038120497,0.67930317
1425817961,0.00018935125,0.0015199871,-0.037296753,0.67771643
1425849998,0.000859741,0.006685874,-0.03783994,0.67520094
1425882014,0.0071680886,-0.0014430063,-0.038358524,0.6747639
1425914047,-0.08083387,-0.22405815,-0.039018195,0.67828196
1425945998,-0.032131176,-0.10560721,-0.03993991,0.68772334
1425978008,0.008243252,-0.033598613,-0.04188551,0.68499684
1426006009,0.016481891,0.0063135927,-0.042394582,0.6831763
1426038005,0.011268305,0.016024908,-0.044557936,0.6738144
1426070002,0.037003066,0.027456565,-0.04640344,0.6762259
1426101998,0.031790156,0.037804645,-0.048809033,0.67677724
1426133996,0.030218814,0.009820103,-0.050241727,0.67666835
1426166193,0.009711844,0.0046081357,-0.051361546,0.6742943
1426198116,0.017352907,-0.0031737303,-0.052511908,0.6764095
1426226761,0.013545603,-0.02375869,-0.053651255,0.6742148
1426258992,-0.0016910585,-0.024752766,-0.054569617,0.67728597
1426290795,0.014727189,-0.030030448,-0.056338508,0.6806966
1426322799,-0.0031599903,-0.0154019045,-0.058215912,0.67631423
1426354821,-0.011120057,-0.0061168824,-0.05951166,0.67748326
1426386798,-0.024937546,0.009110715,-0.0603052,0.67980343
1426418799,-0.008810276,-0.0018663526,-0.060416788,0.678198
1426450805,-0.0011004823,0.013835172,-0.06138273,0.67845124
1426478800,0.011569077,0.02080335,-0.062020577,0.6805736
1426510759,-1.9263955e-05,0.0060853395,-0.063279375,0.67691797
1426542798,0.0019019941,0.008640597,-0.06426686,0.6790302
1426574763,0.008319093,-0.010352292,-0.064711824,0.6797224
1426606943,0.017163957,-0.0065829954,-0.06448239,0.6813337
1426638759,-0.030927869,-0.24094167,-0.06511101,0.67588425
1426667613,-0.010575415,-0.111446574,-0.06591276,0.68430567
1426699598,0.004611369,-0.0033521387,-0.06781988,0.68803865
1426731599,0.022080425,0.034163855,-0.06964495,0.6790462
1426763611,0.032021586,0.0383866,-0.071846105,0.6778166
1426795559,0.017712113,0.020414926,-0.07337281,0.67545784
1426827630,0.014202296,0.0148148015,-0.0749606,0.678293
1426891610,0.03580762,-0.0054501207,-0.07817446,0.6838041
1426919565,-0.0062178914,-0.0026290333,-0.07946777,0.6863058
1426951599,-0.028051885,0.005067094,-0.07976379,0.6839335
1426983563,-0.011033237,0.0065134866,-0.07985044,0.68476164
1427015567,0.0004833884,0.011707788,-0.07988689,0.68077433
1427047561,0.012558784,-0.013890792,-0.07918335,0.6773395
1427108361,-0.016115233,-0.019911405,-0.08020759,0.6764058
1427140421,-0.012070356,-0.0268692,-0.08060442,0.68120605
1427172406,-0.018764075,-0.019114414,-0.08148201,0.6824735
1427204402,-0.022387192,-0.039415877,-0.081897005,0.6770346
1427236403,-0.029849734,-0.02481195,-0.082495466,0.67728007
1427300399,-0.018330349,-0.04264772,-0.08117725,0.6806584
1427332425,-0.021107232,-0.054942966,-0.0795169,0.67712724
1427364411,-0.013331747,-0.031712554,-0.07762169,0.6819597
1427392407,-0.01241129,-0.030589953,-0.0757215,0.679428
1427424364,-0.018214125,-0.0069820257,-0.07298135,0.6821182
1427456394,-0.029513087,-0.021590024,-0.06997508,0.68003243
1427521200,-0.027132284,-0.0048951204,-0.06536261,0.6835972
1427553183,-0.03755129,-0.014971892,-0.062150855,0.6817415
1427581226,-0.048579443,0.10387249,-0.05963522,0.68354154
1427613168,-0.05426345,0.0094185,-0.055759218,0.67948425
1427645202,-0.0680541,-0.03896374,-0.05194904,0.68134296
1427677200,-0.058198012,-0.06349886,-0.04802341,0.6853191
1427709225,-0.06709552,-0.051471043,-0.043889847,0.68556434
1427741310,-0.05446566,-0.057076976,-0.040375266,0.67808366
1427773200,-0.04734937,-0.03085355,-0.036672387,0.68142134
1427805233,-0.031299073,-0.032375604,-0.032398947,0.6828884
1427833999,-0.024886519,-0.025579024,-0.029268019,0.68367445
1427866150,-0.037254564,-0.027987618,-0.025249857,0.6788674
1427898009,0.05105256,-0.64123815,-0.019562516,0.6854673
1427930012,0.0014836253,-0.19049008,-0.015123735,0.7013484
1427961996,-0.025849743,-0.007314612,-0.008976777,0.6924093
1427994015,-0.05222425,0.12822464,-0.003993945,0.6876182
1428026109,-0.0018991738,0.09799501,6.705826e-05,0.68384564
1428057964,-0.0026476101,0.07570461,0.0029333932,0.6829692
1428089998,0.0038446262,0.042475827,0.0048188795,0.6809535
1428121999,-0.00035402793,0.06391513,0.0065326323,0.6796637
1428154009,-0.0030950464,0.04598452,0.00845398,0.68091667
1428186006,-0.0015526927,0.06447195,0.009867831,0.67977625
1428218009,0.0015961854,0.045945752,0.01111298,0.6773942
1428246018,0.0038193709,0.0579728,0.011819499,0.6795031
1428277962,-0.004231917,0.07573999,0.012340879,0.6791538
1428309996,-0.017817616,0.06389548,0.012833689,0.6746754
1428342843,-0.019419758,0.054914318,0.012395399,0.6768524
1428374797,-0.019098798,0.03917846,0.011928333,0.6765601
1428406795,-0.022009604,0.039667115,0.010284846,0.6775887
1428438801,-0.010483906,0.0125747705,0.007866659,0.6770632
1428466798,-0.010064538,0.0034849127,0.005830064,0.6752955
1428498805,-0.014571384,-0.0009875584,0.0032613836,0.6783279
1428530796,-0.0171193,-0.023228712,0.0011774028,0.6789951
1428562810,-0.029413663,-0.023481434,-0.0008184714,0.6783103
1428594825,-0.025689078,-0.038821526,-0.0034860547,0.6779748
1428626801,-0.01830402,-0.031223377,-0.005667687,0.6797809
1428658800,-0.03248443,-0.043824263,-0.008089387,0.67845327
1428723566,-0.022790419,-0.029718265,-0.013190748,0.68265593
1428755567,-0.017656535,-0.023873383,-0.015198126,0.6794817
1428787563,-0.029409636,-0.027986268,-0.01749658,0.6751952
1428819601,-0.012141211,-0.0139347175,-0.019421382,0.6798271
1428851604,-0.015059954,-0.030209893,-0.020453295,0.6776519
1428883561,-0.021602264,-0.03376736,-0.02153644,0.6773167
1428915604,-0.028931586,-0.035077408,-0.022765547,0.6766038
1428979622,-0.022913879,-0.044278514,-0.023227133,0.67801315
1429011575,-0.019856323,-0.045465045,-0.023764307,0.67912024
1429043642,-0.016445858,-0.043124497,-0.024324829,0.6804035
1429075625,-0.008185615,-0.060483318,-0.024230646,0.6792949
1429135598,-0.012983768,-0.044155158,-0.02444647,0.678527
1429167561,-0.015106881,-0.0442561,-0.02426867,0.6787651
1429200414,-0.017717011,-0.028006565,-0.023518939,0.6817496
1429232400,-0.0033584102,-0.050828297,-0.022503812,0.6783583
1429264402,-0.012883671,-0.018608876,-0.022293823,0.67599463
1429292402,-0.016566256,-0.00920007,-0.021570634,0.67583585
1429324365,-0.0038042748,-0.0073069353,-0.0211324,0.67603153
1429356361,0.010232421,0.014719947,-0.020783858,0.67708653
1429388376,0.022007154,0.0024888108,-0.019864464,0.6766973
1429420403,0.01727654,0.012262745,-0.019025682,0.67465717
1429452409,0.004156371,0.00792469,-0.018527355,0.67373174
1429484372,0.023989026,0.013503407,-0.018246941,0.6784208
1429516401,0.023088269,0.00078503083,-0.017128227,0.6772482
1429544400,0.024489438,0.011171799,-0.01666178,0.6785355
1429576403,0.029414734,0.022397917,-0.015459626,0.6776237
1429608411,0.006731459,0.03307882,-0.014562987,0.6755419
1429641215,0.020917226,0.027291108,-0.013573262,0.6771694
1429673200,0.02362908,0.08074386,-0.012665663,0.67724586
1429737228,-0.00039329942,0.1908998,-0.012897916,0.6746842
1429765234,-0.009144193,0.20732462,-0.012687359,0.6707263
1429797283,0.0040983064,0.23419274,-0.012999897,0.67216635
1429829206,0.0064186784,0.28602105,-0.013228146,0.6758884
1429861199,0.0035583954,0.27865607,-0.012170371,0.6783683
1429893203,-0.0065364176,0.2843722,-0.012191855,0.6759969
1429925203,-0.020774188,-0.23456989,-0.012053216,0.67466253
1429957200,-0.010515768,0.050742406,-0.012789695,0.6972914
1429989221,-0.0058547207,0.1903466,-0.010911914,0.6866532
1430021201,-0.011083086,0.14507388,-0.010412119,0.6816864
1430053204,-0.014289208,0.08164646,-0.010157009,0.67852426
1430085961,-0.021253966,0.022053322,-0.009443173,0.67867327
1430117996,-0.035065047,-0.027470151,-0.008967512,0.67644244
1430150009,-0.028170655,-0.056459647,-0.007815753,0.67827547
1430178010,-0.031036396,-0.072479814,-0.0065021785,0.67777956
1430210003,-0.03798553,-0.08648892,-0.0053715627,0.6792698
1430242011,-0.033682164,-0.09102756,-0.0032749742,0.6843027
1430273959,-0.042243402,-0.090071455,-0.0019274539,0.678562
1430305958,-0.03407857,-0.09539502,-0.00072289427,0.67842025
1430338020,-0.034553155,-0.0718744,0.00046828337,0.6798596
1430370056,-0.02600788,-0.076669976,0.0013468512,0.68312573
1430402017,-0.025408419,-0.070294574,0.0012214832,0.67906356
1430434121,-0.021672187,-0.068785585,0.001336648,0.6764936
1430466797,-0.02949458,-0.056979544,0.0017786787,0.68059367
1430498836,-0.02566241,-0.07269002,0.0028406112,0.6779398
1430530816,-0.034969456,-0.0613233,0.0039558373,0.6761789
1430562974,-0.019966427,-0.05795783,0.0045755142,0.67783505
1430594802,-0.011224064,-0.030332182,0.0054138065,0.6792252
1430622962,-0.017230634,-0.033631444,0.0059884298,0.6767986
1430654761,0.007480858,-0.03598736,0.005825419,0.67705554
1430686803,0.23780687,0.48080456,0.006048682,0.6778507
1430750826,0.13614795,9.8725635e-05,0.0055208416,0.6903175
1430782779,0.073718555,-0.06715212,0.0040421584,0.6889686
1430814798,0.061541,-0.050966404,0.0022741396,0.6977974
1430846951,0.053512726,-0.005978804,0.00056827,0.6886902
1430878761,0.052197393,0.022658762,-0.0010204415,0.6812998
1430943596,0.044068664,0.06093857,-0.002855615,0.6796658
1430975612,0.012262047,0.07608066,-0.005808516,0.67519623
1431007607,0.013923684,0.07404199,-0.008214129,0.67766285
1431035624,0.00826616,0.05168864,-0.0106059015,0.6737268
1431067615,-0.018542416,0.061938785,-0.013223717,0.6777141
1431099597,-0.012869652,0.04234686,-0.015242743,0.6787132
1431131602,-0.027057305,0.037923,-0.01740665,0.67919594
1431163607,-0.03175808,0.0147235375,-0.01986115,0.6756855
1431195597,-0.03284566,0.007144259,-0.021784103,0.68167543
1431227611,-0.031553283,-0.0019780104,-0.023766762,0.67992574
1431259613,-0.04046423,-0.035925098,-0.025777888,0.6768149
1431291614,-0.060531486,-0.032049134,-0.027845742,0.6746378
1431356401,0.075082414,0.05558733,-0.036857467,0.6821436
1431388400,0.024086755,-0.008596195,-0.038499407,0.6844989
1431420405,-0.016767895,-0.03634897,-0.042383295,0.6901253
1431448401,-0.0023474442,-0.027196337,-0.044332728,0.68895787
1431480367,0.0064385715,-0.03524387,-0.04487314,0.68772554
1431512366,0.009302379,-0.02300569,-0.04498388,0.68554085
1431544408,-0.001994387,-0.040718537,-0.044477277,0.67936677
1431576370,0.00067962834,-0.013440786,-0.043685652,0.68058056
1431608400,-0.0018794078,0.0030054396,-0.04341759,0.6782461
1431640594,0.0015273688,-4.6889225e-05,-0.04231839,0.6781153
1431672407,-0.01665734,0.024425995,-0.04148484,0.67634964
1431700415,-0.011890273,0.010922829,-0.039439756,0.6754864
1431765169,-0.031655025,0.019674594,-0.0350818,0.6791363
1431797210,-0.021389594,-0.00975721,-0.0314391,0.67915154
1431829165,-0.04255927,-0.0026614368,-0.028131362,0.67910695
1431861202,-0.031905174,-0.018995313,-0.024481144,0.67738223
1431893223,-0.017728794,-0.0074474234,-0.020774405,0.6789007
1431921256,-0.032631665,-0.018313568,-0.01793639,0.67660177
1431953389,-0.029099159,-0.016955853,-0.015172614,0.6757822
1431985174,-0.034397095,-0.015883083,-0.012129439,0.67838514
1432017207,-0.05195018,-0.021797884,-0.010284611,0.6731679
1432049170,-0.038447093,-0.028153328,-0.008418241,0.67442214
1432081209,-0.035400234,0.005557738,-0.0070145526,0.675255
1432113207,-0.027392041,-0.0076875095,-0.0056648804,0.67460597
1432145223,-0.03499272,0.008145754,-0.0061120694,0.66982526
1432173223,-0.024364062,0.04240136,-0.006096805,0.6732513
1432205996,0.035098515,0.07905962,-0.007231653,0.66998583
1432238006,0.08117539,0.089337826,-0.007951679,0.6730455
1432270008,0.14097767,0.055648245,-0.009561562,0.67358226
1432302003,0.10695307,0.030510884,-0.0119531555,0.6736716
1432334018,0.10062666,0.007291695,-0.015470601,0.67524695
1432362009,0.09840172,-0.021941047,-0.018737279,0.67243516
1432393999,0.14869334,-0.039419044,-0.022659875,0.6736113
1432425996,0.12990537,-0.02830367,-0.026827004,0.6777738
1432457997,0.08914444,-0.04926233,-0.030057598,0.6741538
1432490001,0.040313695,-0.0378942,-0.03381989,0.6776356
1432521999,0.030702775,-0.03659654,-0.037452992,0.67852
1432550799,0.026485011,-0.04334337,-0.04066448,0.67399263
1432582798,-0.01400428,-0.027570695,-0.04481234,0.6765423
1432614798,-0.061195396,-0.01918704,-0.04949872,0.67483854
1432646761,-0.05910493,-0.03037252,-0.053844105,0.6767715
1432678796,0.14403225,0.049683142,-0.06131079,0.676124
1432710759,-0.026952973,-0.019895354,-0.06713289,0.67061466
1432742799,-0.09489015,-0.035853423,-0.072545364,0.68179643
1432774796,-0.113226734,-0.03222951,-0.07717914,0.6814924
1432802761,-0.09819595,-0.0067420234,-0.082704514,0.67784864
1432834761,-0.06666813,-0.018825583,-0.08839636,0.6721472
1432866759,-0.056766838,-0.0137060415,-0.095868185,0.6682198
1432898806,-0.06630929,-0.008611702,-0.10201572,0.66914403
1432930796,-0.05508888,-0.0051750615,-0.10705424,0.6720465
1432962800,-0.06513699,0.010611232,-0.111707665,0.67105055
1432994810,-0.05889774,0.004135741,-0.115544915,0.67264044
1433023612,-0.056511905,0.010148988,-0.11827729,0.6697781
1433055663,-0.04234749,0.0027774635,-0.12077966,0.6759077
1433087559,-0.038269397,-0.001752912,-0.12360059,0.67066646
1433119596,-0.017489169,-0.013522003,-0.12560774,0.6682961
1433151618,-0.0044706115,0.0026596962,-0.12757277,0.67197907
1433183598,-0.0038650285,0.00699971,-0.12953049,0.67171144
1433215596,0.0069321,0.013753414,-0.13180575,0.6733162
1433247611,0.01575043,0.023859672,-0.13393298,0.6747347
1433275609,0.013946265,0.020504745,-0.13504085,0.6738824
1433307566,0.027262256,0.036007237,-0.13636158,0.6765179
1433339578,0.03729323,0.0058492497,-0.13671868,0.6718
1433371596,0.05065959,0.024044834,-0.13797536,0.67390996
1433403624,0.047364738,0.03385072,-0.13820912,0.67460823
1433435607,0.032013938,0.023894874,-0.1374329,0.67536986
1433464392,0.034889407,0.02573285,-0.13689524,0.6754348
1433496402,-0.09081543,-0.41969326,-0.13159053,0.6721871
1433528403,-0.026477288,-0.19397248,-0.13289,0.68839675
1433560403,-0.005376962,-0.040963423,-0.13298829,0.692725
1433592366,-0.01448744,0.017412746,-0.13373464,0.6838619
1433624404,0.026161687,0.061078895,-0.13275895,0.6834774
1433656412,0.019299462,0.05707521,-0.1316295,0.6811028
1433688406,0.017452767,0.04910652,-0.13052864,0.6789255
1433716367,-0.22643737,0.16385576,-0.12770304,0.67639506
1433748407,-0.04727236,0.078595296,-0.12325178,0.68297374
1433780406,0.027860474,0.04863607,-0.119751744,0.68912107
1433812366,0.070236675,-0.0102077685,-0.1172701,0.68453836
1433844381,0.0772281,0.007909047,-0.115883134,0.68623024
1433877205,0.05635503,-0.0016838238,-0.1135186,0.68566066
1433909233,0.046240628,0.012687716,-0.11283847,0.6837705
1433937236,0.054161854,0.006704207,-0.111638635,0.6790191
1433969202,0.046647806,0.0074584554,-0.110332556,0.6782016
1434001166,0.066863276,0.0031345964,-0.10889104,0.683536
1434033225,0.059501532,0.0038009086,-0.10752801,0.6771969
1434065172,0.07045826,0.004675503,-0.10573483,0.67753655
1434097206,0.084072374,0.027911698,-0.10463114,0.68065464
1434129304,0.07398187,0.020492235,-0.10354421,0.67670894
1434161226,0.065162174,0.016943322,-0.10263147,0.6789786
1434193213,0.07384751,0.020903245,-0.10154457,0.68037146
1434225177,0.082744524,0.006865348,-0.10057487,0.6790075
1434257217,0.070404045,0.014663104,-0.10044813,0.6783643
1434289996,0.07693725,0.020180494,-0.09974929,0.6812122
1434322010,0.06583553,0.013102107,-0.098956205,0.6768635
1434353999,0.050464563,-0.0035453206,-0.097483344,0.675465
1434385996,0.058571048,-0.007828577,-0.095449336,0.6794238
1434417959,0.040246826,-0.008876701,-0.093875855,0.67642874
1434450115,0.047610942,-0.015523439,-0.09263505,0.6775721
1434481999,0.04582634,0.0013953026,-0.091568716,0.68293566
1434513961,0.022924326,-0.030620402,-0.09047352,0.6769816
1434546018,0.020974822,-0.016244167,-0.089787036,0.6794235
1434574009,0.019225521,-0.022293948,-0.08908133,0.67925364
1434605999,0.0111051,0.012599004,-0.088941485,0.68222886
1434637959,-0.009465138,-0.004735795,-0.08790208,0.68133837
1434670903,-0.019339854,0.020613417,-0.088295445,0.6846306
1434702800,-0.018383546,0.025999932,-0.08765087,0.6874808
1434734804,-0.024671925,0.008679231,-0.0866325,0.68057287
1434766817,-0.037190676,0.024277784,-0.086087644,0.6831205
1434794798,-0.036932435,0.012730222,-0.08522109,0.6808063
1434826947,-0.017065924,0.004753191,-0.08300493,0.68080115
1434858811,-0.027195772,-0.008554072,-0.08142689,0.6775676
1434890795,-0.04039541,0.00045758195,-0.07905035,0.67794454
1434922992,-0.021243066,0.0004607106,-0.07469952,0.68207496
1434954800,-0.2558551,-0.09842997,-0.06910664,0.6793556
1434986788,-0.10865546,-0.040855262,-0.06433363,0.6845874
1435018799,0.007777406,0.010701931,-0.059247244,0.6842966
1435050800,0.03306908,0.024725068,-0.052717935,0.67638963
1435082759,0.04165179,0.033580437,-0.046727065,0.6752327
1435114797,0.035061453,0.029387547,-0.04118188,0.67933786
1435147600,0.033746447,-0.010908977,-0.035226773,0.6781385
1435179601,0.020735515,-0.0034587088,-0.030146383,0.6786857
1435211616,0.017638553,-0.0031494766,-0.024898116,0.6778109
1435243600,0.019600596,-0.006212932,-0.019461649,0.67918015
