timestamp,rollspeed,pitchspeed,yawspeed,q[0],q[1],q[2],q[3],delta_q_reset[0],delta_q_reset[1],delta_q_reset[2],delta_q_reset[3],quat_reset_counter
1399021613,-0.017009936,0.0043036668,-0.00016509369,-0.99934584,-0.0045554764,-0.0035879908,0.035698913,-0.35588327,-0.0100231925,0.0021978046,0.9344742,1
1399049599,0.01074392,-0.08077106,0.011179573,-0.999343,-0.0045304913,-0.0032631077,0.035811417,-0.35588327,-0.0100231925,0.0021978046,0.9344742,1
1399081589,-0.06478982,-0.07550481,0.010554321,-0.99934405,-0.0040221233,-0.0026944815,0.035889875,-0.35588327,-0.0100231925,0.0021978046,0.9344742,1
1402207024,-0.016601808,-0.112093255,0.0236191,-0.99995685,0.0020890397,0.0036048654,0.008314125,-0.35588327,-0.0100231925,0.0021978046,0.9344742,1
1402239232,-0.02794836,0.06673589,0.016137395,-0.9999559,0.0022725433,0.0035842294,0.0083763795,-0.35588327,-0.0100231925,0.0021978046,0.9344742,1
1402271203,-0.017068664,-0.060183905,-0.027872574,-0.99995387,0.002674972,0.003698512,0.008455288,-0.35588327,-0.0100231925,0.0021978046,0.9344742,1
1402303337,-0.0044497345,0.020345885,-0.030938126,-0.9999533,0.0028824501,0.0037153687,0.008444982,-0.35588327,-0.0100231925,0.0021978046,0.9344742,1
1402335216,-0.050484475,-0.056690324,0.01477941,-0.9999528,0.0031611694,0.0037652175,0.008387286,-0.35588327,-0.0100231925,0.0021978046,0.9344742,1
1402367166,-0.0116989445,0.17196895,-0.004944022,-0.99995285,0.0035919053,0.0034472665,0.008350115,-0.35588327,-0.0100231925,0.0021978046,0.9344742,1
1402395291,0.0053478307,0.14223796,0.0077190367,-0.9999539,0.0036324277,0.0033467307,0.008238425,-0.35588327,-0.0100231925,0.0021978046,0.9344742,1
1402427219,0.008886262,-0.006115307,-0.016314045,-0.9999547,0.0036650144,0.0033818951,0.008117893,-0.35588327,-0.0100231925,0.0021978046,0.9344742,1
1402459013,0.005820519,-0.06449628,-0.013982611,-0.99995524,0.0037356054,0.0034184104,0.0079971785,-0.35588327,-0.0100231925,0.0021978046,0.9344742,1
1402491217,0.034472287,0.07977061,0.027741348,-0.99995834,0.0034433794,0.0033313534,0.0077740345,-0.35588327,-0.0100231925,0.0021978046,0.9344742,1
1402523820,0.013782373,-0.057264984,0.027850008,-0.99996233,0.0029738434,0.003364286,0.0074397377,-0.35588327,-0.0100231925,0.0021978046,0.9344742,1
1402555818,0.070299126,0.034525618,0.03357263,-0.9999682,0.0023782076,0.0029457433,0.0070334803,-0.35588327,-0.0100231925,0.0021978046,0.9344742,1
1402588011,0.020822158,-0.07885552,0.014731284,-0.9999725,0.00193537,0.002705327,0.006633472,-0.35588327,-0.0100231925,0.0021978046,0.9344742,1
1402620023,0.036009703,0.12600367,0.033343196,-0.9999773,0.0015011113,0.0023194274,0.006147096,-0.35588327,-0.0100231925,0.0021978046,0.9344742,1
1402652039,0.04768341,-0.05644883,0.009767098,-0.99998003,0.00096720236,0.002491826,0.005734875,-0.35588327,-0.0100231925,0.0021978046,0.9344742,1
1402684014,0.05035296,-0.07600175,0.0060908175,-0.9999826,2.0963007e-05,0.0024352665,0.0053853705,-0.35588327,-0.0100231925,0.0021978046,0.9344742,1
1402715835,0.06284731,0.1289654,0.019264499,-0.9999849,-0.0007930333,0.001925603,0.005081048,-0.35588327,-0.0100231925,0.0021978046,0.9344742,1
1402748012,-0.014589485,-0.081722826,0.032990776,-0.9999859,-0.0010733954,0.0018258285,0.004875269,-0.35588327,-0.0100231925,0.0021978046,0.9344742,1
1402780107,0.054203585,0.03678254,-0.009078711,-0.99998605,-0.0016732947,0.0014432627,0.0048136455,-0.35588327,-0.0100231925,0.0021978046,0.9344742,1
1402811975,0.027732162,-0.04891029,0.00488498,-0.99998605,-0.0020483313,0.0013408721,0.0047004195,-0.35588327,-0.0100231925,0.0021978046,0.9344742,1
1402839867,0.019352956,-0.085371986,-0.0038762102,-0.9999859,-0.0022428255,0.0012798007,0.0046572946,-0.35588327,-0.0100231925,0.0021978046,0.9344742,1
1402871900,0.019892165,0.0021982617,0.0088593885,-0.9999848,-0.002614264,0.0013720923,0.0046684584,-0.35588327,-0.0100231925,0.0021978046,0.9344742,1
1402903970,0.018540341,0.08660881,0.02181854,-0.9999836,-0.002959949,0.0014569685,0.004693789,-0.35588327,-0.0100231925,0.0021978046,0.9344742,1
1402936006,-0.015441299,-0.17611633,-0.019699136,-0.9999823,-0.0029723002,0.0017867706,0.0048330873,-0.35588327,-0.0100231925,0.0021978046,0.9344742,1
1402968730,0.015602975,0.07658528,-0.02289729,-0.9999814,-0.0031208168,0.0016785848,0.004984787,-0.35588327,-0.0100231925,0.0021978046,0.9344742,1
1403000829,0.0059865406,-0.053255573,0.0034575304,-0.99997866,-0.0034122013,0.002230976,0.0051223203,-0.35588327,-0.0100231925,0.0021978046,0.9344742,1
1403028796,-0.027280783,-0.06677724,-0.01397641,-0.99997616,-0.0034507199,0.0027397727,0.0053254934,-0.35588327,-0.0100231925,0.0021978046,0.9344742,1
1403060817,-0.007258542,0.05926794,-0.032810897,-0.99997556,-0.0032473388,0.0027991156,0.005524887,-0.35588327,-0.0100231925,0.0021978046,0.9344742,1
1403092640,0.0035909277,-0.022409895,-0.01883813,-0.99997497,-0.0032106247,0.0026402224,0.0057266164,-0.35588327,-0.0100231925,0.0021978046,0.9344742,1
1403124772,-0.018718204,0.01339748,-0.020673469,-0.9999743,-0.0032078128,0.00250975,0.0059040156,-0.35588327,-0.0100231925,0.0021978046,0.9344742,1
1403157096,-0.008708234,0.09318623,0.0048010563,-0.9999744,-0.00302756,0.0021983508,0.006092982,-0.35588327,-0.0100231925,0.0021978046,0.9344742,1
1403220772,0.023141462,0.112513065,-0.028639566,-0.9999721,-0.0030805198,0.001816043,0.0065628374,-0.35588327,-0.0100231925,0.0021978046,0.9344742,1
1403252796,-0.058160968,-0.006354028,-0.02475192,-0.9999729,-0.0024814573,0.0014860785,0.006780827,-0.35588327,-0.0100231925,0.0021978046,0.9344742,1
1403284857,-0.051803626,-0.034182116,-0.021721145,-0.9999734,-0.0016590944,0.001492251,0.006944084,-0.35588327,-0.0100231925,0.0021978046,0.9344742,1
1403316617,0.003659817,0.046227157,-0.011459844,-0.99997264,-0.0016274487,0.00133086,0.007100176,-0.35588327,-0.0100231925,0.0021978046,0.9344742,1
1403348810,-0.01552231,0.038588837,-0.019320568,-0.9999721,-0.0015147838,0.0009479623,0.0072588446,-0.35588327,-0.0100231925,0.0021978046,0.9344742,1
1403380863,-0.012238864,0.066671364,-0.022065269,-0.99997216,-0.0011607877,0.00048292632,0.007353936,-0.35588327,-0.0100231925,0.0021978046,0.9344742,1
1403413596,-0.0016130765,-0.107705556,0.019225944,-0.99997187,-0.0010989761,0.00051659986,0.0074161836,-0.35588327,-0.0100231925,0.0021978046,0.9344742,1
1403445615,0.044114687,0.15902996,-0.023968495,-0.99997056,-0.0011729202,0.00022693313,0.0075859227,-0.35588327,-0.0100231925,0.0021978046,0.9344742,1
1403477451,-0.0013682069,-0.08080567,-0.03171989,-0.9999692,-0.0010293265,0.0002390985,0.0077861636,-0.35588327,-0.0100231925,0.0021978046,0.9344742,1
1403509584,0.01728324,-0.009701728,0.0056780176,-0.9999687,-0.001201632,7.780049e-07,0.007832111,-0.35588327,-0.0100231925,0.0021978046,0.9344742,1
1403541577,-0.034930926,0.083996534,-0.017115705,-0.9999671,-0.0012479542,-0.00023507925,0.008016604,-0.35588327,-0.0100231925,0.0021978046,0.9344742,1
1403573663,-0.023926001,-0.045157596,-0.0399963,-0.9999657,-0.0005494678,-0.0001689367,0.008270485,-0.35588327,-0.0100231925,0.0021978046,0.9344742,1
1403605597,0.0076584276,0.025325062,-0.020484583,-0.999964,-0.00038110605,-0.00017559975,0.008472993,-0.35588327,-0.0100231925,0.0021978046,0.9344742,1
1403637654,-0.018681535,-0.061119027,0.01993391,-0.99996233,-0.00066439825,-5.9289807e-05,0.008656222,-0.35588327,-0.0100231925,0.0021978046,0.9344742,1
1403669684,0.014173458,0.14404538,-0.014905786,-0.99995965,-0.00070693175,-0.0004046925,0.008955065,-0.35588327,-0.0100231925,0.0021978046,0.9344742,1
1403701579,0.011588179,-0.12271545,-0.0261238,-0.9999568,-0.00057029264,-0.0004561158,0.009273383,-0.35588327,-0.0100231925,0.0021978046,0.9344742,1
1403733456,-0.019385703,-0.041356124,-0.01846536,-0.99995416,-0.0006712429,-0.0005155782,0.00953931,-0.35588327,-0.0100231925,0.0021978046,0.9344742,1
1403765449,-0.0125322845,0.08307862,-0.009823754,-0.9999517,-0.00055542507,-0.00061500317,0.009801429,-0.35588327,-0.0100231925,0.0021978046,0.9344742,1
1403797583,0.0070783836,-0.098160125,-0.046526756,-0.9999477,-0.00065875484,-0.00031863817,0.010201416,-0.35588327,-0.0100231925,0.0021978046,0.9344742,1
1403829718,0.036977228,0.069429174,-0.031484593,-0.9999436,-0.001043239,-0.00044653963,0.010564364,-0.35588327,-0.0100231925,0.0021978046,0.9344742,1
1403858230,0.0227441,0.046166316,-0.035331834,-0.9999403,-0.0010362276,-0.00065469695,0.010868932,-0.35588327,-0.0100231925,0.0021978046,0.9344742,1
1403922311,0.008166058,0.07288556,-0.0044784993,-0.9999325,-0.0013701001,-0.00066140096,0.011520946,-0.35588327,-0.0100231925,0.0021978046,0.9344742,1
1403954382,-0.013062074,-0.12473997,-0.011570372,-0.99992925,-0.0011960584,-9.161978e-05,0.011837579,-0.35588327,-0.0100231925,0.0021978046,0.9344742,1
1403986332,0.016533494,0.10148054,-0.042791426,-0.99992514,-0.0012100156,4.1216164e-05,0.012179615,-0.35588327,-0.0100231925,0.0021978046,0.9344742,1
1404018414,-0.0068730786,-0.09342173,-0.018565066,-0.99992263,-0.0010905358,0.0006596227,0.012378824,-0.35588327,-0.0100231925,0.0021978046,0.9344742,1
1404050385,-0.0039284416,-0.0971881,0.004078297,-0.99992037,-0.0009807107,0.0013218572,0.012518494,-0.35588327,-0.0100231925,0.0021978046,0.9344742,1
1404082460,-0.015885768,0.0021646626,0.01265642,-0.99991715,-0.0011022197,0.0015056398,0.012737223,-0.35588327,-0.0100231925,0.0021978046,0.9344742,1
1404110442,-0.022338599,-0.022798063,0.025967719,-0.99991494,-0.0009456755,0.0017080186,0.012897219,-0.35588327,-0.0100231925,0.0021978046,0.9344742,1
1404142384,0.0022658063,-0.027448056,-0.0033386147,-0.9999126,-0.0010503159,0.0020491993,0.013016638,-0.35588327,-0.0100231925,0.0021978046,0.9344742,1
1404174260,0.036430314,0.013158362,-0.02600712,-0.9999092,-0.0012789523,0.0022856104,0.013221284,-0.35588327,-0.0100231925,0.0021978046,0.9344742,1
1404238413,-0.003245613,0.111361526,-0.00034112623,-0.9999042,-0.0009048697,0.002658037,0.013556077,-0.35588327,-0.0100231925,0.0021978046,0.9344742,1
1404270255,0.017949045,-0.078216136,-0.034689292,-0.9998989,-0.001107495,0.0032299622,0.01380944,-0.35588327,-0.0100231925,0.0021978046,0.9344742,1
1404299051,-0.006076631,-0.07258894,-0.005159822,-0.99989545,-0.0011990358,0.0033029935,0.014033078,-0.35588327,-0.0100231925,0.0021978046,0.9344742,1
1404331220,0.029880162,0.027779043,-0.036598753,-0.9998907,-0.0011608301,0.0033355986,0.014354836,-0.35588327,-0.0100231925,0.0021978046,0.9344742,1
1404363016,-0.013693775,-0.09836195,-0.04162863,-0.99988484,-0.0011997143,0.0038387517,0.014637921,-0.35588327,-0.0100231925,0.0021978046,0.9344742,1
1404395053,-0.003833754,0.0976351,-0.009255093,-0.9998794,-0.0011429167,0.0041840905,0.014912823,-0.35588327,-0.0100231925,0.0021978046,0.9344742,1
1404427224,-0.009825767,-0.11784536,-0.016193002,-0.9998728,-0.0010471267,0.004868652,0.015155474,-0.35588327,-0.0100231925,0.0021978046,0.9344742,1
1404459187,0.022157574,0.106138065,-0.02206564,-0.99986887,-0.0009816729,0.0049149594,0.01540484,-0.35588327,-0.0100231925,0.0021978046,0.9344742,1
1404491218,-0.032302674,-0.07621146,-0.029936781,-0.9998626,-0.00067709154,0.0055166283,0.015619062,-0.35588327,-0.0100231925,0.0021978046,0.9344742,1
1404523271,-0.020004835,-0.035117377,-0.0065530566,-0.99985766,-0.00036164947,0.005950984,0.015789092,-0.35588327,-0.0100231925,0.0021978046,0.9344742,1
1404551265,0.008320442,0.01917105,-0.04215228,-0.9998537,-0.00020107863,0.0061308984,0.015969392,-0.35588327,-0.0100231925,0.0021978046,0.9344742,1
1404583295,-0.01732526,-0.09271634,0.022060625,-0.9998508,-0.00023098846,0.0065311147,0.01599406,-0.35588327,-0.0100231925,0.0021978046,0.9344742,1
1404647179,-0.012280704,-0.02968902,-0.012512784,-0.9998446,0.0001836636,0.0068441844,0.016248627,-0.35588327,-0.0100231925,0.0021978046,0.9344742,1
1404679048,-0.02416468,-0.106209286,-0.013870152,-0.9998399,0.00049395923,0.0071871555,0.016384587,-0.35588327,-0.0100231925,0.0021978046,0.9344742,1
1404711384,-0.017034458,0.043643184,0.03036312,-0.9998393,0.0006429296,0.0069173104,0.01652558,-0.35588327,-0.0100231925,0.0021978046,0.9344742,1
1404743092,-0.03468533,-0.03727208,-0.0052120406,-0.9998363,0.000897762,0.0068770135,0.016709888,-0.35588327,-0.0100231925,0.0021978046,0.9344742,1
1404771979,-0.008814363,0.054215185,-0.007095305,-0.9998373,0.00093407894,0.0065068966,0.016802771,-0.35588327,-0.0100231925,0.0021978046,0.9344742,1
1404804177,0.004825708,-0.056756675,0.0035141774,-0.99983805,0.0009353768,0.0062970957,0.016835002,-0.35588327,-0.0100231925,0.0021978046,0.9344742,1
1404836005,-0.015831232,0.048280746,-0.023935396,-0.999838,0.0011518655,0.005886668,0.016975755,-0.35588327,-0.0100231925,0.0021978046,0.9344742,1
1404867816,0.004677526,0.023371896,-0.015647035,-0.9998396,0.0012602072,0.005471651,0.017008059,-0.35588327,-0.0100231925,0.0021978046,0.9344742,1
1404900184,-0.043748934,-0.0665135,-0.004130406,-0.99983966,0.0015396086,0.0052465466,0.017052483,-0.35588327,-0.0100231925,0.0021978046,0.9344742,1
1404932005,-0.0029410878,0.074522234,0.008622056,-0.99984264,0.001601038,0.0047964603,0.017003663,-0.35588327,-0.0100231925,0.0021978046,0.9344742,1
1404963978,-0.0066641453,0.016101513,-0.028695878,-0.9998429,0.0017308712,0.0047111018,0.017007114,-0.35588327,-0.0100231925,0.0021978046,0.9344742,1
1404995988,0.011820367,0.0046297666,-0.010209972,-0.9998441,0.0018716856,0.004720817,0.016911872,-0.35588327,-0.0100231925,0.0021978046,0.9344742,1
1405055967,0.009207085,-0.11272281,0.0010328137,-0.99984664,0.0013178184,0.0052742744,0.01665308,-0.35588327,-0.0100231925,0.0021978046,0.9344742,1
1405087842,0.004757851,0.12428241,0.028107217,-0.9998499,0.0010056847,0.0050982623,0.016528739,-0.35588327,-0.0100231925,0.0021978046,0.9344742,1
1405120012,0.008993111,-0.105674714,0.015299421,-0.9998495,0.0007430956,0.005722169,0.016365342,-0.35588327,-0.0100231925,0.0021978046,0.9344742,1
1405152188,0.05878862,0.05718787,0.0023881285,-0.99985105,0.00041226583,0.0059855413,0.01618837,-0.35588327,-0.0100231925,0.0021978046,0.9344742,1
1405183853,-0.01034168,-0.09730227,0.008922608,-0.9998511,0.00015381389,0.006496802,0.015986709,-0.35588327,-0.0100231925,0.0021978046,0.9344742,1
1405212826,0.008953582,-0.0024871356,0.0031713597,-0.999852,-9.4858915e-05,0.0066691204,0.015863528,-0.35588327,-0.0100231925,0.0021978046,0.9344742,1
1405244808,0.030405262,0.03421509,0.0148192365,-0.9998543,-0.0004084103,0.006768357,0.015664551,-0.35588327,-0.0100231925,0.0021978046,0.9344742,1
1405276616,0.0027499173,-0.16781035,0.047557287,-0.9998551,-0.0008614989,0.007216628,0.015395265,-0.35588327,-0.0100231925,0.0021978046,0.9344742,1
1405308617,0.052981187,0.13559566,0.02534227,-0.999858,-0.0012956468,0.007134194,0.015215343,-0.35588327,-0.0100231925,0.0021978046,0.9344742,1
1405340680,0.03661409,-0.10224801,-0.022488458,-0.99985343,-0.0015722795,0.0075989175,0.015262976,-0.35588327,-0.0100231925,0.0021978046,0.9344742,1
1405372784,0.020844094,-0.026045559,-0.021492958,-0.99985105,-0.0019882543,0.0077769873,0.015281888,-0.35588327,-0.0100231925,0.0021978046,0.9344742,1
1405404773,-0.015580456,-0.025003346,0.015596441,-0.99984854,-0.0021286367,0.008028315,0.0152959535,-0.35588327,-0.0100231925,0.0021978046,0.9344742,1
1405436822,0.021861337,0.1179605,-0.024662083,-0.9998472,-0.0020414214,0.008015263,0.015402858,-0.35588327,-0.0100231925,0.0021978046,0.9344742,1
1405468823,0.0064865216,-0.047819756,-0.018506566,-0.9998461,-0.0019799534,0.008098941,0.015436523,-0.35588327,-0.0100231925,0.0021978046,0.9344742,1
1405500617,-0.023446593,0.040922713,-0.013620488,-0.9998471,-0.0019400934,0.008019308,0.015421825,-0.35588327,-0.0100231925,0.0021978046,0.9344742,1
1405532809,-0.0020214836,0.052790944,0.024701407,-0.99985147,-0.0017914709,0.0077056764,0.015317234,-0.35588327,-0.0100231925,0.0021978046,0.9344742,1
1405564617,-0.049279124,-0.083879195,0.03401863,-0.99985504,-0.0012504479,0.00779725,0.015084679,-0.35588327,-0.0100231925,0.0021978046,0.9344742,1
1405596772,-0.016626146,0.09293751,0.047667544,-0.99986345,-0.0010763005,0.0073234113,0.014778142,-0.35588327,-0.0100231925,0.0021978046,0.9344742,1
1405629168,-0.02391468,-0.023297947,0.024347061,-0.99986917,-0.00045287644,0.007404497,0.014374998,-0.35588327,-0.0100231925,0.0021978046,0.9344742,1
1405657889,0.0009988596,0.026815705,0.012636943,-0.99987435,-0.00028433563,0.0073688063,0.014034525,-0.35588327,-0.0100231925,0.0021978046,0.9344742,1
1405689649,0.019073173,-0.013120645,0.026173864,-0.9998809,-0.0004194628,0.007237237,0.013622902,-0.35588327,-0.0100231925,0.0021978046,0.9344742,1
1405721575,-0.054385692,-0.08077096,0.05248032,-0.99988735,-0.00016123486,0.0069903764,0.013285712,-0.35588327,-0.0100231925,0.0021978046,0.9344742,1
1405753591,0.0012525528,0.21995595,0.014674167,-0.9998979,-2.3434879e-05,0.0061713206,0.012891934,-0.35588327,-0.0100231925,0.0021978046,0.9344742,1
1405785451,0.005608454,-0.07414479,-0.014331798,-0.99990284,3.510152e-05,0.006096601,0.012533088,-0.35588327,-0.0100231925,0.0021978046,0.9344742,1
1405817575,-0.012782577,0.060704134,0.013747148,-0.9999102,0.0001044444,0.005693997,0.012137236,-0.35588327,-0.0100231925,0.0021978046,0.9344742,1
1405881500,-0.0067197443,0.096061565,0.024111986,-0.99992555,0.0005399676,0.004790085,0.0112155005,-0.35588327,-0.0100231925,0.0021978046,0.9344742,1
1405909605,0.009459741,0.14801182,0.026252577,-0.9999328,0.00040853562,0.0043421476,0.010742635,-0.35588327,-0.0100231925,0.0021978046,0.9344742,1
1405941624,0.003388338,-0.018487055,0.016766706,-0.9999397,0.00018064298,0.003906147,0.01026192,-0.35588327,-0.0100231925,0.0021978046,0.9344742,1
1405973576,-0.0125292875,-0.008554879,0.011377957,-0.9999449,0.00040720825,0.0035184154,0.00988035,-0.35588327,-0.0100231925,0.0021978046,0.9344742,1
1406005598,0.040412806,0.113689825,0.04341568,-0.9999513,3.9928924e-05,0.002766635,0.009481598,-0.35588327,-0.0100231925,0.0021978046,0.9344742,1
1406037623,-0.013218701,-0.07341813,0.031817097,-0.99995446,-0.0003472018,0.0025691648,0.009180909,-0.35588327,-0.0100231925,0.0021978046,0.9344742,1
1406070400,0.027037159,0.112717055,0.006442479,-0.9999585,-0.00053850736,0.0017227022,0.0089282645,-0.35588327,-0.0100231925,0.0021978046,0.9344742,1
1406102389,0.011468262,0.059653975,-0.015214623,-0.9999611,-0.0007831845,0.0010961962,0.008722508,-0.35588327,-0.0100231925,0.0021978046,0.9344742,1
1406134266,0.0076883743,0.097291745,0.018960452,-0.99996316,-0.00094141864,0.00030925035,0.008526133,-0.35588327,-0.0100231925,0.0021978046,0.9344742,1
1406166397,-0.0075080013,-0.06532102,0.026319958,-0.9999648,-0.0010895882,-0.00018515583,0.008316391,-0.35588327,-0.0100231925,0.0021978046,0.9344742,1
1406198399,0.03673846,0.14747746,-0.01768514,-0.9999656,-0.0012487677,-0.00094668876,0.008149243,-0.35588327,-0.0100231925,0.0021978046,0.9344742,1
1406230261,0.02377612,-0.044645265,-0.0050433488,-0.9999662,-0.0014673026,-0.0009276309,0.008044555,-0.35588327,-0.0100231925,0.0021978046,0.9344742,1
1406262392,0.010927367,-0.034664046,0.016529182,-0.9999668,-0.0017000189,-0.0009723348,0.007911676,-0.35588327,-0.0100231925,0.0021978046,0.9344742,1
1406294402,0.006653114,0.035674095,0.0077511054,-0.9999652,-0.0021577035,-0.0015298582,0.007911853,-0.35588327,-0.0100231925,0.0021978046,0.9344742,1
1406326420,0.024601687,0.05655706,-0.03777905,-0.99996305,-0.0024232445,-0.0019927213,0.00799998,-0.35588327,-0.0100231925,0.0021978046,0.9344742,1
1406358421,0.024191251,0.042390287,-0.02673398,-0.99996114,-0.002653975,-0.0021690172,0.0081217205,-0.35588327,-0.0100231925,0.0021978046,0.9344742,1
1406390222,-0.018892745,-0.1119151,0.02122739,-0.99996126,-0.0026683176,-0.001945215,0.00817249,-0.35588327,-0.0100231925,0.0021978046,0.9344742,1
1406422254,0.0460174,0.19594713,-0.0038663594,-0.99995786,-0.003151248,-0.0022168525,0.008332062,-0.35588327,-0.0100231925,0.0021978046,0.9344742,1
1406486388,0.017889105,-0.021397294,-0.0066386764,-0.99995446,-0.0036166192,-0.0018829533,0.008633756,-0.35588327,-0.0100231925,0.0021978046,0.9344742,1
1406515165,0.0006668491,0.0010311704,-0.024240177,-0.9999536,-0.0037490816,-0.0016633098,0.008719962,-0.35588327,-0.0100231925,0.0021978046,0.9344742,1
1406547336,-0.026224762,-0.083922654,0.03306187,-0.9999534,-0.003831811,-0.0015024416,0.008744172,-0.35588327,-0.0100231925,0.0021978046,0.9344742,1
1406579236,0.013740475,0.10279748,-0.005498972,-0.99995214,-0.003866083,-0.0015239404,0.008862478,-0.35588327,-0.0100231925,0.0021978046,0.9344742,1
1406611021,-0.009638324,-0.11864053,-0.032097008,-0.9999529,-0.0036104182,-0.0010950732,0.008949346,-0.35588327,-0.0100231925,0.0021978046,0.9344742,1
1406675036,0.0011801238,0.03491086,0.011351637,-0.99995667,-0.002952733,-0.0003492342,0.008829891,-0.35588327,-0.0100231925,0.0021978046,0.9344742,1
1406707231,0.020124359,-0.053578928,-0.0034738053,-0.99995565,-0.0033939888,0.000119312965,0.00878864,-0.35588327,-0.0100231925,0.0021978046,0.9344742,1
1406735227,0.0055124057,-0.0014206339,-0.001850844,-0.99995446,-0.0037668522,0.00030749294,0.008766962,-0.35588327,-0.0100231925,0.0021978046,0.9344742,1
1406767177,0.0361826,-0.0051105814,-0.023379153,-0.999952,-0.004226547,0.0004896767,0.008830988,-0.35588327,-0.0100231925,0.0021978046,0.9344742,1
1406799229,0.011097505,-0.07703135,-0.010864406,-0.99995,-0.0044361274,0.0010107842,0.008918214,-0.35588327,-0.0100231925,0.0021978046,0.9344742,1
1406831071,0.018172313,0.09763023,-0.00013809235,-0.9999487,-0.0046436135,0.0010508103,0.008941182,-0.35588327,-0.0100231925,0.0021978046,0.9344742,1
1406863177,-0.028646532,-0.16017665,0.009215585,-0.99994636,-0.0048166923,0.0015125445,0.009043369,-0.35588327,-0.0100231925,0.0021978046,0.9344742,1
1406895179,0.040775444,0.050741035,0.0026068345,-0.99994445,-0.0049731308,0.0016385699,0.009155715,-0.35588327,-0.0100231925,0.0021978046,0.9344742,1
1406927079,0.010369677,0.0061678337,-0.029147055,-0.9999425,-0.0050037745,0.0017693648,0.009320649,-0.35588327,-0.0100231925,0.0021978046,0.9344742,1
1406959245,0.019221112,0.018394345,-0.046817783,-0.99994016,-0.0051380475,0.00150921,0.009540866,-0.35588327,-0.0100231925,0.0021978046,0.9344742,1
1406987254,0.04345098,0.07096614,-0.030810427,-0.999938,-0.0053835823,0.0013859287,0.009652765,-0.35588327,-0.0100231925,0.0021978046,0.9344742,1
1407020010,-0.01580897,-0.12454606,0.011194443,-0.9999355,-0.005607276,0.0014356978,0.009770346,-0.35588327,-0.0100231925,0.0021978046,0.9344742,1
1407084024,0.02226416,0.05925054,-0.010742011,-0.999935,-0.005537176,0.0010726494,0.009919378,-0.35588327,-0.0100231925,0.0021978046,0.9344742,1
1407116095,-0.028662913,-0.06944767,-0.009238748,-0.99993634,-0.005354752,0.0011088556,0.009874692,-0.35588327,-0.0100231925,0.0021978046,0.9344742,1
1407147983,0.004926498,0.043845806,0.039650664,-0.99993837,-0.005260944,0.000702427,0.009762003,-0.35588327,-0.0100231925,0.0021978046,0.9344742,1
1407179856,0.0043460256,-0.012662778,0.03662302,-0.9999373,-0.0057113757,0.00050636544,0.009620478,-0.35588327,-0.0100231925,0.0021978046,0.9344742,1
1407207979,-0.024820669,0.015180454,0.029498603,-0.99993646,-0.0058739563,7.39054e-05,0.00962013,-0.35588327,-0.0100231925,0.0021978046,0.9344742,1
1407240006,0.009607933,0.13926433,0.0053384593,-0.99993736,-0.0058615487,-0.00049520424,0.009528623,-0.35588327,-0.0100231925,0.0021978046,0.9344742,1
1407271991,-0.0025890516,-0.15726066,0.00065632723,-0.9999385,-0.0057873717,-0.0005021621,0.009457821,-0.35588327,-0.0100231925,0.0021978046,0.9344742,1
1407303826,-0.005618852,0.08247766,0.009122561,-0.99993986,-0.0057699443,-0.00078498316,0.009298067,-0.35588327,-0.0100231925,0.0021978046,0.9344742,1
1407336052,-0.034898233,-0.047521554,0.026449708,-0.99994206,-0.005640549,-0.0006155611,0.009144828,-0.35588327,-0.0100231925,0.0021978046,0.9344742,1
1407367968,-0.010676174,0.019333677,-0.027888272,-0.9999447,-0.0053483043,-0.00040815238,0.009053789,-0.35588327,-0.0100231925,0.0021978046,0.9344742,1
1407399979,-0.0036954777,0.0075126467,0.0069067674,-0.99994755,-0.00514825,-0.0006116004,0.008834018,-0.35588327,-0.0100231925,0.0021978046,0.9344742,1
1407428814,0.0047233314,-0.03928058,-0.0071493816,-0.9999486,-0.005136183,-0.0007296769,0.008715271,-0.35588327,-0.0100231925,0.0021978046,0.9344742,1
1407460775,-0.016091619,0.07094205,-0.017714938,-0.9999499,-0.0050923033,-0.0007343006,0.008600122,-0.35588327,-0.0100231925,0.0021978046,0.9344742,1
1407492810,0.017371206,0.07350929,0.02329593,-0.9999507,-0.005079938,-0.00079752447,0.00850455,-0.35588327,-0.0100231925,0.0021978046,0.9344742,1
1407524656,-0.05558028,-0.10597828,0.019978523,-0.99995303,-0.004796953,-0.00048735805,0.008406264,-0.35588327,-0.0100231925,0.0021978046,0.9344742,1
1407556622,-0.0051546916,0.06181384,0.009938894,-0.9999547,-0.004489157,-0.00044107685,0.008390632,-0.35588327,-0.0100231925,0.0021978046,0.9344742,1
1407588809,0.00957294,-0.052466862,-0.017622966,-0.99995387,-0.004480463,4.1526135e-05,0.008499292,-0.35588327,-0.0100231925,0.0021978046,0.9344742,1
1407620829,-0.024510771,0.009238126,0.0018932546,-0.9999533,-0.004474447,0.00018864655,0.008560315,-0.35588327,-0.0100231925,0.0021978046,0.9344742,1
1407648827,-0.0051021306,0.027155437,-0.0005411855,-0.99995434,-0.0042129946,0.0002295448,0.008578617,-0.35588327,-0.0100231925,0.0021978046,0.9344742,1
1407680769,-0.013582888,-0.13794863,0.022174934,-0.99995345,-0.0043221517,0.00033211886,0.008626461,-0.35588327,-0.0100231925,0.0021978046,0.9344742,1
1407712617,0.0059243822,0.0995037,-0.006435971,-0.99995255,-0.0044231648,0.0002118893,0.008676066,-0.35588327,-0.0100231925,0.0021978046,0.9344742,1
1407744839,-0.022115441,0.005828306,-0.028545195,-0.99995387,-0.004034225,0.00029896424,0.008720116,-0.35588327,-0.0100231925,0.0021978046,0.9344742,1
1407776777,-0.0037267574,-0.07400534,-0.0073581324,-0.9999555,-0.0038526661,0.00049903675,0.0086058555,-0.35588327,-0.0100231925,0.0021978046,0.9344742,1
1407808789,-0.02053646,0.060871758,0.027926477,-0.9999564,-0.0038222831,0.00028499038,0.008520862,-0.35588327,-0.0100231925,0.0021978046,0.9344742,1
1407840821,0.010316887,0.010610992,-0.0022824921,-0.99995726,-0.0037779494,0.00022236966,0.00844514,-0.35588327,-0.0100231925,0.0021978046,0.9344742,1
1407872826,0.025411174,0.024358204,-0.015617938,-0.9999569,-0.003933358,0.00027346268,0.008416477,-0.35588327,-0.0100231925,0.0021978046,0.9344742,1
1407901616,0.0062063383,0.032047812,-0.025380181,-0.9999576,-0.0037167917,0.00039923543,0.008419728,-0.35588327,-0.0100231925,0.0021978046,0.9344742,1
1407933584,-0.034508966,-0.20306095,0.027317967,-0.99995965,-0.0034664988,0.0008719304,0.008248187,-0.35588327,-0.0100231925,0.0021978046,0.9344742,1
1407965458,-0.18623179,0.0781145,0.028368331,-0.999965,-0.0017850724,0.00096507446,0.00812043,-0.35588327,-0.0100231925,0.0021978046,0.9344742,1
1407997624,-0.08458443,-0.14379524,-0.007859848,-0.9999642,0.00068410387,0.0022594805,0.008136697,-0.35588327,-0.0100231925,0.0021978046,0.9344742,1
1408029522,0.019217327,-0.061023083,-0.042966153,-0.9999605,0.0010029798,0.0033435356,0.008173864,-0.35588327,-0.0100231925,0.0021978046,0.9344742,1
1408061589,-0.0180136,-0.020169217,0.00041843732,-0.999958,0.0010249681,0.003921681,0.008222243,-0.35588327,-0.0100231925,0.0021978046,0.9344742,1
1408093653,-0.053709306,0.060901187,-0.011797856,-0.99995667,0.0015370137,0.0038473662,0.008340331,-0.35588327,-0.0100231925,0.0021978046,0.9344742,1
1408121617,-0.0028247372,0.049584795,-0.005674021,-0.9999559,0.0016585437,0.003823207,0.008425304,-0.35588327,-0.0100231925,0.0021978046,0.9344742,1
1408153706,0.016870657,0.03397402,-0.0118445335,-0.999955,0.0014134636,0.0038419273,0.008559024,-0.35588327,-0.0100231925,0.0021978046,0.9344742,1
1408185586,0.024742818,-0.13317129,-0.01382043,-0.9999523,0.0012154421,0.00424409,0.008719343,-0.35588327,-0.0100231925,0.0021978046,0.9344742,1
1408217433,0.047259092,0.08822923,-0.01901991,-0.9999504,0.0007279638,0.0043212683,0.008952686,-0.35588327,-0.0100231925,0.0021978046,0.9344742,1
1408249451,0.0057483604,-0.08240546,0.007893113,-0.9999479,0.0003975587,0.0045846226,0.009114079,-0.35588327,-0.0100231925,0.0021978046,0.9344742,1
1408310380,0.013223939,0.025086658,0.004803066,-0.9999446,0.00030429277,0.004211687,0.009635891,-0.35588327,-0.0100231925,0.0021978046,0.9344742,1
1408342387,-0.012119454,-0.0706338,-0.0042675883,-0.9999419,0.00022856706,0.004270466,0.009895417,-0.35588327,-0.0100231925,0.0021978046,0.9344742,1
1408374387,0.016862983,0.11560404,-0.031307295,-0.99994016,0.00030675088,0.003943207,0.010198957,-0.35588327,-0.0100231925,0.0021978046,0.9344742,1
1408406248,-0.006407816,-0.12138687,-0.016959364,-0.99993813,0.0003447001,0.004005207,0.010381661,-0.35588327,-0.0100231925,0.0021978046,0.9344742,1
1408438439,-0.016645337,0.050833985,-0.0063608494,-0.9999368,0.00043536501,0.0038345293,0.01055726,-0.35588327,-0.0100231925,0.0021978046,0.9344742,1
1408470385,0.046632238,0.0681875,-0.01457321,-0.9999362,0.00033392996,0.0036793537,0.010676621,-0.35588327,-0.0100231925,0.0021978046,0.9344742,1
1408502418,0.076660186,0.0015149605,-0.041855864,-0.9999352,-0.0007712441,0.003555472,0.010788327,-0.35588327,-0.0100231925,0.0021978046,0.9344742,1
1408534455,0.05658193,-0.03497304,0.032092087,-0.99993396,-0.0019513811,0.003428662,0.010797308,-0.35588327,-0.0100231925,0.0021978046,0.9344742,1
1408566391,-0.05140389,-0.058331057,0.020328827,-0.9999327,-0.0019018303,0.00359589,0.010872166,-0.35588327,-0.0100231925,0.0021978046,0.9344742,1
1408598432,-0.031550024,0.11196696,-9.022537e-06,-0.9999332,-0.001324019,0.0033415873,0.010994838,-0.35588327,-0.0100231925,0.0021978046,0.9344742,1
1408630433,-0.07434542,-0.17596182,-0.018316256,-0.999932,-0.0001565113,0.0034323602,0.011150607,-0.35588327,-0.0100231925,0.0021978046,0.9344742,1
1408662397,-0.14071457,0.048748463,0.010581369,-0.9999303,0.001561778,0.0031684681,0.011269209,-0.35588327,-0.0100231925,0.0021978046,0.9344742,1
1408694421,-0.14441833,-0.0020552739,0.004089416,-0.99992335,0.003792224,0.0032567328,0.011336718,-0.35588327,-0.0100231925,0.0021978046,0.9344742,1
1408726434,-0.12725511,0.015971923,-0.033847235,-0.99991286,0.0059297783,0.003197298,0.01135022,-0.35588327,-0.0100231925,0.0021978046,0.9344742,1
1408755036,-0.061836142,0.085038565,-0.022253027,-0.99990445,0.0074084196,0.0030710232,0.011267547,-0.35588327,-0.0100231925,0.0021978046,0.9344742,1
1408787273,-0.061529115,-0.045954756,-0.0049754893,-0.9998972,0.008485321,0.0030333563,0.01115914,-0.35588327,-0.0100231925,0.0021978046,0.9344742,1
1408819184,-0.054255646,0.08532148,0.000841168,-0.9998907,0.00947693,0.0028510997,0.010983631,-0.35588327,-0.0100231925,0.0021978046,0.9344742,1
1408851223,-0.0007974502,0.029694356,0.02686297,-0.99988776,0.009963341,0.003015204,0.010777842,-0.35588327,-0.0100231925,0.0021978046,0.9344742,1
1408883192,-0.018803341,-0.08467217,0.011799345,-0.9998879,0.010015227,0.0034371873,0.01059096,-0.35588327,-0.0100231925,0.0021978046,0.9344742,1
1408915183,-0.0024093515,0.06617244,0.020216733,-0.9998885,0.010133517,0.0034157808,0.0104319155,-0.35588327,-0.0100231925,0.0021978046,0.9344742,1
1408947305,0.012648221,-0.07060042,0.010263334,-0.9998899,0.010163724,0.0037062324,0.010165333,-0.35588327,-0.0100231925,0.0021978046,0.9344742,1
1408979178,0.036153063,0.042524118,0.01546044,-0.9998977,0.009568513,0.0036154652,0.009997314,-0.35588327,-0.0100231925,0.0021978046,0.9344742,1
1409011183,0.028244372,-0.07009597,0.0038006334,-0.99990475,0.008973123,0.0037462667,0.00979938,-0.35588327,-0.0100231925,0.0021978046,0.9344742,1
1409043071,0.06477398,0.12382112,-0.01634542,-0.99991083,0.008466105,0.003555031,0.009699994,-0.35588327,-0.0100231925,0.0021978046,0.9344742,1
1409075336,0.04617938,-0.0045100646,0.0009341276,-0.999918,0.0077322996,0.0036426387,0.009534905,-0.35588327,-0.0100231925,0.0021978046,0.9344742,1
1409107490,0.011183822,-0.047115736,0.014388368,-0.99992245,0.0072928765,0.0037275204,0.009384216,-0.35588327,-0.0100231925,0.0021978046,0.9344742,1
1409139273,0.051021844,0.07241354,0.022494264,-0.99992985,0.0065269507,0.0034521664,0.009262888,-0.35588327,-0.0100231925,0.0021978046,0.9344742,1
1409171020,0.055006154,0.015975684,-0.0041328436,-0.99993604,0.005765602,0.0030757785,0.0092274295,-0.35588327,-0.0100231925,0.0021978046,0.9344742,1
1409203190,0.033988472,0.03584206,-0.012629728,-0.9999403,0.0052774157,0.0025885694,0.009218155,-0.35588327,-0.0100231925,0.0021978046,0.9344742,1
1409235840,0.023852088,-0.0643188,0.009946336,-0.99994445,0.0046480955,0.0024488869,0.0091494145,-0.35588327,-0.0100231925,0.0021978046,0.9344742,1
1409268183,0.10699109,0.20922382,-0.026596388,-0.9999486,0.003614317,0.0020220228,0.00925613,-0.35588327,-0.0100231925,0.0021978046,0.9344742,1
1409300041,0.033220068,-0.11648485,-0.034979,-0.9999498,0.0029301094,0.0023316187,0.009300962,-0.35588327,-0.0100231925,0.0021978046,0.9344742,1
1409332022,0.041197862,-0.023223005,0.008555361,-0.9999502,0.0022187226,0.0024283836,0.0094228685,-0.35588327,-0.0100231925,0.0021978046,0.9344742,1
1409363989,0.02379936,0.03560398,0.0014776753,-0.9999484,0.0015837437,0.0023360024,0.009760245,-0.35588327,-0.0100231925,0.0021978046,0.9344742,1
1409392012,0.011736492,0.03827413,0.004357083,-0.9999448,0.001289307,0.002348366,0.01015502,-0.35588327,-0.0100231925,0.0021978046,0.9344742,1
1409423809,0.010091332,0.00973394,-0.033683456,-0.99993914,0.000917575,0.0024755676,0.01071983,-0.35588327,-0.0100231925,0.0021978046,0.9344742,1
1409456183,0.034304023,0.013528039,-0.058115143,-0.99993134,0.00053584744,0.0025729507,0.011419487,-0.35588327,-0.0100231925,0.0021978046,0.9344742,1
1409488018,-0.029818121,-0.13541825,-0.02672829,-0.999923,0.0005179804,0.0029531778,0.012047522,-0.35588327,-0.0100231925,0.0021978046,0.9344742,1
1409519839,0.0572503,0.186282,-0.019129775,-0.9999182,0.00019322695,0.0019038606,0.01264771,-0.35588327,-0.0100231925,0.0021978046,0.9344742,1
1409551815,0.0035632462,0.0114068445,-0.0501222,-0.99990994,-0.00046636467,0.00022423886,0.01340861,-0.35588327,-0.0100231925,0.0021978046,0.9344742,1
1409584086,-0.039616868,0.08552305,-0.053706635,-0.99989814,-0.00016215435,-0.0006754044,0.014261676,-0.35588327,-0.0100231925,0.0021978046,0.9344742,1
1409616015,-0.027578026,-0.037332512,-0.08221822,-0.99988467,0.00053039246,-0.00026045894,0.015179821,-0.35588327,-0.0100231925,0.0021978046,0.9344742,1
1409644014,0.009418157,-0.03724558,-0.048229013,-0.9998725,0.000743928,0.00015357585,0.015951099,-0.35588327,-0.0100231925,0.0021978046,0.9344742,1
1409676815,0.010240389,0.016538147,-0.08732919,-0.9998566,0.0007722999,0.00030024748,0.016915074,-0.35588327,-0.0100231925,0.0021978046,0.9344742,1
1409708800,-0.045926377,-0.10722563,-0.027025217,-0.9998429,0.00085877883,0.00037863772,0.017705346,-0.35588327,-0.0100231925,0.0021978046,0.9344742,1
1409740678,-0.010804766,0.22278714,-0.050046623,-0.9998271,0.0010542515,-9.366838e-05,0.018565875,-0.35588327,-0.0100231925,0.0021978046,0.9344742,1
1409772775,-0.019621957,-0.10322227,-0.06452489,-0.99981284,0.0014615941,0.0003008764,0.019292338,-0.35588327,-0.0100231925,0.0021978046,0.9344742,1
1409804832,0.020532046,0.10179631,-0.06451166,-0.9997974,0.0016608977,0.00022402129,0.020062048,-0.35588327,-0.0100231925,0.0021978046,0.9344742,1
1409832795,0.016024124,0.105409235,-0.042164452,-0.999786,0.0017735641,0.00023677597,0.020608613,-0.35588327,-0.0100231925,0.0021978046,0.9344742,1
1409864813,-0.011995041,0.017724602,-0.05659925,-0.9997732,0.0019574272,9.504777e-05,0.021208657,-0.35588327,-0.0100231925,0.0021978046,0.9344742,1
1409896809,0.0032583417,0.028646288,-0.046754975,-0.9997628,0.0019282269,-0.0003942495,0.021692643,-0.35588327,-0.0100231925,0.0021978046,0.9344742,1
1409928790,-0.02416425,-0.061635233,-0.006600687,-0.99975306,0.0019041399,-0.0006236389,0.022131853,-0.35588327,-0.0100231925,0.0021978046,0.9344742,1
1409960820,0.02205332,0.2477931,-0.01940231,-0.9997425,0.0018460768,-0.0011772738,0.022591198,-0.35588327,-0.0100231925,0.0021978046,0.9344742,1
1409992901,-0.024738632,-0.10784854,-0.035679907,-0.9997331,0.0021697383,-0.0010950859,0.022975959,-0.35588327,-0.0100231925,0.0021978046,0.9344742,1
1410024836,0.019562436,0.13877173,-0.035666324,-0.99972177,0.0023978713,-0.0016362907,0.023413206,-0.35588327,-0.0100231925,0.0021978046,0.9344742,1
1410056637,0.011416157,-0.08654599,-0.038624994,-0.9997125,0.0021610851,-0.0017956615,0.023815198,-0.35588327,-0.0100231925,0.0021978046,0.9344742,1
1410084829,-0.016505454,-0.007791566,-0.05007165,-0.999704,0.0021307475,-0.001692844,0.02418101,-0.35588327,-0.0100231925,0.0021978046,0.9344742,1
1410117596,0.00789215,-0.09327929,-0.009153484,-0.99969417,0.00220475,-0.00095912296,0.024613343,-0.35588327,-0.0100231925,0.0021978046,0.9344742,1
1410149624,-0.044050824,-0.018339528,-0.0071424507,-0.999684,0.0022759833,-0.00024025707,0.025036426,-0.35588327,-0.0100231925,0.0021978046,0.9344742,1
1410181460,0.040469907,0.09638057,-0.02731714,-0.9996739,0.0023577888,9.841315e-05,0.02542958,-0.35588327,-0.0100231925,0.0021978046,0.9344742,1
1410213591,0.020124545,-0.09256589,-0.025219131,-0.9996672,0.0022618324,0.00053006,0.025692355,-0.35588327,-0.0100231925,0.0021978046,0.9344742,1
1410245630,0.007377125,0.053424485,-0.03911955,-0.9996578,0.002169313,0.0007613449,0.026057655,-0.35588327,-0.0100231925,0.0021978046,0.9344742,1
1410277611,-0.019970747,-0.14926587,-0.037982784,-0.99964756,0.0023947936,0.0014439173,0.026401514,-0.35588327,-0.0100231925,0.0021978046,0.9344742,1
1410305633,0.0030515424,-0.022515588,-0.05994439,-0.9996398,0.0024104738,0.00169575,0.026675697,-0.35588327,-0.0100231925,0.0021978046,0.9344742,1
1410337468,-0.10169842,0.1412045,-0.017787866,-0.9996323,0.0028970838,0.0014827608,0.02692251,-0.35588327,-0.0100231925,0.0021978046,0.9344742,1
1410369636,0.0035774396,0.1923853,-0.004460359,-0.99961644,0.0046411715,-0.0026611153,0.02717531,-0.35588327,-0.0100231925,0.0021978046,0.9344742,1
1410401618,0.06558274,0.1900278,-0.010298634,-0.9996053,0.003349365,-0.0056323223,0.027319508,-0.35588327,-0.0100231925,0.0021978046,0.9344742,1
1410433586,-0.06971731,-0.042803284,0.014789291,-0.99959433,0.003594361,-0.006746058,0.02743662,-0.35588327,-0.0100231925,0.0021978046,0.9344742,1
1410465575,0.018006366,0.08700005,0.0059810397,-0.99959356,0.0041617677,-0.0066599436,0.02740565,-0.35588327,-0.0100231925,0.0021978046,0.9344742,1
1410493579,0.016994461,0.05159171,-0.0026265716,-0.99959725,0.004131923,-0.0056755864,0.027498139,-0.35588327,-0.0100231925,0.0021978046,0.9344742,1
1410526409,0.010668546,0.009543346,-0.027165875,-0.9995996,0.00420546,-0.0051686126,0.027501913,-0.35588327,-0.0100231925,0.0021978046,0.9344742,1
1410558255,-0.008129562,-0.4213434,0.0015057698,-0.9996165,0.0039844783,-0.0027274739,0.027269633,-0.35588327,-0.0100231925,0.0021978046,0.9344742,1
1410590400,-0.002469382,-0.15680517,0.025434628,-0.99962306,0.004088336,0.0023795702,0.027045295,-0.35588327,-0.0100231925,0.0021978046,0.9344742,1
1410622458,0.001556355,-0.24367146,0.05855357,-0.9996232,0.0039597712,0.0054081855,0.026620427,-0.35588327,-0.0100231925,0.0021978046,0.9344742,1
1410654418,-0.0033201678,0.19353655,0.041074585,-0.99963206,0.0040350663,0.005633596,0.026225297,-0.35588327,-0.0100231925,0.0021978046,0.9344742,1
1410686381,0.0725704,-0.03525212,0.02511457,-0.99964803,0.0035460128,0.005480929,0.025715133,-0.35588327,-0.0100231925,0.0021978046,0.9344742,1
1410718445,-0.008734831,0.05224561,0.035875723,-0.9996673,0.003367371,0.004480914,0.0251766,-0.35588327,-0.0100231925,0.0021978046,0.9344742,1
1410746232,0.063534506,0.14455542,0.02787489,-0.9996845,0.003353154,0.00363281,0.024625082,-0.35588327,-0.0100231925,0.0021978046,0.9344742,1
1410778385,0.042564023,-0.026685886,0.028513104,-0.9997016,0.0026721624,0.0033642126,0.024047118,-0.35588327,-0.0100231925,0.0021978046,0.9344742,1
1410810433,0.024367195,0.063636765,0.02576293,-0.9997166,0.0020699354,0.0031067906,0.023515299,-0.35588327,-0.0100231925,0.0021978046,0.9344742,1
1410842386,-0.0359714,-0.17012022,0.07242524,-0.99973017,0.0017990242,0.0032508445,0.02293404,-0.35588327,-0.0100231925,0.0021978046,0.9344742,1
1410874248,0.080918476,0.1749383,0.040011384,-0.99974114,0.0013595782,0.002906008,0.022526693,-0.35588327,-0.0100231925,0.0021978046,0.9344742,1
1410906421,0.05263911,-0.12493466,-0.00243238,-0.9997446,0.00067357445,0.0034466507,0.02232763,-0.35588327,-0.0100231925,0.0021978046,0.9344742,1
1410935051,-0.0024264862,-0.028093562,-0.024079978,-0.99974686,0.00043340007,0.003571308,0.022212861,-0.35588327,-0.0100231925,0.0021978046,0.9344742,1
1410967223,-0.034981374,-0.031322066,0.017787509,-0.9997508,0.0010349631,0.0038477662,0.0219693,-0.35588327,-0.0100231925,0.0021978046,0.9344742,1
1410999180,0.018483123,0.0021909778,0.024316609,-0.9997546,0.0011562959,0.004086381,0.021744203,-0.35588327,-0.0100231925,0.0021978046,0.9344742,1
1411031178,0.03161273,-0.06682103,0.023285132,-0.9997579,0.0007074094,0.0040806304,0.021612737,-0.35588327,-0.0100231925,0.0021978046,0.9344742,1
1411063247,-0.051335152,0.034164872,0.013426174,-0.9997609,0.0005721993,0.0038451257,0.021521552,-0.35588327,-0.0100231925,0.0021978046,0.9344742,1
1411095234,0.034520574,-0.013114847,-0.007845871,-0.9997605,0.001055265,0.0037172823,0.021541217,-0.35588327,-0.0100231925,0.0021978046,0.9344742,1
1411127183,0.01467008,-0.02777414,-0.034333546,-0.9997598,0.0008251418,0.0034739317,0.021629393,-0.35588327,-0.0100231925,0.0021978046,0.9344742,1
1411159245,-0.013173594,-0.038220853,0.028553901,-0.9997624,0.00068364956,0.003306042,0.021537552,-0.35588327,-0.0100231925,0.0021978046,0.9344742,1
1411187205,0.16065605,0.058260757,0.019655168,-0.9997711,-0.0008556733,0.0018233329,0.02130314,-0.35588327,-0.0100231925,0.0021978046,0.9344742,1
1411219259,0.023302723,0.1709965,-0.004954575,-0.99977535,-0.0024754845,-0.0005535318,0.021045186,-0.35588327,-0.0100231925,0.0021978046,0.9344742,1
1411251069,-0.11468133,-0.20072602,0.018680133,-0.99977696,-0.0015126219,-0.0009090241,0.021048144,-0.35588327,-0.0100231925,0.0021978046,0.9344742,1
1411283205,0.0065902546,0.104839996,0.0011421668,-0.9997729,-0.0011021973,-0.0010371137,0.021257324,-0.35588327,-0.0100231925,0.0021978046,0.9344742,1
1411315295,0.020355143,-0.06573418,-0.029001804,-0.99976474,-0.0011045383,-0.00067395676,0.021653278,-0.35588327,-0.0100231925,0.0021978046,0.9344742,1
1411347180,0.019794025,-0.034482934,-0.021518404,-0.99975604,-0.0010562504,-0.0003952459,0.022057626,-0.35588327,-0.0100231925,0.0021978046,0.9344742,1
1411379182,0.0016580526,-0.14675114,-0.031209808,-0.9997471,-0.0012551028,0.00025093992,0.022452582,-0.35588327,-0.0100231925,0.0021978046,0.9344742,1
1411411226,0.01078835,-0.0007921407,-0.011982199,-0.9997368,-0.0015132339,0.0007968695,0.022878574,-0.35588327,-0.0100231925,0.0021978046,0.9344742,1
1411440011,-0.03321713,-0.19351757,-0.020244738,-0.9997264,-0.0012322657,0.0017937453,0.023289729,-0.35588327,-0.0100231925,0.0021978046,0.9344742,1
1411472006,-0.010725314,-0.016021792,0.0020514445,-0.99971426,-0.0007800288,0.0026703111,0.023743657,-0.35588327,-0.0100231925,0.0021978046,0.9344742,1
1411504013,0.012565844,-0.03459105,-0.013352357,-0.99970067,-0.0009095131,0.0034168449,0.024207368,-0.35588327,-0.0100231925,0.0021978046,0.9344742,1
1411535979,0.023408508,0.018003756,-0.0415388,-0.99968755,-0.00093182595,0.0037796786,0.024692683,-0.35588327,-0.0100231925,0.0021978046,0.9344742,1
1411568006,-0.0141619155,-0.09339288,-0.027352242,-0.99967486,-0.00074750016,0.0041686716,0.025143648,-0.35588327,-0.0100231925,0.0021978046,0.9344742,1
1411600026,0.009634415,0.03996233,-0.048758004,-0.9996615,-0.000661165,0.004287605,0.025654996,-0.35588327,-0.0100231925,0.0021978046,0.9344742,1
1411631976,-0.03293668,-0.22550026,-0.015492765,-0.9996478,-0.00060526904,0.0047140657,0.026111163,-0.35588327,-0.0100231925,0.0021978046,0.9344742,1
1411660032,-0.012732795,-0.21786584,-0.03658479,-0.99963623,-0.0007077945,0.0047366703,0.026543476,-0.35588327,-0.0100231925,0.0021978046,0.9344742,1
1411691979,-0.004774061,0.09909786,-0.025547883,-0.9996263,-0.00067168,0.0043029464,0.026989765,-0.35588327,-0.0100231925,0.0021978046,0.9344742,1
1411724047,-0.037982073,-0.12410695,-0.040829282,-0.99961317,-0.00059769524,0.004141694,0.027495751,-0.35588327,-0.0100231925,0.0021978046,0.9344742,1
1411755817,-0.0024398689,0.01467319,0.009152082,-0.9996013,-0.00074020535,0.003712791,0.027983699,-0.35588327,-0.0100231925,0.0021978046,0.9344742,1
1411787991,-0.021957612,0.03569927,-0.022491831,-0.99958754,-0.00077698985,0.0035166796,0.028495928,-0.35588327,-0.0100231925,0.0021978046,0.9344742,1
1411820049,-0.034996144,-0.025624162,-0.017961673,-0.99957496,-0.00039808845,0.0034048348,0.028952947,-0.35588327,-0.0100231925,0.0021978046,0.9344742,1
1411852305,-0.0063729887,0.087622076,-0.026075311,-0.999563,1.45321765e-05,0.0032779928,0.029382607,-0.35588327,-0.0100231925,0.0021978046,0.9344742,1
1411884623,-0.00035865133,-0.25925633,-0.03474535,-0.99954814,4.01283e-05,0.00353329,0.029852882,-0.35588327,-0.0100231925,0.0021978046,0.9344742,1
1411916853,0.028809112,-0.0729885,-0.019759111,-0.999529,-0.00050248654,0.0048784744,0.030294335,-0.35588327,-0.0100231925,0.0021978046,0.9344742,1
1411948789,-0.040689494,-0.14845374,-0.0021401136,-0.9995092,-0.0003696801,0.0060615186,0.030735511,-0.35588327,-0.0100231925,0.0021978046,0.9344742,1
1411980629,-0.059156317,0.002857566,0.014317318,-0.99949956,0.0003536733,0.005926916,0.031073743,-0.35588327,-0.0100231925,0.0021978046,0.9344742,1
1412012810,-0.047377266,0.022176543,-0.0042372746,-0.99949163,0.0009455757,0.0053539695,0.0314171,-0.35588327,-0.0100231925,0.0021978046,0.9344742,1
1412044836,0.022439735,0.03906612,-0.013946524,-0.9994836,0.001076381,0.004844481,0.031748954,-0.35588327,-0.0100231925,0.0021978046,0.9344742,1
1412072794,-0.03373706,0.0104528535,-0.014247148,-0.9994735,0.0014401372,0.0046778847,0.032075197,-0.35588327,-0.0100231925,0.0021978046,0.9344742,1
1412104817,-0.051769324,0.16327025,-0.01744796,-0.99946326,0.0019527077,0.0042027836,0.032432232,-0.35588327,-0.0100231925,0.0021978046,0.9344742,1
1412136774,-0.014779634,-0.014267387,-0.042090457,-0.9994527,0.0024872092,0.00424646,0.03271054,-0.35588327,-0.0100231925,0.0021978046,0.9344742,1
1412168642,-0.015946638,0.112178095,-0.02866935,-0.99944067,0.0032290479,0.0040376266,0.03304027,-0.35588327,-0.0100231925,0.0021978046,0.9344742,1
1412200899,0.002024076,-0.029981168,-0.022172581,-0.99943244,0.0035031207,0.0038210622,0.033287212,-0.35588327,-0.0100231925,0.0021978046,0.9344742,1
1412232772,0.050016765,0.048304975,-0.02214487,-0.99942666,0.003053164,0.003554498,0.033530958,-0.35588327,-0.0100231925,0.0021978046,0.9344742,1
1412264848,-0.034191124,-0.03804727,-0.01716182,-0.9994199,0.0029461104,0.0034003085,0.033755943,-0.35588327,-0.0100231925,0.0021978046,0.9344742,1
1412296784,0.0125978105,0.04862465,-0.014880673,-0.9994155,0.0030179424,0.0030990185,0.03390981,-0.35588327,-0.0100231925,0.0021978046,0.9344742,1
1412325663,-0.039299406,-0.21230194,-0.006279782,-0.99941,0.0031658693,0.0031874897,0.034051996,-0.35588327,-0.0100231925,0.0021978046,0.9344742,1
1412357417,-0.02652747,0.07582251,0.0079953475,-0.9994074,0.00329011,0.0031531963,0.034120206,-0.35588327,-0.0100231925,0.0021978046,0.9344742,1
1412389425,-0.0073801046,-0.1397126,0.00691919,-0.9994051,0.003255706,0.0034587951,0.03416145,-0.35588327,-0.0100231925,0.0021978046,0.9344742,1
1412421669,-0.02277574,0.05557779,0.028711382,-0.99940515,0.0033920892,0.003289647,0.034161817,-0.35588327,-0.0100231925,0.0021978046,0.9344742,1
1412453418,-0.009058775,-0.031970754,0.0003480922,-0.99940485,0.0033414157,0.0033930745,0.034166638,-0.35588327,-0.0100231925,0.0021978046,0.9344742,1
1412485587,-0.025294438,-0.049953517,0.020491885,-0.9994074,0.0035850499,0.003534514,0.0340527,-0.35588327,-0.0100231925,0.0021978046,0.9344742,1
1412549654,-0.018095935,-0.18822603,0.014137723,-0.99941665,0.0036241708,0.0035049736,0.03377809,-0.35588327,-0.0100231925,0.0021978046,0.9344742,1
1412581433,0.002461001,0.10977058,0.01990569,-0.99942404,0.0037750988,0.0033089994,0.03356406,-0.35588327,-0.0100231925,0.0021978046,0.9344742,1
1412613717,-0.047447763,-0.22299439,0.02231141,-0.99943054,0.003998851,0.0036620204,0.03330793,-0.35588327,-0.0100231925,0.0021978046,0.9344742,1
1412645600,-0.011005456,0.071733,0.053550012,-0.999442,0.0041788123,0.0034183946,0.03296441,-0.35588327,-0.0100231925,0.0021978046,0.9344742,1
1412677599,0.015981318,-0.044530436,0.039732203,-0.9994531,0.003933909,0.0032364028,0.03267176,-0.35588327,-0.0100231925,0.0021978046,0.9344742,1
1412709670,-0.008598708,-0.009347317,0.055390056,-0.9994653,0.0034314129,0.002878604,0.032389555,-0.35588327,-0.0100231925,0.0021978046,0.9344742,1
1412741609,-0.0064511355,0.06977335,0.010651327,-0.9994749,0.0034615726,0.0025410182,0.032118242,-0.35588327,-0.0100231925,0.0021978046,0.9344742,1
1412774424,-0.012797853,-0.22386837,0.02682777,-0.9994849,0.0034925896,0.0027553376,0.031783916,-0.35588327,-0.0100231925,0.0021978046,0.9344742,1
1412806450,0.04328132,0.117476165,0.014417539,-0.99949455,0.003509642,0.0026569923,0.031487394,-0.35588327,-0.0100231925,0.0021978046,0.9344742,1
1412838228,-0.03890044,-0.27608588,0.032511078,-0.9995026,0.0034052865,0.003142922,0.031193927,-0.35588327,-0.0100231925,0.0021978046,0.9344742,1
1412870218,-0.020430548,0.07821581,0.05590499,-0.99951077,0.0035830357,0.002885792,0.030935856,-0.35588327,-0.0100231925,0.0021978046,0.9344742,1
1412902434,0.006875958,-0.057935383,0.029978529,-0.99952155,0.0035261046,0.0029053849,0.030589974,-0.35588327,-0.0100231925,0.0021978046,0.9344742,1
1412930418,0.0074714813,-0.014794914,-0.010991023,-0.99952996,0.0032290844,0.00262648,0.030374391,-0.35588327,-0.0100231925,0.0021978046,0.9344742,1
1412962432,-0.03907923,-0.018927572,0.060431022,-0.9995445,0.0031740416,0.0022703302,0.029929444,-0.35588327,-0.0100231925,0.0021978046,0.9344742,1
1412994383,0.026949506,0.18499519,0.018593656,-0.99955523,0.0032636095,0.0016747165,0.029597871,-0.35588327,-0.0100231925,0.0021978046,0.9344742,1
1413026394,0.009139349,-0.12225751,0.028069275,-0.99956363,0.0035322134,0.0018276714,0.02927262,-0.35588327,-0.0100231925,0.0021978046,0.9344742,1
1413058445,0.10394723,0.14524397,0.014113864,-0.999574,0.0025108892,0.0023933335,0.028979082,-0.35588327,-0.0100231925,0.0021978046,0.9344742,1
1413090379,-0.03412131,-0.15517025,0.0065759737,-0.9995789,0.0025253126,0.0036245056,0.02868321,-0.35588327,-0.0100231925,0.0021978046,0.9344742,1
1413122434,0.004535346,0.07775167,0.03523893,-0.9995914,0.0028678512,0.0034310925,0.028234221,-0.35588327,-0.0100231925,0.0021978046,0.9344742,1
1413154442,-0.011917209,-0.026322423,0.008823815,-0.9996037,0.0028263505,0.0034227893,0.02779931,-0.35588327,-0.0100231925,0.0021978046,0.9344742,1
1413187179,-0.044583227,-0.008405369,0.06939201,-0.99962115,0.0030855413,0.0031931116,0.027165001,-0.35588327,-0.0100231925,0.0021978046,0.9344742,1
1413219200,0.03774378,0.17946559,0.027985115,-0.99963564,0.0033434099,0.0026736737,0.026654107,-0.35588327,-0.0100231925,0.0021978046,0.9344742,1
1413251368,-0.016018415,-0.0976698,0.043418985,-0.99965346,0.0034158502,0.0027097145,0.025960954,-0.35588327,-0.0100231925,0.0021978046,0.9344742,1
1413283172,0.017107489,0.1536463,0.015426855,-0.99967057,0.003277707,0.002158297,0.025368204,-0.35588327,-0.0100231925,0.0021978046,0.9344742,1
1413315240,-0.040138595,-0.16005369,0.032398187,-0.99968535,0.0034063829,0.0022174243,0.024753084,-0.35588327,-0.0100231925,0.0021978046,0.9344742,1
1413347380,-0.00066944637,0.039295617,0.06189423,-0.99970204,0.0035265617,0.0018677452,0.024082558,-0.35588327,-0.0100231925,0.0021978046,0.9344742,1
1413379175,0.00071944704,0.00744529,0.046051078,-0.99971795,0.0034401158,0.0016734317,0.023438837,-0.35588327,-0.0100231925,0.0021978046,0.9344742,1
1413411200,-0.015794493,-0.030849665,0.06440617,-0.9997325,0.0033441219,0.0015666366,0.02283165,-0.35588327,-0.0100231925,0.0021978046,0.9344742,1
1413443225,0.068075314,0.12562484,0.007455224,-0.9997463,0.003095602,0.0014135154,0.022265162,-0.35588327,-0.0100231925,0.0021978046,0.9344742,1
1413475078,-0.058505062,-0.20816204,0.03798717,-0.9997585,0.0033747316,0.001926084,0.02163055,-0.35588327,-0.0100231925,0.0021978046,0.9344742,1
1413507339,0.036539763,0.096883625,0.035284106,-0.9997716,0.0031773383,0.001784817,0.021064319,-0.35588327,-0.0100231925,0.0021978046,0.9344742,1
1413567203,-0.06145655,-0.12263094,0.0027935728,-0.9997898,0.0028664183,0.0021275012,0.02019453,-0.35588327,-0.0100231925,0.0021978046,0.9344742,1
1413599039,-0.0030990725,0.035614476,0.042226918,-0.9997982,0.00342626,0.0020427853,0.019693026,-0.35588327,-0.0100231925,0.0021978046,0.9344742,1
1413631051,0.05236695,-0.015817333,0.023939345,-0.9998081,0.0027424358,0.0022342985,0.019270469,-0.35588327,-0.0100231925,0.0021978046,0.9344742,1
1413664044,0.12477522,-0.12571254,0.02023649,-0.99981165,0.0013825425,0.0031381587,0.019101124,-0.35588327,-0.0100231925,0.0021978046,0.9344742,1
1413695927,0.114415355,0.043440364,-0.01433703,-0.9998069,-0.00040718666,0.0053016115,0.018921081,-0.35588327,-0.0100231925,0.0021978046,0.9344742,1
1413727978,-0.10857483,-0.20600533,0.0005994029,-0.9998035,0.00018807441,0.006840055,0.018604295,-0.35588327,-0.0100231925,0.0021978046,0.9344742,1
1413760048,0.0024509437,0.10399771,0.016936062,-0.99980944,0.00060046074,0.0068593062,0.018267991,-0.35588327,-0.0100231925,0.0021978046,0.9344742,1
1413787993,0.036270972,0.20991206,0.015745522,-0.9998177,0.0005443674,0.0063880878,0.017981,-0.35588327,-0.0100231925,0.0021978046,0.9344742,1
1413819833,-0.02890539,-0.0973101,-0.011945894,-0.9998246,0.0010411456,0.0060612527,0.017695345,-0.35588327,-0.0100231925,0.0021978046,0.9344742,1
1413851927,-0.0054478063,0.105239935,0.026994677,-0.99983525,0.0009985791,0.0051954496,0.017362397,-0.35588327,-0.0100231925,0.0021978046,0.9344742,1
1413883810,-0.030807918,0.007119152,0.047860257,-0.99984425,0.0012190711,0.0045687025,0.017006611,-0.35588327,-0.0100231925,0.0021978046,0.9344742,1
1413916189,-0.07113574,0.086594164,0.04610035,-0.9998518,0.0022032657,0.003953143,0.0166099,-0.35588327,-0.0100231925,0.0021978046,0.9344742,1
1413948008,-0.073913634,0.03026281,0.03249209,-0.99985576,0.0034510016,0.003775704,0.016198201,-0.35588327,-0.0100231925,0.0021978046,0.9344742,1
1413980180,-0.040508814,0.07514877,0.00509758,-0.99985796,0.004454118,0.0035850347,0.015859468,-0.35588327,-0.0100231925,0.0021978046,0.9344742,1
1414012016,-0.112840675,-0.09439667,0.017337726,-0.9998534,0.0060894345,0.004057097,0.015482278,-0.35588327,-0.0100231925,0.0021978046,0.9344742,1
1414040014,-0.06985128,0.019146308,0.011390381,-0.9998526,0.007080504,0.0040675993,0.015107028,-0.35588327,-0.0100231925,0.0021978046,0.9344742,1
1414072169,-0.009362567,0.052953538,0.011393942,-0.9998562,0.007699792,0.0038164267,0.014624381,-0.35588327,-0.0100231925,0.0021978046,0.9344742,1
1414104644,-0.04712996,0.031749237,0.019765906,-0.99985623,0.008516382,0.004056345,0.014095633,-0.35588327,-0.0100231925,0.0021978046,0.9344742,1
1414136847,0.003769922,-0.0030064003,0.04963544,-0.99986243,0.008793384,0.0038338797,0.013535151,-0.35588327,-0.0100231925,0.0021978046,0.9344742,1
1414168775,0.049260713,0.103745,0.026330402,-0.99987507,0.008197459,0.0033555012,0.013099673,-0.35588327,-0.0100231925,0.0021978046,0.9344742,1
1414200822,-0.0050267857,0.022997946,0.034490824,-0.9998848,0.0078026275,0.0028998079,0.012702332,-0.35588327,-0.0100231925,0.0021978046,0.9344742,1
1414228717,-0.023612445,-0.06781425,0.04017281,-0.9998899,0.0077323406,0.002617958,0.012393584,-0.35588327,-0.0100231925,0.0021978046,0.9344742,1
1414260649,0.006987922,0.20917155,0.017426083,-0.999894,0.007817787,0.002176967,0.012093028,-0.35588327,-0.0100231925,0.0021978046,0.9344742,1
1414292771,0.043823425,-0.10810851,0.0061762626,-0.9998995,0.0076010483,0.0022835792,0.011747716,-0.35588327,-0.0100231925,0.0021978046,0.9344742,1
1414324771,0.06756017,0.18122649,0.013762967,-0.9999094,0.0069434876,0.0016821754,0.011418509,-0.35588327,-0.0100231925,0.0021978046,0.9344742,1
1414356814,-0.00881892,-0.10927667,-0.023898305,-0.9999108,0.0068377634,0.0019769305,0.011303047,-0.35588327,-0.0100231925,0.0021978046,0.9344742,1
1414388652,0.0015109947,0.045671757,0.029740743,-0.9999131,0.0068129427,0.0018175427,0.01113883,-0.35588327,-0.0100231925,0.0021978046,0.9344742,1
1414420815,0.010723069,0.00021103816,0.009626269,-0.99991447,0.0067593,0.0018481426,0.011042123,-0.35588327,-0.0100231925,0.0021978046,0.9344742,1
1414452655,0.014602871,0.07747,0.0063003344,-0.9999166,0.006646089,0.0016100863,0.010959722,-0.35588327,-0.0100231925,0.0021978046,0.9344742,1
1414480854,0.006972664,-0.019424964,0.01052737,-0.9999176,0.0065348214,0.001618972,0.010931642,-0.35588327,-0.0100231925,0.0021978046,0.9344742,1
1414512811,-0.009017156,0.009770141,0.002210147,-0.9999202,0.0061921277,0.0018228492,0.010865342,-0.35588327,-0.0100231925,0.0021978046,0.9344742,1
1414545580,0.029442327,-0.070370756,-0.0152129335,-0.9999208,0.0060218447,0.0020726498,0.010865071,-0.35588327,-0.0100231925,0.0021978046,0.9344742,1
1414609459,-0.008297345,-0.011505528,0.0015797992,-0.9999228,0.0060036164,0.0019777478,0.010699433,-0.35588327,-0.0100231925,0.0021978046,0.9344742,1
1414641580,-0.040207904,0.005343745,0.024045639,-0.9999227,0.0063718613,0.0018326882,0.010522026,-0.35588327,-0.0100231925,0.0021978046,0.9344742,1
1414673646,-0.007885862,0.04809266,0.029487481,-0.99992317,0.0065182,0.0018091758,0.0103949085,-0.35588327,-0.0100231925,0.0021978046,0.9344742,1
1414705656,0.03036045,0.07741566,-0.014441729,-0.9999265,0.0062430617,0.0018211335,0.010233637,-0.35588327,-0.0100231925,0.0021978046,0.9344742,1
1414737580,0.013042256,-0.014563105,0.02111106,-0.9999312,0.005990592,0.0016162471,0.009962961,-0.35588327,-0.0100231925,0.0021978046,0.9344742,1
1414769635,0.007868264,0.10729392,0.0006156789,-0.9999346,0.0059011406,0.0012942031,0.009719596,-0.35588327,-0.0100231925,0.0021978046,0.9344742,1
1414801650,-0.02496786,-0.2014504,0.00925855,-0.99993706,0.005864854,0.0015206946,0.00944576,-0.35588327,-0.0100231925,0.0021978046,0.9344742,1
1414833612,-0.0054917196,0.10045739,0.03882602,-0.99993986,0.005914805,0.0014753637,0.0091146,-0.35588327,-0.0100231925,0.0021978046,0.9344742,1
1414865702,0.012795334,-0.024265716,0.03366865,-0.99994147,0.0060502794,0.0013323541,0.008878579,-0.35588327,-0.0100231925,0.0021978046,0.9344742,1
1414897648,0.029674863,0.05159589,0.024395257,-0.99994695,0.0055336147,0.0010733767,0.0086243935,-0.35588327,-0.0100231925,0.0021978046,0.9344742,1
1414925647,-0.028500753,0.07225191,0.022301393,-0.9999479,0.005734487,0.0007420026,0.008420646,-0.35588327,-0.0100231925,0.0021978046,0.9344742,1
1414957631,-0.00653922,0.052248407,0.018117476,-0.99994934,0.0058535915,0.0005219062,0.008178147,-0.35588327,-0.0100231925,0.0021978046,0.9344742,1
1414990401,0.045229524,0.046932932,0.0018449012,-0.99995327,0.0055235038,0.00035506225,0.007923024,-0.35588327,-0.0100231925,0.0021978046,0.9344742,1
1415022394,-0.0409698,-0.122691974,0.03125716,-0.99995506,0.0056380234,0.00034951567,0.0076251533,-0.35588327,-0.0100231925,0.0021978046,0.9344742,1
1415054425,0.016030082,0.06643299,0.056680344,-0.99995756,0.005620263,-1.4303703e-05,0.0073088794,-0.35588327,-0.0100231925,0.0021978046,0.9344742,1
1415086404,-0.020400051,-0.17531729,0.052221835,-0.9999605,0.0055024386,0.0002421651,0.006978548,-0.35588327,-0.0100231925,0.0021978046,0.9344742,1
1415114279,-0.0071750986,-0.1869818,0.020476859,-0.9999621,0.0054148366,0.0004806905,0.0067988755,-0.35588327,-0.0100231925,0.0021978046,0.9344742,1
1415146417,0.01076699,0.100240685,0.042681582,-0.99996424,0.0052910126,0.0005957179,0.006569256,-0.35588327,-0.0100231925,0.0021978046,0.9344742,1
1415178268,0.026802918,-0.034171645,-0.00012176053,-0.9999674,0.00477786,0.001064584,0.006425258,-0.35588327,-0.0100231925,0.0021978046,0.9344742,1
1415210252,0.011508711,0.054256797,0.012697085,-0.9999685,0.0047201007,0.001036816,0.0062899934,-0.35588327,-0.0100231925,0.0021978046,0.9344742,1
1415242401,-0.004087692,-0.05442632,0.005239347,-0.99996936,0.0046800245,0.0011574884,0.0061756996,-0.35588327,-0.0100231925,0.0021978046,0.9344742,1
