timestamp,timestamp_last_signal,channel_count,rssi,rc_lost_frame_count,rc_total_frame_count,rc_ppm_frame_length,values[0],values[1],values[2],values[3],values[4],values[5],values[6],values[7],values[8],values[9],values[10],values[11],values[12],values[13],values[14],values[15],values[16],values[17],rc_failsafe,rc_lost,input_source
1402176136,1402176136,7,255,4,0,0,1502,1500,1490,1500,1904,1500,1096,0,0,0,0,0,0,0,0,0,0,0,0,0,12
1402375333,1402375333,7,255,4,0,0,1502,1500,1490,1500,1904,1500,1096,0,0,0,0,0,0,0,0,0,0,0,0,0,12
1402573255,1402573255,7,255,4,0,0,1502,1500,1490,1500,1904,1500,1096,0,0,0,0,0,0,0,0,0,0,0,0,0,12
1402769090,1402769090,7,255,4,0,0,1502,1500,1490,1500,1904,1500,1096,0,0,0,0,0,0,0,0,0,0,0,0,0,12
1402969310,1402969310,7,255,4,0,0,1502,1500,1490,1500,1904,1500,1096,0,0,0,0,0,0,0,0,0,0,0,0,0,12
1403386309,1403386309,7,255,4,0,0,1502,1500,1490,1500,1904,1500,1096,0,0,0,0,0,0,0,0,0,0,0,0,0,12
1403588160,1403588160,7,255,4,0,0,1502,1500,1490,1500,1904,1500,1096,0,0,0,0,0,0,0,0,0,0,0,0,0,12
1403784293,1403784293,7,255,4,0,0,1502,1500,1490,1500,1904,1500,1096,0,0,0,0,0,0,0,0,0,0,0,0,0,12
1403983841,1403983841,7,255,4,0,0,1502,1500,1490,1500,1904,1500,1096,0,0,0,0,0,0,0,0,0,0,0,0,0,12
1404200471,1404200471,7,255,4,0,0,1502,1500,1490,1499,1904,1500,1096,0,0,0,0,0,0,0,0,0,0,0,0,0,12
1404397264,1404397264,7,255,4,0,0,1502,1500,1490,1500,1904,1500,1096,0,0,0,0,0,0,0,0,0,0,0,0,0,12
1404596044,1404596044,7,255,4,0,0,1502,1500,1490,1500,1904,1500,1096,0,0,0,0,0,0,0,0,0,0,0,0,0,12
1404794260,1404794260,7,255,4,0,0,1502,1500,1490,1500,1904,1500,1096,0,0,0,0,0,0,0,0,0,0,0,0,0,12
1404994247,1404994247,7,255,4,0,0,1502,1500,1490,1500,1904,1500,1096,0,0,0,0,0,0,0,0,0,0,0,0,0,12
1405213371,1405213371,7,255,4,0,0,1502,1500,1490,1500,1904,1500,1096,0,0,0,0,0,0,0,0,0,0,0,0,0,12
1405410127,1405410127,7,255,4,0,0,1502,1500,1490,1500,1904,1500,1096,0,0,0,0,0,0,0,0,0,0,0,0,0,12
1405807333,1405807333,7,255,4,0,0,1502,1500,1490,1500,1904,1500,1096,0,0,0,0,0,0,0,0,0,0,0,0,0,12
1406004263,1406004263,7,255,4,0,0,1502,1500,1490,1500,1904,1500,1096,0,0,0,0,0,0,0,0,0,0,0,0,0,12
1406224294,1406224294,7,255,4,0,0,1502,1500,1490,1500,1904,1500,1096,0,0,0,0,0,0,0,0,0,0,0,0,0,12
1406422834,1406422834,7,255,4,0,0,1502,1500,1490,1500,1904,1500,1096,0,0,0,0,0,0,0,0,0,0,0,0,0,12
1406621303,1406621303,7,255,4,0,0,1502,1500,1490,1500,1904,1500,1096,0,0,0,0,0,0,0,0,0,0,0,0,0,12
1406818126,1406818126,7,255,4,0,0,1502,1500,1490,1500,1904,1500,1096,0,0,0,0,0,0,0,0,0,0,0,0,0,12
1407017325,1407017325,7,255,4,0,0,1502,1500,1490,1500,1904,1500,1096,0,0,0,0,0,0,0,0,0,0,0,0,0,12
1407237279,1407237279,7,255,4,0,0,1502,1500,1490,1500,1904,1500,1096,0,0,0,0,0,0,0,0,0,0,0,0,0,12
1407433653,1407433653,7,255,4,0,0,1502,1500,1490,1500,1904,1500,1096,0,0,0,0,0,0,0,0,0,0,0,0,0,12
1407635225,1407635225,7,255,4,0,0,1502,1500,1490,1500,1904,1500,1096,0,0,0,0,0,0,0,0,0,0,0,0,0,12
1407829263,1407829263,7,255,4,0,0,1502,1500,1490,1500,1904,1500,1096,0,0,0,0,0,0,0,0,0,0,0,0,0,12
1408226153,1408226153,7,255,4,0,0,1502,1500,1490,1500,1904,1500,1096,0,0,0,0,0,0,0,0,0,0,0,0,0,12
1408424162,1408424162,7,255,4,0,0,1484,1500,1490,1500,1904,1500,1096,0,0,0,0,0,0,0,0,0,0,0,0,0,12
1408643274,1408643274,7,255,4,0,0,1382,1500,1490,1500,1904,1500,1096,0,0,0,0,0,0,0,0,0,0,0,0,0,12
1408845109,1408845109,7,255,4,0,0,1366,1500,1490,1500,1904,1500,1096,0,0,0,0,0,0,0,0,0,0,0,0,0,12
1409040128,1409040128,7,255,4,0,0,1365,1500,1490,1500,1904,1500,1096,0,0,0,0,0,0,0,0,0,0,0,0,0,12
1409238345,1409238345,7,255,4,0,0,1378,1500,1490,1500,1904,1500,1096,0,0,0,0,0,0,0,0,0,0,0,0,0,12
1409437269,1409437269,7,255,4,0,0,1372,1500,1490,1500,1904,1500,1096,0,0,0,0,0,0,0,0,0,0,0,0,0,12
1409637415,1409637415,7,255,4,0,0,1371,1500,1490,1500,1904,1500,1096,0,0,0,0,0,0,0,0,0,0,0,0,0,12
1409853912,1409853912,7,255,4,0,0,1368,1500,1490,1500,1904,1500,1096,0,0,0,0,0,0,0,0,0,0,0,0,0,12
1410051259,1410051259,7,255,4,0,0,1365,1500,1490,1500,1904,1500,1096,0,0,0,0,0,0,0,0,0,0,0,0,0,12
1410252294,1410252294,7,255,4,0,0,1357,1500,1490,1500,1904,1500,1096,0,0,0,0,0,0,0,0,0,0,0,0,0,12
1410450339,1410450339,7,255,4,0,0,1357,1500,1490,1500,1904,1500,1096,0,0,0,0,0,0,0,0,0,0,0,0,0,12
1410667929,1410667929,7,255,4,0,0,1357,1500,1490,1500,1904,1500,1096,0,0,0,0,0,0,0,0,0,0,0,0,0,12
1410867207,1410867207,7,255,4,0,0,1365,1500,1490,1500,1904,1500,1096,0,0,0,0,0,0,0,0,0,0,0,0,0,12
1411065345,1411065345,7,255,4,0,0,1365,1500,1490,1500,1904,1500,1096,0,0,0,0,0,0,0,0,0,0,0,0,0,12
1411269705,1411269705,7,255,4,0,0,1364,1500,1490,1500,1904,1500,1096,0,0,0,0,0,0,0,0,0,0,0,0,0,12
1411481269,1411481269,7,255,4,0,0,1362,1500,1490,1500,1904,1500,1096,0,0,0,0,0,0,0,0,0,0,0,0,0,12
1411658360,1411658360,7,255,4,0,0,1362,1500,1490,1500,1904,1500,1096,0,0,0,0,0,0,0,0,0,0,0,0,0,12
1411878269,1411878269,7,255,4,0,0,1355,1500,1490,1500,1904,1500,1096,0,0,0,0,0,0,0,0,0,0,0,0,0,12
1412078779,1412078779,7,255,4,0,0,1352,1500,1490,1500,1904,1500,1096,0,0,0,0,0,0,0,0,0,0,0,0,0,12
1412273868,1412273868,7,255,4,0,0,1351,1500,1490,1500,1904,1500,1096,0,0,0,0,0,0,0,0,0,0,0,0,0,12
1412494338,1412494338,7,255,4,0,0,1349,1500,1490,1500,1904,1500,1096,0,0,0,0,0,0,0,0,0,0,0,0,0,12
1412691291,1412691291,7,255,4,0,0,1349,1500,1490,1500,1904,1500,1096,0,0,0,0,0,0,0,0,0,0,0,0,0,12
1412891225,1412891225,7,255,4,0,0,1348,1500,1490,1500,1904,1500,1096,0,0,0,0,0,0,0,0,0,0,0,0,0,12
1413089256,1413089256,7,255,4,0,0,1340,1500,1490,1500,1904,1500,1096,0,0,0,0,0,0,0,0,0,0,0,0,0,12
1413285263,1413285263,7,255,4,0,0,1339,1500,1490,1500,1904,1500,1096,0,0,0,0,0,0,0,0,0,0,0,0,0,12
1413485427,1413485427,7,255,4,0,0,1339,1500,1490,1500,1904,1500,1096,0,0,0,0,0,0,0,0,0,0,0,0,0,12
1413705265,1413705265,7,255,4,0,0,1339,1500,1490,1500,1904,1500,1096,0,0,0,0,0,0,0,0,0,0,0,0,0,12
1413902260,1413902260,7,255,4,0,0,1299,1500,1490,1500,1904,1500,1096,0,0,0,0,0,0,0,0,0,0,0,0,0,12
1414102109,1414102109,7,255,4,0,0,1289,1500,1490,1500,1904,1500,1096,0,0,0,0,0,0,0,0,0,0,0,0,0,12
1414298261,1414298261,7,255,4,0,0,1286,1500,1490,1500,1904,1500,1096,0,0,0,0,0,0,0,0,0,0,0,0,0,12
1414519261,1414519261,7,255,4,0,0,1285,1500,1490,1500,1904,1500,1096,0,0,0,0,0,0,0,0,0,0,0,0,0,12
1414718669,1414718669,7,255,4,0,0,1285,1500,1490,1500,1904,1500,1096,0,0,0,0,0,0,0,0,0,0,0,0,0,12
1414914355,1414914355,7,255,4,0,0,1284,1500,1490,1500,1904,1500,1096,0,0,0,0,0,0,0,0,0,0,0,0,0,12
1415115729,1415115729,7,255,4,0,0,1286,1500,1490,1500,1904,1500,1096,0,0,0,0,0,0,0,0,0,0,0,0,0,12
1415309262,1415309262,7,255,4,0,0,1295,1500,1490,1500,1904,1500,1096,0,0,0,0,0,0,0,0,0,0,0,0,0,12
1415529499,1415529499,7,255,4,0,0,1295,1500,1490,1500,1904,1500,1096,0,0,0,0,0,0,0,0,0,0,0,0,0,12
1415728287,1415728287,7,255,4,0,0,1297,1500,1490,1500,1904,1500,1096,0,0,0,0,0,0,0,0,0,0,0,0,0,12
1415928730,1415928730,7,255,4,0,0,1298,1500,1490,1500,1904,1500,1096,0,0,0,0,0,0,0,0,0,0,0,0,0,12
1416125276,1416125276,7,255,4,0,0,1298,1500,1490,1500,1904,1500,1096,0,0,0,0,0,0,0,0,0,0,0,0,0,12
1416345320,1416345320,7,255,4,0,0,1299,1500,1490,1500,1904,1500,1096,0,0,0,0,0,0,0,0,0,0,0,0,0,12
1416742268,1416742268,7,255,4,0,0,1300,1500,1490,1500,1904,1500,1096,0,0,0,0,0,0,0,0,0,0,0,0,0,12
1416938276,1416938276,7,255,4,0,0,1299,1500,1490,1499,1904,1500,1096,0,0,0,0,0,0,0,0,0,0,0,0,0,12
1417136266,1417136266,7,255,4,0,0,1299,1500,1490,1500,1904,1500,1096,0,0,0,0,0,0,0,0,0,0,0,0,0,12
1417334909,1417334909,7,255,4,0,0,1302,1500,1490,1500,1904,1500,1096,0,0,0,0,0,0,0,0,0,0,0,0,0,12
1417557225,1417557225,7,255,4,0,0,1310,1500,1490,1500,1904,1500,1096,0,0,0,0,0,0,0,0,0,0,0,0,0,12
1417752285,1417752285,7,255,4,0,0,1499,1500,1490,1500,1904,1500,1096,0,0,0,0,0,0,0,0,0,0,0,0,0,12
1417950262,1417950262,7,255,4,0,0,1500,1500,1490,1500,1904,1500,1096,0,0,0,0,0,0,0,0,0,0,0,0,0,12
1418148773,1418148773,7,255,4,0,0,1501,1500,1490,1500,1904,1500,1096,0,0,0,0,0,0,0,0,0,0,0,0,0,12
1418369266,1418369266,7,255,4,0,0,1502,1500,1490,1500,1904,1500,1096,0,0,0,0,0,0,0,0,0,0,0,0,0,12
1419182888,1419182888,7,255,4,0,0,1502,1500,1490,1500,1904,1500,1096,0,0,0,0,0,0,0,0,0,0,0,0,0,12
1419381307,1419381307,7,255,4,0,0,1502,1500,1490,1500,1904,1500,1096,0,0,0,0,0,0,0,0,0,0,0,0,0,12
1419580299,1419580299,7,255,4,0,0,1502,1500,1490,1500,1904,1500,1096,0,0,0,0,0,0,0,0,0,0,0,0,0,12
1419778315,1419778315,7,255,4,0,0,1502,1500,1490,1500,1904,1500,1096,0,0,0,0,0,0,0,0,0,0,0,0,0,12
1419975948,1419975948,7,255,4,0,0,1502,1500,1490,1500,1904,1500,1096,0,0,0,0,0,0,0,0,0,0,0,0,0,12
1420195124,1420195124,7,255,4,0,0,1502,1500,1490,1500,1904,1500,1096,0,0,0,0,0,0,0,0,0,0,0,0,0,12
1420392582,1420392582,7,255,4,0,0,1502,1500,1490,1500,1904,1500,1096,0,0,0,0,0,0,0,0,0,0,0,0,0,12
1420592925,1420592925,7,255,4,0,0,1502,1500,1490,1500,1904,1500,1096,0,0,0,0,0,0,0,0,0,0,0,0,0,12
1420790438,1420790438,7,255,4,0,0,1502,1500,1490,1500,1904,1500,1096,0,0,0,0,0,0,0,0,0,0,0,0,0,12
1420986477,1420986477,7,255,4,0,0,1502,1500,1490,1500,1904,1500,1096,0,0,0,0,0,0,0,0,0,0,0,0,0,12
1421187543,1421187543,7,255,4,0,0,1502,1500,1490,1500,1904,1500,1096,0,0,0,0,0,0,0,0,0,0,0,0,0,12
1421407021,1421407021,7,255,4,0,0,1502,1500,1490,1500,1904,1500,1096,0,0,0,0,0,0,0,0,0,0,0,0,0,12
1421603599,1421603599,7,255,4,0,0,1502,1500,1490,1500,1904,1500,1096,0,0,0,0,0,0,0,0,0,0,0,0,0,12
1421801261,1421801261,7,255,4,0,0,1502,1551,1490,1500,1904,1500,1096,0,0,0,0,0,0,0,0,0,0,0,0,0,12
1421999817,1421999817,7,255,4,0,0,1502,1648,1490,1500,1904,1500,1096,0,0,0,0,0,0,0,0,0,0,0,0,0,12
1422417261,1422417261,7,255,4,0,0,1502,1708,1490,1500,1904,1500,1096,0,0,0,0,0,0,0,0,0,0,0,0,0,12
1422617452,1422617452,7,255,4,0,0,1502,1711,1490,1500,1904,1500,1096,0,0,0,0,0,0,0,0,0,0,0,0,0,12
1422814263,1422814263,7,255,4,0,0,1502,1725,1490,1500,1904,1500,1096,0,0,0,0,0,0,0,0,0,0,0,0,0,12
1423012166,1423012166,7,255,4,0,0,1502,1728,1490,1500,1904,1500,1096,0,0,0,0,0,0,0,0,0,0,0,0,0,12
1423428261,1423428261,7,255,4,0,0,1502,1738,1490,1500,1904,1500,1096,0,0,0,0,0,0,0,0,0,0,0,0,0,12
1423627211,1423627211,7,255,4,0,0,1502,1741,1490,1500,1904,1500,1096,0,0,0,0,0,0,0,0,0,0,0,0,0,12
1424024485,1424024485,7,255,4,0,0,1502,1744,1490,1500,1904,1500,1096,0,0,0,0,0,0,0,0,0,0,0,0,0,12
1424221256,1424221256,7,255,4,0,0,1502,1747,1490,1500,1904,1500,1096,0,0,0,0,0,0,0,0,0,0,0,0,0,12
1424837263,1424837263,7,255,4,0,0,1502,1747,1490,1500,1904,1500,1096,0,0,0,0,0,0,0,0,0,0,0,0,0,12
1425848382,1425848382,7,255,4,0,0,1502,1748,1490,1500,1904,1500,1096,0,0,0,0,0,0,0,0,0,0,0,0,0,12
1426444181,1426444181,7,255,4,0,0,1502,1750,1490,1500,1904,1500,1096,0,0,0,0,0,0,0,0,0,0,0,0,0,12
1427060963,1427060963,7,255,4,0,0,1502,1750,1490,1500,1904,1500,1096,0,0,0,0,0,0,0,0,0,0,0,0,0,12
1427456183,1427456183,7,255,4,0,0,1502,1750,1490,1500,1904,1500,1096,0,0,0,0,0,0,0,0,0,0,0,0,0,12
1427654254,1427654254,7,255,4,0,0,1502,1752,1490,1500,1904,1500,1096,0,0,0,0,0,0,0,0,0,0,0,0,0,12
1428270802,1428270802,7,255,4,0,0,1502,1756,1490,1500,1904,1500,1096,0,0,0,0,0,0,0,0,0,0,0,0,0,12
1429280945,1429280945,7,255,4,0,0,1502,1755,1490,1500,1904,1500,1096,0,0,0,0,0,0,0,0,0,0,0,0,0,12
1429478308,1429478308,7,255,4,0,0,1502,1754,1490,1500,1904,1500,1096,0,0,0,0,0,0,0,0,0,0,0,0,0,12
1429698205,1429698205,7,255,4,0,0,1502,1692,1490,1500,1904,1500,1096,0,0,0,0,0,0,0,0,0,0,0,0,0,12
1430095263,1430095263,7,255,4,0,0,1502,1503,1490,1500,1904,1500,1096,0,0,0,0,0,0,0,0,0,0,0,0,0,12
1430292755,1430292755,7,255,4,0,0,1502,1501,1490,1500,1904,1500,1096,0,0,0,0,0,0,0,0,0,0,0,0,0,12
1430497200,1430497200,7,255,4,0,0,1502,1501,1490,1500,1904,1500,1096,0,0,0,0,0,0,0,0,0,0,0,0,0,12
1430690258,1430690258,7,255,4,0,0,1502,1500,1490,1500,1904,1500,1096,0,0,0,0,0,0,0,0,0,0,0,0,0,12
1431107282,1431107282,7,255,4,0,0,1502,1500,1490,1500,1904,1500,1096,0,0,0,0,0,0,0,0,0,0,0,0,0,12
1431305378,1431305378,7,255,4,0,0,1502,1500,1490,1500,1904,1500,1096,0,0,0,0,0,0,0,0,0,0,0,0,0,12
1431503261,1431503261,7,255,4,0,0,1502,1500,1490,1500,1904,1500,1096,0,0,0,0,0,0,0,0,0,0,0,0,0,12
1431701659,1431701659,7,255,4,0,0,1502,1500,1490,1500,1904,1500,1096,0,0,0,0,0,0,0,0,0,0,0,0,0,12
1431922211,1431922211,7,255,4,0,0,1502,1500,1490,1500,1904,1500,1096,0,0,0,0,0,0,0,0,0,0,0,0,0,12
1432119362,1432119362,7,255,4,0,0,1528,1500,1490,1500,1904,1500,1096,0,0,0,0,0,0,0,0,0,0,0,0,0,12
1432321101,1432321101,7,255,4,0,0,1649,1493,1490,1500,1904,1500,1096,0,0,0,0,0,0,0,0,0,0,0,0,0,12
1432514952,1432514952,7,255,4,0,0,1734,1500,1490,1500,1904,1500,1096,0,0,0,0,0,0,0,0,0,0,0,0,0,12
1432713263,1432713263,7,255,4,0,0,1741,1500,1490,1500,1904,1500,1096,0,0,0,0,0,0,0,0,0,0,0,0,0,12
1432932792,1432932792,7,255,4,0,0,1742,1500,1490,1500,1904,1500,1096,0,0,0,0,0,0,0,0,0,0,0,0,0,12
1433131261,1433131261,7,255,4,0,0,1743,1500,1490,1500,1904,1500,1096,0,0,0,0,0,0,0,0,0,0,0,0,0,12
1433328635,1433328635,7,255,4,0,0,1743,1500,1490,1500,1904,1500,1096,0,0,0,0,0,0,0,0,0,0,0,0,0,12
1433526891,1433526891,7,255,4,0,0,1741,1500,1490,1500,1904,1500,1096,0,0,0,0,0,0,0,0,0,0,0,0,0,12
1433726522,1433726522,7,255,4,0,0,1738,1500,1490,1500,1904,1500,1096,0,0,0,0,0,0,0,0,0,0,0,0,0,12
1433924001,1433924001,7,255,4,0,0,1738,1500,1490,1500,1904,1500,1096,0,0,0,0,0,0,0,0,0,0,0,0,0,12
1434142190,1434142190,7,255,4,0,0,1737,1500,1490,1500,1904,1500,1096,0,0,0,0,0,0,0,0,0,0,0,0,0,12
1434345528,1434345528,7,255,4,0,0,1738,1499,1490,1500,1904,1500,1096,0,0,0,0,0,0,0,0,0,0,0,0,0,12
1434539271,1434539271,7,255,4,0,0,1741,1498,1490,1500,1904,1500,1096,0,0,0,0,0,0,0,0,0,0,0,0,0,12
1434736291,1434736291,7,255,4,0,0,1741,1490,1490,1500,1904,1500,1096,0,0,0,0,0,0,0,0,0,0,0,0,0,12
1434936721,1434936721,7,255,4,0,0,1743,1490,1490,1500,1904,1500,1096,0,0,0,0,0,0,0,0,0,0,0,0,0,12
1435155263,1435155263,7,255,4,0,0,1745,1491,1490,1500,1904,1500,1096,0,0,0,0,0,0,0,0,0,0,0,0,0,12
1435353359,1435353359,7,255,4,0,0,1747,1493,1490,1499,1904,1500,1096,0,0,0,0,0,0,0,0,0,0,0,0,0,12
1435551255,1435551255,7,255,4,0,0,1748,1495,1490,1500,1904,1500,1096,0,0,0,0,0,0,0,0,0,0,0,0,0,12
1435750451,1435750451,7,255,4,0,0,1749,1495,1490,1500,1904,1500,1096,0,0,0,0,0,0,0,0,0,0,0,0,0,12
1435970412,1435970412,7,255,4,0,0,1750,1495,1490,1500,1904,1500,1096,0,0,0,0,0,0,0,0,0,0,0,0,0,12
1436167021,1436167021,7,255,4,0,0,1750,1495,1490,1500,1904,1500,1096,0,0,0,0,0,0,0,0,0,0,0,0,0,12
1436366256,1436366256,7,255,4,0,0,1750,1496,1490,1500,1904,1500,1096,0,0,0,0,0,0,0,0,0,0,0,0,0,12
1436563685,1436563685,7,255,4,0,0,1750,1495,1490,1500,1904,1500,1096,0,0,0,0,0,0,0,0,0,0,0,0,0,12
1436762256,1436762256,7,255,4,0,0,1751,1492,1490,1500,1904,1500,1096,0,0,0,0,0,0,0,0,0,0,0,0,0,12
1436981471,1436981471,7,255,4,0,0,1751,1485,1490,1500,1904,1500,1096,0,0,0,0,0,0,0,0,0,0,0,0,0,12
1437178100,1437178100,7,255,4,0,0,1752,1484,1490,1500,1904,1500,1096,0,0,0,0,0,0,0,0,0,0,0,0,0,12
1437378345,1437378345,7,255,4,0,0,1752,1484,1490,1500,1904,1500,1096,0,0,0,0,0,0,0,0,0,0,0,0,0,12
1437577307,1437577307,7,255,4,0,0,1752,1485,1490,1500,1904,1500,1096,0,0,0,0,0,0,0,0,0,0,0,0,0,12
1437774103,1437774103,7,255,4,0,0,1754,1488,1490,1500,1904,1500,1096,0,0,0,0,0,0,0,0,0,0,0,0,0,12
1437970269,1437970269,7,255,4,0,0,1755,1490,1490,1500,1904,1500,1096,0,0,0,0,0,0,0,0,0,0,0,0,0,12
1438190515,1438190515,7,255,4,0,0,1754,1491,1490,1500,1904,1500,1096,0,0,0,0,0,0,0,0,0,0,0,0,0,12
1438368268,1438368268,7,255,4,0,0,1754,1492,1490,1500,1904,1500,1096,0,0,0,0,0,0,0,0,0,0,0,0,0,12
1438587268,1438587268,7,255,4,0,0,1755,1493,1490,1500,1904,1500,1096,0,0,0,0,0,0,0,0,0,0,0,0,0,12
1438786992,1438786992,7,255,4,0,0,1756,1496,1490,1500,1904,1500,1096,0,0,0,0,0,0,0,0,0,0,0,0,0,12
1439004413,1439004413,7,255,4,0,0,1758,1497,1490,1500,1904,1500,1096,0,0,0,0,0,0,0,0,0,0,0,0,0,12
1439204742,1439204742,7,255,4,0,0,1760,1496,1490,1500,1904,1500,1096,0,0,0,0,0,0,0,0,0,0,0,0,0,12
1439400608,1439400608,7,255,4,0,0,1760,1497,1490,1500,1904,1500,1096,0,0,0,0,0,0,0,0,0,0,0,0,0,12
1439600550,1439600550,7,255,4,0,0,1761,1497,1490,1500,1904,1500,1096,0,0,0,0,0,0,0,0,0,0,0,0,0,12
1439798208,1439798208,7,255,4,0,0,1761,1497,1490,1500,1904,1500,1096,0,0,0,0,0,0,0,0,0,0,0,0,0,12
1439997600,1439997600,7,255,4,0,0,1761,1496,1490,1500,1904,1500,1096,0,0,0,0,0,0,0,0,0,0,0,0,0,12
1440215035,1440215035,7,255,4,0,0,1761,1497,1490,1500,1904,1500,1096,0,0,0,0,0,0,0,0,0,0,0,0,0,12
1440414197,1440414197,7,255,4,0,0,1761,1497,1490,1500,1904,1500,1096,0,0,0,0,0,0,0,0,0,0,0,0,0,12
1440611320,1440611320,7,255,4,0,0,1762,1498,1490,1500,1904,1500,1096,0,0,0,0,0,0,0,0,0,0,0,0,0,12
1440809261,1440809261,7,255,4,0,0,1765,1498,1490,1500,1904,1500,1096,0,0,0,0,0,0,0,0,0,0,0,0,0,12
1441008649,1441008649,7,255,4,0,0,1767,1498,1490,1500,1904,1500,1096,0,0,0,0,0,0,0,0,0,0,0,0,0,12
1441205494,1441205494,7,255,4,0,0,1768,1499,1490,1500,1904,1500,1096,0,0,0,0,0,0,0,0,0,0,0,0,0,12
1441426343,1441426343,7,255,4,0,0,1769,1499,1490,1500,1904,1500,1096,0,0,0,0,0,0,0,0,0,0,0,0,0,12
1441625083,1441625083,7,255,4,0,0,1769,1499,1490,1500,1904,1500,1096,0,0,0,0,0,0,0,0,0,0,0,0,0,12
1441827922,1441827922,7,255,4,0,0,1769,1499,1490,1500,1904,1500,1096,0,0,0,0,0,0,0,0,0,0,0,0,0,12
1442018185,1442018185,7,255,4,0,0,1769,1499,1490,1500,1904,1500,1096,0,0,0,0,0,0,0,0,0,0,0,0,0,12
1442239796,1442239796,7,255,4,0,0,1769,1499,1490,1500,1904,1500,1096,0,0,0,0,0,0,0,0,0,0,0,0,0,12
1442438272,1442438272,7,255,4,0,0,1769,1498,1490,1500,1904,1500,1096,0,0,0,0,0,0,0,0,0,0,0,0,0,12
1442635514,1442635514,7,255,4,0,0,1769,1498,1490,1500,1904,1500,1096,0,0,0,0,0,0,0,0,0,0,0,0,0,12
1442836642,1442836642,7,255,4,0,0,1769,1499,1490,1500,1904,1500,1096,0,0,0,0,0,0,0,0,0,0,0,0,0,12
1443032984,1443032984,7,255,4,0,0,1769,1499,1490,1500,1904,1500,1096,0,0,0,0,0,0,0,0,0,0,0,0,0,12
1443250593,1443250593,7,255,4,0,0,1768,1500,1490,1500,1904,1500,1096,0,0,0,0,0,0,0,0,0,0,0,0,0,12
1443449377,1443449377,7,255,4,0,0,1768,1499,1490,1500,1904,1500,1096,0,0,0,0,0,0,0,0,0,0,0,0,0,12
1443646270,1443646270,7,255,4,0,0,1767,1500,1490,1500,1904,1500,1096,0,0,0,0,0,0,0,0,0,0,0,0,0,12
1443845444,1443845444,7,255,4,0,0,1732,1500,1490,1500,1904,1500,1096,0,0,0,0,0,0,0,0,0,0,0,0,0,12
1444065104,1444065104,7,255,4,0,0,1591,1500,1490,1500,1904,1500,1096,0,0,0,0,0,0,0,0,0,0,0,0,0,12
1444264261,1444264261,7,255,4,0,0,1502,1500,1490,1500,1904,1500,1096,0,0,0,0,0,0,0,0,0,0,0,0,0,12
1444462347,1444462347,7,255,4,0,0,1502,1500,1490,1500,1904,1500,1096,0,0,0,0,0,0,0,0,0,0,0,0,0,12
1444658426,1444658426,7,255,4,0,0,1502,1500,1490,1500,1904,1500,1096,0,0,0,0,0,0,0,0,0,0,0,0,0,12
1445076613,1445076613,7,255,4,0,0,1502,1500,1490,1500,1904,1500,1096,0,0,0,0,0,0,0,0,0,0,0,0,0,12
1445473342,1445473342,7,255,4,0,0,1502,1500,1490,1500,1904,1500,1096,0,0,0,0,0,0,0,0,0,0,0,0,0,12
1445672515,1445672515,7,255,4,0,0,1502,1500,1490,1500,1904,1500,1096,0,0,0,0,0,0,0,0,0,0,0,0,0,12
1445870454,1445870454,7,255,4,0,0,1501,1500,1490,1500,1904,1500,1096,0,0,0,0,0,0,0,0,0,0,0,0,0,12
1446090246,1446090246,7,255,4,0,0,1502,1500,1490,1500,1904,1500,1096,0,0,0,0,0,0,0,0,0,0,0,0,0,12
1446486045,1446486045,7,255,4,0,0,1502,1500,1490,1500,1904,1500,1096,0,0,0,0,0,0,0,0,0,0,0,0,0,12
1446682166,1446682166,7,255,4,0,0,1502,1500,1490,1500,1904,1500,1096,0,0,0,0,0,0,0,0,0,0,0,0,0,12
1446880738,1446880738,7,255,4,0,0,1502,1500,1490,1500,1904,1500,1096,0,0,0,0,0,0,0,0,0,0,0,0,0,12
1447101272,1447101272,7,255,4,0,0,1502,1500,1490,1500,1904,1500,1096,0,0,0,0,0,0,0,0,0,0,0,0,0,12
1447501303,1447501303,7,255,4,0,0,1502,1500,1490,1500,1904,1500,1096,0,0,0,0,0,0,0,0,0,0,0,0,0,12
1447694261,1447694261,7,255,4,0,0,1502,1500,1490,1500,1904,1500,1096,0,0,0,0,0,0,0,0,0,0,0,0,0,12
1447893204,1447893204,7,255,4,0,0,1502,1299,1490,1500,1904,1500,1096,0,0,0,0,0,0,0,0,0,0,0,0,0,12
1448113316,1448113316,7,255,4,0,0,1502,1269,1490,1500,1904,1500,1096,0,0,0,0,0,0,0,0,0,0,0,0,0,12
1448314912,1448314912,7,255,4,0,0,1516,1266,1490,1500,1904,1500,1096,0,0,0,0,0,0,0,0,0,0,0,0,0,12
1448510081,1448510081,7,255,4,0,0,1523,1264,1490,1500,1904,1500,1096,0,0,0,0,0,0,0,0,0,0,0,0,0,12
1448708124,1448708124,7,255,4,0,0,1532,1251,1490,1500,1904,1500,1096,0,0,0,0,0,0,0,0,0,0,0,0,0,12
1448908645,1448908645,7,255,4,0,0,1590,1236,1490,1500,1904,1500,1096,0,0,0,0,0,0,0,0,0,0,0,0,0,12
1449126578,1449126578,7,255,4,0,0,1612,1233,1490,1500,1904,1500,1096,0,0,0,0,0,0,0,0,0,0,0,0,0,12
1449325758,1449325758,7,255,4,0,0,1616,1239,1490,1500,1904,1500,1096,0,0,0,0,0,0,0,0,0,0,0,0,0,12
1449520334,1449520334,7,255,4,0,0,1620,1242,1490,1500,1904,1500,1096,0,0,0,0,0,0,0,0,0,0,0,0,0,12
1449720500,1449720500,7,255,4,0,0,1621,1244,1490,1500,1904,1500,1096,0,0,0,0,0,0,0,0,0,0,0,0,0,12
1449918893,1449918893,7,255,4,0,0,1618,1244,1490,1500,1904,1500,1096,0,0,0,0,0,0,0,0,0,0,0,0,0,12
1450138577,1450138577,7,255,4,0,0,1609,1244,1490,1500,1904,1500,1096,0,0,0,0,0,0,0,0,0,0,0,0,0,12
1450534888,1450534888,7,255,4,0,0,1568,1244,1490,1500,1904,1500,1096,0,0,0,0,0,0,0,0,0,0,0,0,0,12
1450730372,1450730372,7,255,4,0,0,1508,1243,1490,1500,1904,1500,1096,0,0,0,0,0,0,0,0,0,0,0,0,0,12
1450928655,1450928655,7,255,4,0,0,1504,1236,1490,1500,1904,1500,1096,0,0,0,0,0,0,0,0,0,0,0,0,0,12
1451151223,1451151223,7,255,4,0,0,1502,1256,1490,1500,1904,1500,1096,0,0,0,0,0,0,0,0,0,0,0,0,0,12
1451347699,1451347699,7,255,4,0,0,1502,1257,1490,1500,1904,1500,1096,0,0,0,0,0,0,0,0,0,0,0,0,0,12
1451545272,1451545272,7,255,4,0,0,1502,1250,1490,1500,1904,1500,1096,0,0,0,0,0,0,0,0,0,0,0,0,0,12
1451742292,1451742292,7,255,4,0,0,1502,1249,1490,1500,1904,1500,1096,0,0,0,0,0,0,0,0,0,0,0,0,0,12
1451941227,1451941227,7,255,4,0,0,1502,1235,1490,1500,1904,1500,1096,0,0,0,0,0,0,0,0,0,0,0,0,0,12
1452138298,1452138298,7,255,4,0,0,1502,1233,1490,1500,1904,1500,1096,0,0,0,0,0,0,0,0,0,0,0,0,0,12
1452358456,1452358456,7,255,4,0,0,1502,1232,1490,1500,1904,1500,1096,0,0,0,0,0,0,0,0,0,0,0,0,0,12
1452559039,1452559039,7,255,4,0,0,1502,1230,1490,1500,1904,1500,1096,0,0,0,0,0,0,0,0,0,0,0,0,0,12
1452754927,1452754927,7,255,4,0,0,1502,1220,1490,1500,1904,1500,1096,0,0,0,0,0,0,0,0,0,0,0,0,0,12
1452953255,1452953255,7,255,4,0,0,1502,1218,1490,1500,1904,1500,1096,0,0,0,0,0,0,0,0,0,0,0,0,0,12
1453372321,1453372321,7,255,4,0,0,1502,1217,1490,1500,1904,1500,1096,0,0,0,0,0,0,0,0,0,0,0,0,0,12
1453568113,1453568113,7,255,4,0,0,1502,1218,1490,1500,1904,1500,1096,0,0,0,0,0,0,0,0,0,0,0,0,0,12
1453768842,1453768842,7,255,4,0,0,1502,1218,1490,1500,1904,1500,1096,0,0,0,0,0,0,0,0,0,0,0,0,0,12
1454166421,1454166421,7,255,4,0,0,1502,1311,1490,1500,1904,1500,1096,0,0,0,0,0,0,0,0,0,0,0,0,0,12
1454386227,1454386227,7,255,4,0,0,1502,1498,1490,1500,1904,1500,1096,0,0,0,0,0,0,0,0,0,0,0,0,0,12
1454588253,1454588253,7,255,4,0,0,1502,1499,1490,1500,1904,1500,1096,0,0,0,0,0,0,0,0,0,0,0,0,0,12
1454778338,1454778338,7,255,4,0,0,1502,1500,1490,1500,1904,1500,1096,0,0,0,0,0,0,0,0,0,0,0,0,0,12
1454977255,1454977255,7,255,4,0,0,1502,1500,1490,1299,1904,1500,1096,0,0,0,0,0,0,0,0,0,0,0,0,0,12
1455196163,1455196163,7,255,4,0,0,1502,1500,1490,1498,1904,1500,1096,0,0,0,0,0,0,0,0,0,0,0,0,0,12
1455396142,1455396142,7,255,4,0,0,1502,1500,1490,1658,1904,1500,1096,0,0,0,0,0,0,0,0,0,0,0,0,0,12
1455593260,1455593260,7,255,4,0,0,1502,1500,1490,1574,1904,1500,1096,0,0,0,0,0,0,0,0,0,0,0,0,0,12
1455791214,1455791214,7,255,4,0,0,1501,1500,1490,1500,1904,1500,1096,0,0,0,0,0,0,0,0,0,0,0,0,0,12
1455989200,1455989200,7,255,4,0,0,1502,1500,1490,1500,1904,1500,1096,0,0,0,0,0,0,0,0,0,0,0,0,0,12
1456209230,1456209230,7,255,4,0,0,1460,1500,1490,1500,1904,1500,1096,0,0,0,0,0,0,0,0,0,0,0,0,0,12
1456604187,1456604187,7,255,4,0,0,1366,1500,1490,1500,1904,1500,1096,0,0,0,0,0,0,0,0,0,0,0,0,0,12
1456802129,1456802129,7,255,4,0,0,1323,1500,1490,1500,1904,1500,1096,0,0,0,0,0,0,0,0,0,0,0,0,0,12
1457000289,1457000289,7,255,4,0,0,1316,1500,1490,1500,1904,1500,1096,0,0,0,0,0,0,0,0,0,0,0,0,0,12
1457221157,1457221157,7,255,4,0,0,1293,1499,1490,1500,1904,1500,1096,0,0,0,0,0,0,0,0,0,0,0,0,0,12
1457420287,1457420287,7,255,4,0,0,1285,1499,1490,1500,1904,1500,1096,0,0,0,0,0,0,0,0,0,0,0,0,0,12
1457617261,1457617261,7,255,4,0,0,1259,1492,1490,1500,1904,1500,1096,0,0,0,0,0,0,0,0,0,0,0,0,0,12
1457814272,1457814272,7,255,4,0,0,1252,1490,1490,1500,1904,1500,1096,0,0,0,0,0,0,0,0,0,0,0,0,0,12
1458015082,1458015082,7,255,4,0,0,1250,1486,1490,1500,1904,1500,1096,0,0,0,0,0,0,0,0,0,0,0,0,0,12
1458234983,1458234983,7,255,4,0,0,1236,1472,1490,1500,1904,1500,1096,0,0,0,0,0,0,0,0,0,0,0,0,0,12
1458431124,1458431124,7,255,4,0,0,1223,1452,1490,1500,1904,1500,1096,0,0,0,0,0,0,0,0,0,0,0,0,0,12
1458635887,1458635887,7,255,4,0,0,1216,1432,1490,1500,1904,1500,1096,0,0,0,0,0,0,0,0,0,0,0,0,0,12
1458827266,1458827266,7,255,4,0,0,1218,1417,1490,1500,1904,1500,1096,0,0,0,0,0,0,0,0,0,0,0,0,0,12
1459024308,1459024308,7,255,4,0,0,1231,1409,1490,1500,1904,1500,1096,0,0,0,0,0,0,0,0,0,0,0,0,0,12
1459246079,1459246079,7,255,4,0,0,1239,1409,1490,1500,1904,1500,1096,0,0,0,0,0,0,0,0,0,0,0,0,0,12
1459444993,1459444993,7,255,4,0,0,1239,1395,1490,1500,1904,1500,1096,0,0,0,0,0,0,0,0,0,0,0,0,0,12
1459641891,1459641891,7,255,4,0,0,1238,1380,1490,1500,1904,1500,1096,0,0,0,0,0,0,0,0,0,0,0,0,0,12
1459839266,1459839266,7,255,4,0,0,1238,1371,1490,1500,1904,1500,1096,0,0,0,0,0,0,0,0,0,0,0,0,0,12
1460037531,1460037531,7,255,4,0,0,1239,1370,1490,1500,1904,1500,1096,0,0,0,0,0,0,0,0,0,0,0,0,0,12
1460257225,1460257225,7,255,4,0,0,1239,1371,1490,1500,1904,1500,1096,0,0,0,0,0,0,0,0,0,0,0,0,0,12
1460454180,1460454180,7,255,4,0,0,1251,1373,1490,1500,1904,1500,1096,0,0,0,0,0,0,0,0,0,0,0,0,0,12
1460654099,1460654099,7,255,4,0,0,1265,1380,1490,1500,1904,1500,1096,0,0,0,0,0,0,0,0,0,0,0,0,0,12
1460851824,1460851824,7,255,4,0,0,1285,1388,1490,1500,1904,1500,1096,0,0,0,0,0,0,0,0,0,0,0,0,0,12
1461049261,1461049261,7,255,4,0,0,1278,1389,1490,1500,1904,1500,1096,0,0,0,0,0,0,0,0,0,0,0,0,0,12
1461268628,1461268628,7,255,4,0,0,1258,1386,1490,1500,1904,1500,1096,0,0,0,0,0,0,0,0,0,0,0,0,0,12
1461468301,1461468301,7,255,4,0,0,1258,1386,1490,1500,1904,1500,1096,0,0,0,0,0,0,0,0,0,0,0,0,0,12
1461664974,1461664974,7,255,4,0,0,1258,1386,1490,1500,1904,1500,1096,0,0,0,0,0,0,0,0,0,0,0,0,0,12
1461863261,1461863261,7,255,4,0,0,1259,1386,1490,1500,1904,1500,1096,0,0,0,0,0,0,0,0,0,0,0,0,0,12
1462062801,1462062801,7,255,4,0,0,1263,1386,1490,1500,1904,1500,1096,0,0,0,0,0,0,0,0,0,0,0,0,0,12
1462281334,1462281334,7,255,4,0,0,1290,1388,1490,1500,1904,1500,1096,0,0,0,0,0,0,0,0,0,0,0,0,0,12
1462478925,1462478925,7,255,4,0,0,1298,1390,1490,1500,1904,1500,1096,0,0,0,0,0,0,0,0,0,0,0,0,0,12
1462676262,1462676262,7,255,4,0,0,1318,1403,1490,1500,1904,1500,1096,0,0,0,0,0,0,0,0,0,0,0,0,0,12
1462874884,1462874884,7,255,4,0,0,1337,1405,1490,1500,1904,1500,1096,0,0,0,0,0,0,0,0,0,0,0,0,0,12
1463073189,1463073189,7,255,4,0,0,1356,1424,1490,1500,1904,1500,1096,0,0,0,0,0,0,0,0,0,0,0,0,0,12
1463292293,1463292293,7,255,4,0,0,1359,1438,1490,1500,1904,1500,1096,0,0,0,0,0,0,0,0,0,0,0,0,0,12
1463492832,1463492832,7,255,4,0,0,1366,1471,1490,1500,1904,1500,1096,0,0,0,0,0,0,0,0,0,0,0,0,0,12
1463689450,1463689450,7,255,4,0,0,1330,1502,1490,1500,1904,1500,1096,0,0,0,0,0,0,0,0,0,0,0,0,0,12
1463888282,1463888282,7,255,4,0,0,1291,1521,1490,1500,1904,1500,1096,0,0,0,0,0,0,0,0,0,0,0,0,0,12
1464086136,1464086136,7,255,4,0,0,1330,1512,1490,1500,1904,1500,1096,0,0,0,0,0,0,0,0,0,0,0,0,0,12
1464304653,1464304653,7,255,4,0,0,1319,1504,1490,1500,1904,1500,1096,0,0,0,0,0,0,0,0,0,0,0,0,0,12
1464503269,1464503269,7,255,4,0,0,1405,1505,1490,1500,1904,1500,1096,0,0,0,0,0,0,0,0,0,0,0,0,0,12
1464703100,1464703100,7,255,4,0,0,1501,1502,1490,1500,1904,1500,1096,0,0,0,0,0,0,0,0,0,0,0,0,0,12
1464899057,1464899057,7,255,4,0,0,1502,1501,1471,1500,1904,1500,1096,0,0,0,0,0,0,0,0,0,0,0,0,0,12
1465100747,1465100747,7,255,4,0,0,1502,1500,1439,1500,1904,1500,1096,0,0,0,0,0,0,0,0,0,0,0,0,0,12
1465317209,1465317209,7,255,4,0,0,1502,1500,1379,1500,1904,1500,1096,0,0,0,0,0,0,0,0,0,0,0,0,0,12
1465518367,1465518367,7,255,4,0,0,1502,1500,1364,1500,1904,1500,1096,0,0,0,0,0,0,0,0,0,0,0,0,0,12
1465713262,1465713262,7,255,4,0,0,1459,1468,1362,1500,1904,1500,1096,0,0,0,0,0,0,0,0,0,0,0,0,0,12
1465913147,1465913147,7,255,4,0,0,1410,1431,1360,1500,1904,1500,1096,0,0,0,0,0,0,0,0,0,0,0,0,0,12
1466108117,1466108117,7,255,4,0,0,1435,1423,1359,1500,1904,1500,1096,0,0,0,0,0,0,0,0,0,0,0,0,0,12
1466330272,1466330272,7,255,4,0,0,1429,1392,1359,1500,1904,1500,1096,0,0,0,0,0,0,0,0,0,0,0,0,0,12
1466532417,1466532417,7,255,4,0,0,1422,1392,1359,1500,1904,1500,1096,0,0,0,0,0,0,0,0,0,0,0,0,0,12
1466725767,1466725767,7,255,4,0,0,1413,1390,1359,1500,1904,1500,1096,0,0,0,0,0,0,0,0,0,0,0,0,0,12
1466923266,1466923266,7,255,4,0,0,1428,1392,1359,1500,1904,1500,1096,0,0,0,0,0,0,0,0,0,0,0,0,0,12
1467122837,1467122837,7,255,4,0,0,1426,1400,1359,1500,1904,1500,1096,0,0,0,0,0,0,0,0,0,0,0,0,0,12
1467341357,1467341357,7,255,4,0,0,1429,1404,1359,1500,1904,1500,1096,0,0,0,0,0,0,0,0,0,0,0,0,0,12
1467540958,1467540958,7,255,4,0,0,1426,1404,1359,1500,1904,1500,1096,0,0,0,0,0,0,0,0,0,0,0,0,0,12
1467737427,1467737427,7,255,4,0,0,1429,1390,1359,1500,1904,1500,1096,0,0,0,0,0,0,0,0,0,0,0,0,0,12
1467938124,1467938124,7,255,4,0,0,1423,1390,1359,1500,1904,1500,1096,0,0,0,0,0,0,0,0,0,0,0,0,0,12
1468154692,1468154692,7,255,4,0,0,1419,1389,1359,1500,1904,1500,1096,0,0,0,0,0,0,0,0,0,0,0,0,0,12
1468354926,1468354926,7,255,4,0,0,1420,1390,1359,1500,1904,1500,1096,0,0,0,0,0,0,0,0,0,0,0,0,0,12
1468550354,1468550354,7,255,4,0,0,1419,1390,1359,1500,1904,1500,1096,0,0,0,0,0,0,0,0,0,0,0,0,0,12
1468750981,1468750981,7,255,4,0,0,1415,1390,1359,1500,1904,1500,1096,0,0,0,0,0,0,0,0,0,0,0,0,0,12
1468947308,1468947308,7,255,4,0,0,1415,1392,1359,1500,1904,1500,1096,0,0,0,0,0,0,0,0,0,0,0,0,0,12
1469146272,1469146272,7,255,4,0,0,1416,1395,1359,1500,1904,1500,1096,0,0,0,0,0,0,0,0,0,0,0,0,0,12
1469564633,1469564633,7,255,4,0,0,1424,1402,1359,1500,1904,1500,1096,0,0,0,0,0,0,0,0,0,0,0,0,0,12
1469761266,1469761266,7,255,4,0,0,1426,1402,1359,1500,1904,1500,1096,0,0,0,0,0,0,0,0,0,0,0,0,0,12
1470158230,1470158230,7,255,4,0,0,1501,1390,1359,1500,1904,1500,1096,0,0,0,0,0,0,0,0,0,0,0,0,0,12
1470376717,1470376717,7,255,4,0,0,1501,1386,1359,1500,1904,1500,1096,0,0,0,0,0,0,0,0,0,0,0,0,0,12
1470575501,1470575501,7,255,4,0,0,1501,1397,1359,1500,1904,1500,1096,0,0,0,0,0,0,0,0,0,0,0,0,0,12
1470772395,1470772395,7,255,4,0,0,1527,1446,1359,1500,1904,1500,1096,0,0,0,0,0,0,0,0,0,0,0,0,0,12
1470972029,1470972029,7,255,4,0,0,1531,1495,1359,1500,1904,1500,1096,0,0,0,0,0,0,0,0,0,0,0,0,0,12
1471169262,1471169262,7,255,4,0,0,1504,1497,1359,1500,1904,1500,1096,0,0,0,0,0,0,0,0,0,0,0,0,0,12
1471388882,1471388882,7,255,4,0,0,1503,1545,1359,1500,1904,1500,1096,0,0,0,0,0,0,0,0,0,0,0,0,0,12
1471586260,1471586260,7,255,4,0,0,1502,1565,1359,1500,1904,1500,1096,0,0,0,0,0,0,0,0,0,0,0,0,0,12
1471786345,1471786345,7,255,4,0,0,1446,1500,1359,1500,1904,1500,1096,0,0,0,0,0,0,0,0,0,0,0,0,0,12
1471982263,1471982263,7,255,4,0,0,1444,1500,1359,1500,1904,1500,1096,0,0,0,0,0,0,0,0,0,0,0,0,0,12
1472182308,1472182308,7,255,4,0,0,1495,1500,1359,1500,1904,1500,1096,0,0,0,0,0,0,0,0,0,0,0,0,0,12
1472379681,1472379681,7,255,4,0,0,1483,1451,1359,1500,1904,1500,1096,0,0,0,0,0,0,0,0,0,0,0,0,0,12
1472598163,1472598163,7,255,4,0,0,1499,1428,1359,1500,1904,1500,1096,0,0,0,0,0,0,0,0,0,0,0,0,0,12
1472796622,1472796622,7,255,4,0,0,1500,1471,1359,1500,1904,1500,1096,0,0,0,0,0,0,0,0,0,0,0,0,0,12
1472995604,1472995604,7,255,4,0,0,1473,1471,1359,1500,1904,1500,1096,0,0,0,0,0,0,0,0,0,0,0,0,0,12
1473194258,1473194258,7,255,4,0,0,1475,1469,1359,1500,1904,1500,1096,0,0,0,0,0,0,0,0,0,0,0,0,0,12
1473391882,1473391882,7,255,4,0,0,1499,1470,1359,1500,1904,1500,1096,0,0,0,0,0,0,0,0,0,0,0,0,0,12
1473809126,1473809126,7,255,4,0,0,1565,1497,1338,1500,1904,1500,1096,0,0,0,0,0,0,0,0,0,0,0,0,0,12
1474205637,1474205637,7,255,4,0,0,1525,1430,1338,1500,1904,1500,1096,0,0,0,0,0,0,0,0,0,0,0,0,0,12
1474403602,1474403602,7,255,4,0,0,1580,1437,1338,1500,1904,1500,1096,0,0,0,0,0,0,0,0,0,0,0,0,0,12
1474602131,1474602131,7,255,4,0,0,1554,1431,1337,1500,1904,1500,1096,0,0,0,0,0,0,0,0,0,0,0,0,0,12
1474799485,1474799485,7,255,4,0,0,1560,1443,1338,1500,1904,1500,1096,0,0,0,0,0,0,0,0,0,0,0,0,0,12
1475021903,1475021903,7,255,4,0,0,1550,1456,1337,1500,1904,1500,1096,0,0,0,0,0,0,0,0,0,0,0,0,0,12
1475216341,1475216341,7,255,4,0,0,1549,1458,1337,1500,1904,1500,1096,0,0,0,0,0,0,0,0,0,0,0,0,0,12
1475414077,1475414077,7,255,4,0,0,1502,1479,1096,1418,1904,1500,1096,0,0,0,0,0,0,0,0,0,0,0,0,0,12
1475614691,1475614691,7,255,4,0,0,1502,1500,1096,1255,1904,1500,1096,0,0,0,0,0,0,0,0,0,0,0,0,0,12
1476627280,1476627280,7,255,4,0,0,1502,1500,1096,1096,1904,1500,1096,0,0,0,0,0,0,0,0,0,0,0,0,0,12
1476844289,1476844289,7,255,4,0,0,1502,1500,1096,1096,1904,1500,1096,0,0,0,0,0,0,0,0,0,0,0,0,0,12
1477240634,1477240634,7,255,4,0,0,1502,1500,1096,1096,1904,1500,1096,0,0,0,0,0,0,0,0,0,0,0,0,0,12
1477441501,1477441501,7,255,4,0,0,1502,1500,1096,1096,1904,1500,1096,0,0,0,0,0,0,0,0,0,0,0,0,0,12
