timestamp,x,y,z,r,flaps,aux1,aux2,aux3,aux4,aux5,mode_switch,return_switch,rattitude_switch,posctl_switch,loiter_switch,acro_switch,offboard_switch,kill_switch,arm_switch,transition_switch,gear_switch,mode_slot,data_source,stab_switch,man_switch
1402352367,0.0,0.0,0.48120305,-4.543e-42,0.0,0.0,0.0,0.0,0.0,0.0,0,0,0,0,0,0,0,3,0,0,0,5,1,0,0
1402573255,0.0,0.0,0.48120305,-0.0,0.0,0.0,0.0,0.0,0.0,0.0,0,0,0,0,0,0,0,3,0,0,0,5,1,0,0
1402769090,0.0,0.0,0.48120305,0.0,0.0,0.0,0.0,0.0,0.0,0.0,0,0,0,0,0,0,0,3,0,0,0,5,1,0,0
1402969310,0.0,0.0,0.48120305,0.0,0.0,0.0,0.0,0.0,0.0,0.0,0,0,0,0,0,0,0,3,0,0,0,5,1,0,0
1403386309,0.0,0.0,0.48120305,0.0,0.0,0.0,0.0,0.0,0.0,0.0,0,0,0,0,0,0,0,3,0,0,0,5,1,0,0
1403588160,0.0,0.0,0.48120305,0.0,0.0,0.0,0.0,0.0,0.0,0.0,0,0,0,0,0,0,0,3,0,0,0,5,1,0,0
1403784293,0.0,0.0,0.48120305,0.0,0.0,0.0,0.0,0.0,0.0,0.0,0,0,0,0,0,0,0,3,0,0,0,5,1,0,0
1403983841,0.0,0.0,0.48120305,0.0,0.0,0.0,0.0,0.0,0.0,0.0,0,0,0,0,0,0,0,3,0,0,0,5,1,0,0
1404179671,0.0,0.0,0.48120305,0.0,0.0,0.0,0.0,0.0,0.0,0.0,0,0,0,0,0,0,0,3,0,0,0,5,1,0,0
1404397264,0.0,0.0,0.48120305,0.0,0.0,0.0,0.0,0.0,0.0,0.0,0,0,0,0,0,0,0,3,0,0,0,5,1,0,0
1404596044,0.0,0.0,0.48120305,0.0,0.0,0.0,0.0,0.0,0.0,0.0,0,0,0,0,0,0,0,3,0,0,0,5,1,0,0
1404794260,0.0,0.0,0.48120305,0.0,0.0,0.0,0.0,0.0,0.0,0.0,0,0,0,0,0,0,0,3,0,0,0,5,1,0,0
1404994247,0.0,0.0,0.48120305,0.0,0.0,0.0,0.0,0.0,0.0,0.0,0,0,0,0,0,0,0,3,0,0,0,5,1,0,0
1405189263,0.0,0.0,0.48120305,0.0,0.0,0.0,0.0,0.0,0.0,0.0,0,0,0,0,0,0,0,3,0,0,0,5,1,0,0
1405410127,0.0,0.0,0.48120305,0.0,0.0,0.0,0.0,0.0,0.0,0.0,0,0,0,0,0,0,0,3,0,0,0,5,1,0,0
1405807333,0.0,0.0,0.48120305,0.0,0.0,0.0,0.0,0.0,0.0,0.0,0,0,0,0,0,0,0,3,0,0,0,5,1,0,0
1406004263,0.0,0.0,0.48120305,0.0,0.0,0.0,0.0,0.0,0.0,0.0,0,0,0,0,0,0,0,3,0,0,0,5,1,0,0
1406422834,0.0,0.0,0.48120305,0.0,0.0,0.0,0.0,0.0,0.0,0.0,0,0,0,0,0,0,0,3,0,0,0,5,1,0,0
1406621303,0.0,0.0,0.48120305,0.0,0.0,0.0,0.0,0.0,0.0,0.0,0,0,0,0,0,0,0,3,0,0,0,5,1,0,0
1406818126,0.0,0.0,0.48120305,0.0,0.0,0.0,0.0,0.0,0.0,0.0,0,0,0,0,0,0,0,3,0,0,0,5,1,0,0
1407017325,0.0,0.0,0.48120305,0.0,0.0,0.0,0.0,0.0,0.0,0.0,0,0,0,0,0,0,0,3,0,0,0,5,1,0,0
1407217749,0.0,0.0,0.48120305,0.0,0.0,0.0,0.0,0.0,0.0,0.0,0,0,0,0,0,0,0,3,0,0,0,5,1,0,0
1407433653,0.0,0.0,0.48120305,0.0,0.0,0.0,0.0,0.0,0.0,0.0,0,0,0,0,0,0,0,3,0,0,0,5,1,0,0
1407635225,0.0,0.0,0.48120305,0.0,0.0,0.0,0.0,0.0,0.0,0.0,0,0,0,0,0,0,0,3,0,0,0,5,1,0,0
1407829263,0.0,0.0,0.48120305,0.0,0.0,0.0,0.0,0.0,0.0,0.0,0,0,0,0,0,0,0,3,0,0,0,5,1,0,0
1408226153,0.0,0.0,0.48120305,0.0,0.0,0.0,0.0,0.0,0.0,0.0,0,0,0,0,0,0,0,3,0,0,0,5,1,0,0
1408424162,0.0,-0.0026281439,0.48120305,0.0,0.0,0.0,0.0,0.0,0.0,0.0,0,0,0,0,0,0,0,3,0,0,0,5,1,0,0
1408643274,0.0,-0.24873775,0.48120305,0.0,0.0,0.0,0.0,0.0,0.0,0.0,0,0,0,0,0,0,0,3,0,0,0,5,1,0,0
1408845109,0.0,-0.31410262,0.48120305,0.0,0.0,0.0,0.0,0.0,0.0,0.0,0,0,0,0,0,0,0,3,0,0,0,5,1,0,0
1409040128,0.0,-0.3155705,0.48120305,0.0,0.0,0.0,0.0,0.0,0.0,0.0,0,0,0,0,0,0,0,3,0,0,0,5,1,0,0
1409238345,0.0,-0.2804421,0.48120305,0.0,0.0,0.0,0.0,0.0,0.0,0.0,0,0,0,0,0,0,0,3,0,0,0,5,1,0,0
1409437269,0.0,-0.28559873,0.48120305,0.0,0.0,0.0,0.0,0.0,0.0,0.0,0,0,0,0,0,0,0,3,0,0,0,5,1,0,0
1409637415,0.0,-0.30024582,0.48120305,0.0,0.0,0.0,0.0,0.0,0.0,0.0,0,0,0,0,0,0,0,3,0,0,0,5,1,0,0
1409853912,0.0,-0.3070977,0.48120305,0.0,0.0,0.0,0.0,0.0,0.0,0.0,0,0,0,0,0,0,0,3,0,0,0,5,1,0,0
1410051259,0.0,-0.3155976,0.48120305,0.0,0.0,0.0,0.0,0.0,0.0,0.0,0,0,0,0,0,0,0,3,0,0,0,5,1,0,0
1410252294,0.0,-0.33149543,0.48120305,0.0,0.0,0.0,0.0,0.0,0.0,0.0,0,0,0,0,0,0,0,3,0,0,0,5,1,0,0
1410450339,0.0,-0.33587795,0.48120305,0.0,0.0,0.0,0.0,0.0,0.0,0.0,0,0,0,0,0,0,0,3,0,0,0,5,1,0,0
1410650941,0.0,-0.33587787,0.48120305,0.0,0.0,0.0,0.0,0.0,0.0,0.0,0,0,0,0,0,0,0,3,0,0,0,5,1,0,0
1410867207,0.0,-0.31432307,0.48120305,0.0,0.0,0.0,0.0,0.0,0.0,0.0,0,0,0,0,0,0,0,3,0,0,0,5,1,0,0
1411065345,0.0,-0.31552705,0.48120305,0.0,0.0,0.0,0.0,0.0,0.0,0.0,0,0,0,0,0,0,0,3,0,0,0,5,1,0,0
1411269705,0.0,-0.31604725,0.48120305,0.0,0.0,0.0,0.0,0.0,0.0,0.0,0,0,0,0,0,0,0,3,0,0,0,5,1,0,0
1411461274,0.0,-0.3232637,0.48120305,0.0,0.0,0.0,0.0,0.0,0.0,0.0,0,0,0,0,0,0,0,3,0,0,0,5,1,0,0
1411658360,0.0,-0.323155,0.48120305,0.0,0.0,0.0,0.0,0.0,0.0,0.0,0,0,0,0,0,0,0,3,0,0,0,5,1,0,0
1411878269,0.0,-0.33297685,0.48120305,0.0,0.0,0.0,0.0,0.0,0.0,0.0,0,0,0,0,0,0,0,3,0,0,0,5,1,0,0
1412078779,0.0,-0.34866,0.48120305,0.0,0.0,0.0,0.0,0.0,0.0,0.0,0,0,0,0,0,0,0,3,0,0,0,5,1,0,0
1412273868,0.0,-0.35125455,0.48120305,0.0,0.0,0.0,0.0,0.0,0.0,0.0,0,0,0,0,0,0,0,3,0,0,0,5,1,0,0
1412472257,0.0,-0.3536725,0.48120305,0.0,0.0,0.0,0.0,0.0,0.0,0.0,0,0,0,0,0,0,0,3,0,0,0,5,1,0,0
1412691291,0.0,-0.3562354,0.48120305,0.0,0.0,0.0,0.0,0.0,0.0,0.0,0,0,0,0,0,0,0,3,0,0,0,5,1,0,0
1412891225,0.0,-0.35800523,0.48120305,0.0,0.0,0.0,0.0,0.0,0.0,0.0,0,0,0,0,0,0,0,3,0,0,0,5,1,0,0
1413089256,0.0,-0.37908167,0.48120305,0.0,0.0,0.0,0.0,0.0,0.0,0.0,0,0,0,0,0,0,0,3,0,0,0,5,1,0,0
1413285263,0.0,-0.38166264,0.48120305,0.0,0.0,0.0,0.0,0.0,0.0,0.0,0,0,0,0,0,0,0,3,0,0,0,5,1,0,0
1413485427,0.0,-0.38167942,0.48120305,0.0,0.0,0.0,0.0,0.0,0.0,0.0,0,0,0,0,0,0,0,3,0,0,0,5,1,0,0
1413705265,0.0,-0.38300726,0.48120305,0.0,0.0,0.0,0.0,0.0,0.0,0.0,0,0,0,0,0,0,0,3,0,0,0,5,1,0,0
1413902260,0.0,-0.46645227,0.48120305,0.0,0.0,0.0,0.0,0.0,0.0,0.0,0,0,0,0,0,0,0,3,0,0,0,5,1,0,0
1414102109,0.0,-0.50820744,0.48120305,0.0,0.0,0.0,0.0,0.0,0.0,0.0,0,0,0,0,0,0,0,3,0,0,0,5,1,0,0
1414298261,0.0,-0.51248246,0.48120305,0.0,0.0,0.0,0.0,0.0,0.0,0.0,0,0,0,0,0,0,0,3,0,0,0,5,1,0,0
1414519261,0.0,-0.5190864,0.48120305,0.0,0.0,0.0,0.0,0.0,0.0,0.0,0,0,0,0,0,0,0,3,0,0,0,5,1,0,0
1414718669,0.0,-0.51908404,0.48120305,0.0,0.0,0.0,0.0,0.0,0.0,0.0,0,0,0,0,0,0,0,3,0,0,0,5,1,0,0
1414914355,0.0,-0.5216092,0.48120305,0.0,0.0,0.0,0.0,0.0,0.0,0.0,0,0,0,0,0,0,0,3,0,0,0,5,1,0,0
1415115729,0.0,-0.518556,0.48120305,0.0,0.0,0.0,0.0,0.0,0.0,0.0,0,0,0,0,0,0,0,3,0,0,0,5,1,0,0
1415309262,0.0,-0.5055924,0.48120305,0.0,0.0,0.0,0.0,0.0,0.0,0.0,0,0,0,0,0,0,0,3,0,0,0,5,1,0,0
1415529499,0.0,-0.49363846,0.48120305,0.0,0.0,0.0,0.0,0.0,0.0,0.0,0,0,0,0,0,0,0,3,0,0,0,5,1,0,0
1415728287,0.0,-0.48934236,0.48120305,0.0,0.0,0.0,0.0,0.0,0.0,0.0,0,0,0,0,0,0,0,3,0,0,0,5,1,0,0
1415928730,0.0,-0.48600993,0.48120305,0.0,0.0,0.0,0.0,0.0,0.0,0.0,0,0,0,0,0,0,0,3,0,0,0,5,1,0,0
1416125276,0.0,-0.48600507,0.48120305,0.0,0.0,0.0,0.0,0.0,0.0,0.0,0,0,0,0,0,0,0,3,0,0,0,5,1,0,0
1416325576,0.0,-0.4834582,0.48120305,0.0,0.0,0.0,0.0,0.0,0.0,0.0,0,0,0,0,0,0,0,3,0,0,0,5,1,0,0
1416742268,0.0,-0.481747,0.48120305,0.0,0.0,0.0,0.0,0.0,0.0,0.0,0,0,0,0,0,0,0,3,0,0,0,5,1,0,0
1416938276,0.0,-0.48365217,0.48120305,0.0,0.0,0.0,0.0,0.0,0.0,0.0,0,0,0,0,0,0,0,3,0,0,0,5,1,0,0
1417136266,0.0,-0.4855937,0.48120305,0.0,0.0,0.0,0.0,0.0,0.0,0.0,0,0,0,0,0,0,0,3,0,0,0,5,1,0,0
1417334909,0.0,-0.47560385,0.48120305,0.0,0.0,0.0,0.0,0.0,0.0,0.0,0,0,0,0,0,0,0,3,0,0,0,5,1,0,0
1417557225,0.0,-0.46758437,0.48120305,0.0,0.0,0.0,0.0,0.0,0.0,0.0,0,0,0,0,0,0,0,3,0,0,0,5,1,0,0
1417752285,0.0,-0.030641155,0.48120305,0.0,0.0,0.0,0.0,0.0,0.0,0.0,0,0,0,0,0,0,0,3,0,0,0,5,1,0,0
1417950262,0.0,5.7093603e-06,0.48120305,0.0,0.0,0.0,0.0,0.0,0.0,0.0,0,0,0,0,0,0,0,3,0,0,0,5,1,0,0
1418148773,0.0,7.98808e-09,0.48120305,0.0,0.0,0.0,0.0,0.0,0.0,0.0,0,0,0,0,0,0,0,3,0,0,0,5,1,0,0
1418369266,0.0,-2.329137e-12,0.48120305,0.0,0.0,0.0,0.0,0.0,0.0,0.0,0,0,0,0,0,0,0,3,0,0,0,5,1,0,0
1418571129,0.0,-6.735762e-16,0.48120305,0.0,0.0,0.0,0.0,0.0,0.0,0.0,0,0,0,0,0,0,0,3,0,0,0,5,1,0,0
1418766222,0.0,1.5736072e-18,0.48120305,0.0,0.0,0.0,0.0,0.0,0.0,0.0,0,0,0,0,0,0,0,3,0,0,0,5,1,0,0
1418962876,0.0,-1.0879418e-21,0.48120305,0.0,0.0,0.0,0.0,0.0,0.0,0.0,0,0,0,0,0,0,0,3,0,0,0,5,1,0,0
1419162085,0.0,2.832087e-25,0.48120305,0.0,0.0,0.0,0.0,0.0,0.0,0.0,0,0,0,0,0,0,0,3,0,0,0,5,1,0,0
1419359730,0.0,2.133899e-28,0.48120305,0.0,0.0,0.0,0.0,0.0,0.0,0.0,0,0,0,0,0,0,0,3,0,0,0,5,1,0,0
1419580299,0.0,-9.2546964e-32,0.48120305,0.0,0.0,0.0,0.0,0.0,0.0,0.0,0,0,0,0,0,0,0,3,0,0,0,5,1,0,0
1419778315,0.0,-1.1038902e-35,0.48120305,0.0,0.0,0.0,0.0,0.0,0.0,0.0,0,0,0,0,0,0,0,3,0,0,0,5,1,0,0
1419975948,0.0,4.88053e-38,0.48120305,0.0,0.0,0.0,0.0,0.0,0.0,0.0,0,0,0,0,0,0,0,3,0,0,0,5,1,0,0
1420172539,0.0,-3.7912e-41,0.48120305,0.0,0.0,0.0,0.0,0.0,0.0,0.0,0,0,0,0,0,0,0,3,0,0,0,5,1,0,0
1420370261,0.0,1.3e-44,0.48120305,0.0,0.0,0.0,0.0,0.0,0.0,0.0,0,0,0,0,0,0,0,3,0,0,0,5,1,0,0
1420569314,0.0,0.0,0.48120305,0.0,0.0,0.0,0.0,0.0,0.0,0.0,0,0,0,0,0,0,0,3,0,0,0,5,1,0,0
1420790438,0.0,0.0,0.48120305,0.0,0.0,0.0,0.0,0.0,0.0,0.0,0,0,0,0,0,0,0,3,0,0,0,5,1,0,0
1420986477,0.0,0.0,0.48120305,0.0,0.0,0.0,0.0,0.0,0.0,0.0,0,0,0,0,0,0,0,3,0,0,0,5,1,0,0
1421187543,0.0,0.0,0.48120305,0.0,0.0,0.0,0.0,0.0,0.0,0.0,0,0,0,0,0,0,0,3,0,0,0,5,1,0,0
1421383025,0.0,0.0,0.48120305,0.0,0.0,0.0,0.0,0.0,0.0,0.0,0,0,0,0,0,0,0,3,0,0,0,5,1,0,0
1421603599,0.0,0.0,0.48120305,0.0,0.0,0.0,0.0,0.0,0.0,0.0,0,0,0,0,0,0,0,3,0,0,0,5,1,0,0
1421801261,0.046063244,0.0,0.48120305,0.0,0.0,0.0,0.0,0.0,0.0,0.0,0,0,0,0,0,0,0,3,0,0,0,5,1,0,0
1421999817,0.33573666,0.0,0.48120305,0.0,0.0,0.0,0.0,0.0,0.0,0.0,0,0,0,0,0,0,0,3,0,0,0,5,1,0,0
1422197296,0.4382417,0.0,0.48120305,0.0,0.0,0.0,0.0,0.0,0.0,0.0,0,0,0,0,0,0,0,3,0,0,0,5,1,0,0
1422398698,0.48850542,0.0,0.48120305,0.0,0.0,0.0,0.0,0.0,0.0,0.0,0,0,0,0,0,0,0,3,0,0,0,5,1,0,0
1422617452,0.50834054,0.0,0.48120305,0.0,0.0,0.0,0.0,0.0,0.0,0.0,0,0,0,0,0,0,0,3,0,0,0,5,1,0,0
1422814263,0.54439193,0.0,0.48120305,0.0,0.0,0.0,0.0,0.0,0.0,0.0,0,0,0,0,0,0,0,3,0,0,0,5,1,0,0
1423012166,0.5516684,0.0,0.48120305,0.0,0.0,0.0,0.0,0.0,0.0,0.0,0,0,0,0,0,0,0,3,0,0,0,5,1,0,0
1423428261,0.5767566,0.0,0.48120305,0.0,0.0,0.0,0.0,0.0,0.0,0.0,0,0,0,0,0,0,0,3,0,0,0,5,1,0,0
1424024485,0.59391,0.0,0.48120305,0.0,0.0,0.0,0.0,0.0,0.0,0.0,0,0,0,0,0,0,0,3,0,0,0,5,1,0,0
1424837263,0.6023436,0.0,0.48120305,0.0,0.0,0.0,0.0,0.0,0.0,0.0,0,0,0,0,0,0,0,3,0,0,0,5,1,0,0
1425828299,0.60411024,0.0,0.48120305,0.0,0.0,0.0,0.0,0.0,0.0,0.0,0,0,0,0,0,0,0,3,0,0,0,5,1,0,0
1426444181,0.6091178,0.0,0.48120305,0.0,0.0,0.0,0.0,0.0,0.0,0.0,0,0,0,0,0,0,0,3,0,0,0,5,1,0,0
1427038151,0.6090356,0.0,0.48120305,0.0,0.0,0.0,0.0,0.0,0.0,0.0,0,0,0,0,0,0,0,3,0,0,0,5,1,0,0
1427456183,0.6091369,0.0,0.48120305,0.0,0.0,0.0,0.0,0.0,0.0,0.0,0,0,0,0,0,0,0,3,0,0,0,5,1,0,0
1427654254,0.6144022,0.0,0.48120305,0.0,0.0,0.0,0.0,0.0,0.0,0.0,0,0,0,0,0,0,0,3,0,0,0,5,1,0,0
1428270802,0.6243654,0.0,0.48120305,0.0,0.0,0.0,0.0,0.0,0.0,0.0,0,0,0,0,0,0,0,3,0,0,0,5,1,0,0
1429280945,0.62182754,0.0,0.48120305,0.0,0.0,0.0,0.0,0.0,0.0,0.0,0,0,0,0,0,0,0,3,0,0,0,5,1,0,0
1429676264,0.5402505,0.0,0.48120305,0.0,0.0,0.0,0.0,0.0,0.0,0.0,0,0,0,0,0,0,0,3,0,0,0,5,1,0,0
1430095263,-4.2439016e-05,0.0,0.48120305,0.0,0.0,0.0,0.0,0.0,0.0,0.0,0,0,0,0,0,0,0,3,0,0,0,5,1,0,0
1430292755,3.9335564e-08,0.0,0.48120305,0.0,0.0,0.0,0.0,0.0,0.0,0.0,0,0,0,0,0,0,0,3,0,0,0,5,1,0,0
1430497200,-1.6358713e-11,0.0,0.48120305,0.0,0.0,0.0,0.0,0.0,0.0,0.0,0,0,0,0,0,0,0,3,0,0,0,5,1,0,0
1430690258,-2.3761402e-15,0.0,0.48120305,0.0,0.0,0.0,0.0,0.0,0.0,0.0,0,0,0,0,0,0,0,3,0,0,0,5,1,0,0
1431107282,-5.797853e-22,0.0,0.48120305,0.0,0.0,0.0,0.0,0.0,0.0,0.0,0,0,0,0,0,0,0,3,0,0,0,5,1,0,0
1431305378,-1.2273672e-24,0.0,0.48120305,0.0,0.0,0.0,0.0,0.0,0.0,0.0,0,0,0,0,0,0,0,3,0,0,0,5,1,0,0
1431503261,1.3163526e-27,0.0,0.48120305,0.0,0.0,0.0,0.0,0.0,0.0,0.0,0,0,0,0,0,0,0,3,0,0,0,5,1,0,0
1431701659,-6.290654e-31,0.0,0.48120305,0.0,0.0,0.0,0.0,0.0,0.0,0.0,0,0,0,0,0,0,0,3,0,0,0,5,1,0,0
1431898273,-8.293882e-36,0.0,0.48120305,0.0,0.0,0.0,0.0,0.0,0.0,0.0,0,0,0,0,0,0,0,3,0,0,0,5,1,0,0
1432119362,1.4701974e-37,0.00993638,0.48120305,0.0,0.0,0.0,0.0,0.0,0.0,0.0,0,0,0,0,0,0,0,3,0,0,0,5,1,0,0
1432321101,-3.246e-41,0.32691625,0.48120305,0.0,0.0,0.0,0.0,0.0,0.0,0.0,0,0,0,0,0,0,0,3,0,0,0,5,1,0,0
1432514952,-3.5e-44,0.56597936,0.48120305,0.0,0.0,0.0,0.0,0.0,0.0,0.0,0,0,0,0,0,0,0,3,0,0,0,5,1,0,0
1432713263,0.0,0.5884822,0.48120305,0.0,0.0,0.0,0.0,0.0,0.0,0.0,0,0,0,0,0,0,0,3,0,0,0,5,1,0,0
1432932792,0.0,0.58987105,0.48120305,0.0,0.0,0.0,0.0,0.0,0.0,0.0,0,0,0,0,0,0,0,3,0,0,0,5,1,0,0
1433131261,0.0,0.59259844,0.48120305,0.0,0.0,0.0,0.0,0.0,0.0,0.0,0,0,0,0,0,0,0,3,0,0,0,5,1,0,0
1433328635,0.0,0.5924566,0.48120305,0.0,0.0,0.0,0.0,0.0,0.0,0.0,0,0,0,0,0,0,0,3,0,0,0,5,1,0,0
1433526891,0.0,0.58934563,0.48120305,0.0,0.0,0.0,0.0,0.0,0.0,0.0,0,0,0,0,0,0,0,3,0,0,0,5,1,0,0
1433726522,0.0,0.5812353,0.48120305,0.0,0.0,0.0,0.0,0.0,0.0,0.0,0,0,0,0,0,0,0,3,0,0,0,5,1,0,0
1433924001,0.0,0.5797468,0.48120305,0.0,0.0,0.0,0.0,0.0,0.0,0.0,0,0,0,0,0,0,0,3,0,0,0,5,1,0,0
1434142190,0.0,0.5772138,0.48120305,0.0,0.0,0.0,0.0,0.0,0.0,0.0,0,0,0,0,0,0,0,3,0,0,0,5,1,0,0
1434345528,0.0,0.5797301,0.48120305,0.0,0.0,0.0,0.0,0.0,0.0,0.0,0,0,0,0,0,0,0,3,0,0,0,5,1,0,0
1434539271,0.0,0.5872534,0.48120305,0.0,0.0,0.0,0.0,0.0,0.0,0.0,0,0,0,0,0,0,0,3,0,0,0,5,1,0,0
1434736291,0.0,0.58734125,0.48120305,0.0,0.0,0.0,0.0,0.0,0.0,0.0,0,0,0,0,0,0,0,3,0,0,0,5,1,0,0
1434936721,-0.0006150545,0.5896269,0.48120305,0.0,0.0,0.0,0.0,0.0,0.0,0.0,0,0,0,0,0,0,0,3,0,0,0,5,1,0,0
1435155263,-2.5376082e-07,0.5954427,0.48120305,0.0,0.0,0.0,0.0,0.0,0.0,0.0,0,0,0,0,0,0,0,3,0,0,0,5,1,0,0
1435353359,1.511807e-10,0.6025234,0.48120305,0.0,0.0,0.0,0.0,0.0,0.0,0.0,0,0,0,0,0,0,0,3,0,0,0,5,1,0,0
1435551255,-2.4501051e-14,0.6030546,0.48120305,0.0,0.0,0.0,0.0,0.0,0.0,0.0,0,0,0,0,0,0,0,3,0,0,0,5,1,0,0
1435750451,-4.2613344e-17,0.60778725,0.48120305,0.0,0.0,0.0,0.0,0.0,0.0,0.0,0,0,0,0,0,0,0,3,0,0,0,5,1,0,0
1435950125,4.755315e-20,0.61017567,0.48120305,0.0,0.0,0.0,0.0,0.0,0.0,0.0,0,0,0,0,0,0,0,3,0,0,0,5,1,0,0
1436167021,3.9102246e-24,0.61012655,0.48120305,0.0,0.0,0.0,0.0,0.0,0.0,0.0,0,0,0,0,0,0,0,3,0,0,0,5,1,0,0
1436366256,-8.086111e-27,0.61012655,0.48120305,0.0,0.0,0.0,0.0,0.0,0.0,0.0,0,0,0,0,0,0,0,3,0,0,0,5,1,0,0
1436563685,5.4004287e-30,0.61012655,0.48120305,0.0,0.0,0.0,0.0,0.0,0.0,0.0,0,0,0,0,0,0,0,3,0,0,0,5,1,0,0
1436762256,-1.2894617e-33,0.6128023,0.48120305,0.0,0.0,0.0,0.0,0.0,0.0,0.0,0,0,0,0,0,0,0,3,0,0,0,5,1,0,0
1436960401,-0.012594097,0.6118394,0.48120305,0.0,0.0,0.0,0.0,0.0,0.0,0.0,0,0,0,0,0,0,0,3,0,0,0,5,1,0,0
1437178100,-0.015427185,0.61442006,0.48120305,0.0,0.0,0.0,0.0,0.0,0.0,0.0,0,0,0,0,0,0,0,3,0,0,0,5,1,0,0
1437378345,-0.0160491,0.61518985,0.48120305,0.0,0.0,0.0,0.0,0.0,0.0,0.0,0,0,0,0,0,0,0,3,0,0,0,5,1,0,0
1437577307,-0.0126409875,0.61518985,0.48120305,0.0,0.0,0.0,0.0,0.0,0.0,0.0,0,0,0,0,0,0,0,3,0,0,0,5,1,0,0
1437774103,-0.005276598,0.6206351,0.48120305,0.0,0.0,0.0,0.0,0.0,0.0,0.0,0,0,0,0,0,0,0,3,0,0,0,5,1,0,0
1437970269,-0.00058027,0.62276787,0.48120305,0.0,0.0,0.0,0.0,0.0,0.0,0.0,0,0,0,0,0,0,0,3,0,0,0,5,1,0,0
1438190515,-2.406185e-07,0.62102365,0.48120305,0.0,0.0,0.0,0.0,0.0,0.0,0.0,0,0,0,0,0,0,0,3,0,0,0,5,1,0,0
1438368268,3.0290384e-10,0.62025183,0.48120305,0.0,0.0,0.0,0.0,0.0,0.0,0.0,0,0,0,0,0,0,0,3,0,0,0,5,1,0,0
1438587268,-2.2845539e-14,0.622834,0.48120305,0.0,0.0,0.0,0.0,0.0,0.0,0.0,0,0,0,0,0,0,0,3,0,0,0,5,1,0,0
1438786992,-4.0556176e-17,0.62529725,0.48120305,0.0,0.0,0.0,0.0,0.0,0.0,0.0,0,0,0,0,0,0,0,3,0,0,0,5,1,0,0
1438984550,4.5057423e-20,0.62856203,0.48120305,0.0,0.0,0.0,0.0,0.0,0.0,0.0,0,0,0,0,0,0,0,3,0,0,0,5,1,0,0
1439204742,3.746612e-24,0.635661,0.48120305,0.0,0.0,0.0,0.0,0.0,0.0,0.0,0,0,0,0,0,0,0,3,0,0,0,5,1,0,0
1439400608,-7.67127e-27,0.6354139,0.48120305,0.0,0.0,0.0,0.0,0.0,0.0,0.0,0,0,0,0,0,0,0,3,0,0,0,5,1,0,0
1439600550,5.107712e-30,0.6379555,0.48120305,0.0,0.0,0.0,0.0,0.0,0.0,0.0,0,0,0,0,0,0,0,3,0,0,0,5,1,0,0
1439798208,-1.2096461e-33,0.6379747,0.48120305,0.0,0.0,0.0,0.0,0.0,0.0,0.0,0,0,0,0,0,0,0,3,0,0,0,5,1,0,0
1439997600,-1.10651406e-36,0.638114,0.48120305,0.0,0.0,0.0,0.0,0.0,0.0,0.0,0,0,0,0,0,0,0,3,0,0,0,5,1,0,0
1440215035,4.19814e-40,0.63796985,0.48120305,0.0,0.0,0.0,0.0,0.0,0.0,0.0,0,0,0,0,0,0,0,3,0,0,0,5,1,0,0
1440414197,7.1e-44,0.638114,0.48120305,0.0,0.0,0.0,0.0,0.0,0.0,0.0,0,0,0,0,0,0,0,3,0,0,0,5,1,0,0
1440611320,0.0,0.6384832,0.48120305,0.0,0.0,0.0,0.0,0.0,0.0,0.0,0,0,0,0,0,0,0,3,0,0,0,5,1,0,0
1440809261,0.0,0.6461837,0.48120305,0.0,0.0,0.0,0.0,0.0,0.0,0.0,0,0,0,0,0,0,0,3,0,0,0,5,1,0,0
1441008649,0.0,0.6533837,0.48120305,0.0,0.0,0.0,0.0,0.0,0.0,0.0,0,0,0,0,0,0,0,3,0,0,0,5,1,0,0
1441205494,0.0,0.65368706,0.48120305,0.0,0.0,0.0,0.0,0.0,0.0,0.0,0,0,0,0,0,0,0,3,0,0,0,5,1,0,0
1441426343,0.0,0.6583369,0.48120305,0.0,0.0,0.0,0.0,0.0,0.0,0.0,0,0,0,0,0,0,0,3,0,0,0,5,1,0,0
1441625083,0.0,0.65836686,0.48120305,0.0,0.0,0.0,0.0,0.0,0.0,0.0,0,0,0,0,0,0,0,3,0,0,0,5,1,0,0
1441827922,0.0,0.65822774,0.48120305,0.0,0.0,0.0,0.0,0.0,0.0,0.0,0,0,0,0,0,0,0,3,0,0,0,5,1,0,0
1442018185,0.0,0.6582963,0.48120305,0.0,0.0,0.0,0.0,0.0,0.0,0.0,0,0,0,0,0,0,0,3,0,0,0,5,1,0,0
1442239796,0.0,0.6583696,0.48120305,0.0,0.0,0.0,0.0,0.0,0.0,0.0,0,0,0,0,0,0,0,3,0,0,0,5,1,0,0
1442438272,0.0,0.65828186,0.48120305,0.0,0.0,0.0,0.0,0.0,0.0,0.0,0,0,0,0,0,0,0,3,0,0,0,5,1,0,0
1442635514,0.0,0.6582254,0.48120305,0.0,0.0,0.0,0.0,0.0,0.0,0.0,0,0,0,0,0,0,0,3,0,0,0,5,1,0,0
1442836642,0.0,0.65822786,0.48120305,0.0,0.0,0.0,0.0,0.0,0.0,0.0,0,0,0,0,0,0,0,3,0,0,0,5,1,0,0
1443032984,0.0,0.65835524,0.48120305,0.0,0.0,0.0,0.0,0.0,0.0,0.0,0,0,0,0,0,0,0,3,0,0,0,5,1,0,0
1443250593,0.0,0.6577024,0.48120305,0.0,0.0,0.0,0.0,0.0,0.0,0.0,0,0,0,0,0,0,0,3,0,0,0,5,1,0,0
1443449377,0.0,0.65571404,0.48120305,0.0,0.0,0.0,0.0,0.0,0.0,0.0,0,0,0,0,0,0,0,3,0,0,0,5,1,0,0
1443646270,0.0,0.6531813,0.48120305,0.0,0.0,0.0,0.0,0.0,0.0,0.0,0,0,0,0,0,0,0,3,0,0,0,5,1,0,0
1443845444,0.0,0.60053325,0.48120305,0.0,0.0,0.0,0.0,0.0,0.0,0.0,0,0,0,0,0,0,0,3,0,0,0,5,1,0,0
1444042234,0.0,0.28428558,0.48120305,0.0,0.0,0.0,0.0,0.0,0.0,0.0,0,0,0,0,0,0,0,3,0,0,0,5,1,0,0
1444264261,0.0,0.00038593833,0.48120305,0.0,0.0,0.0,0.0,0.0,0.0,0.0,0,0,0,0,0,0,0,3,0,0,0,5,1,0,0
1444462347,0.0,-4.068882e-07,0.48120305,0.0,0.0,0.0,0.0,0.0,0.0,0.0,0,0,0,0,0,0,0,3,0,0,0,5,1,0,0
1444658426,0.0,1.9167094e-10,0.48120305,0.0,0.0,0.0,0.0,0.0,0.0,0.0,0,0,0,0,0,0,0,3,0,0,0,5,1,0,0
1445055367,0.0,-8.5480083e-17,0.48120305,0.0,0.0,0.0,0.0,0.0,0.0,0.0,0,0,0,0,0,0,0,3,0,0,0,5,1,0,0
1445473342,0.0,1.07243526e-23,0.48120305,0.0,0.0,0.0,0.0,0.0,0.0,0.0,0,0,0,0,0,0,0,3,0,0,0,5,1,0,0
1445672515,0.0,-1.34167e-26,0.48120305,0.0,0.0,0.0,0.0,0.0,0.0,0.0,0,0,0,0,0,0,0,3,0,0,0,5,1,0,0
1445870454,0.0,7.167357e-30,0.48120305,0.0,0.0,0.0,0.0,0.0,0.0,0.0,0,0,0,0,0,0,0,3,0,0,0,5,1,0,0
1446090246,0.0,2.212319e-33,0.48120305,0.0,0.0,0.0,0.0,0.0,0.0,0.0,0,0,0,0,0,0,0,3,0,0,0,5,1,0,0
1446486045,0.0,4.51746e-40,0.48120305,0.0,0.0,0.0,0.0,0.0,0.0,0.0,0,0,0,0,0,0,0,3,0,0,0,5,1,0,0
1446682166,0.0,2.77e-43,0.48120305,0.0,0.0,0.0,0.0,0.0,0.0,0.0,0,0,0,0,0,0,0,3,0,0,0,5,1,0,0
1446880738,0.0,0.0,0.48120305,0.0,0.0,0.0,0.0,0.0,0.0,0.0,0,0,0,0,0,0,0,3,0,0,0,5,1,0,0
1447101272,0.0,0.0,0.48120305,0.0,0.0,0.0,0.0,0.0,0.0,0.0,0,0,0,0,0,0,0,3,0,0,0,5,1,0,0
1447501303,0.0,0.0,0.48120305,0.0,0.0,0.0,0.0,0.0,0.0,0.0,0,0,0,0,0,0,0,3,0,0,0,5,1,0,0
1447694261,0.0,0.0,0.48120305,0.0,0.0,0.0,0.0,0.0,0.0,0.0,0,0,0,0,0,0,0,3,0,0,0,5,1,0,0
1447893204,-0.45575768,0.0,0.48120305,0.0,0.0,0.0,0.0,0.0,0.0,0.0,0,0,0,0,0,0,0,3,0,0,0,5,1,0,0
1448091274,-0.5582897,0.0,0.48120305,0.0,0.0,0.0,0.0,0.0,0.0,0.0,0,0,0,0,0,0,0,3,0,0,0,5,1,0,0
1448314912,-0.56467396,0.0036607715,0.48120305,0.0,0.0,0.0,0.0,0.0,0.0,0.0,0,0,0,0,0,0,0,3,0,0,0,5,1,0,0
1448510081,-0.57281846,0.03657902,0.48120305,0.0,0.0,0.0,0.0,0.0,0.0,0.0,0,0,0,0,0,0,0,3,0,0,0,5,1,0,0
1448708124,-0.60762775,0.057044238,0.48120305,0.0,0.0,0.0,0.0,0.0,0.0,0.0,0,0,0,0,0,0,0,3,0,0,0,5,1,0,0
1448908645,-0.62738055,0.18792942,0.48120305,0.0,0.0,0.0,0.0,0.0,0.0,0.0,0,0,0,0,0,0,0,3,0,0,0,5,1,0,0
1449103264,-0.6528987,0.25671014,0.48120305,0.0,0.0,0.0,0.0,0.0,0.0,0.0,0,0,0,0,0,0,0,3,0,0,0,5,1,0,0
1449325758,-0.6369642,0.2709794,0.48120305,0.0,0.0,0.0,0.0,0.0,0.0,0.0,0,0,0,0,0,0,0,3,0,0,0,5,1,0,0
1449520334,-0.6293597,0.27945662,0.48120305,0.0,0.0,0.0,0.0,0.0,0.0,0.0,0,0,0,0,0,0,0,3,0,0,0,5,1,0,0
1449720500,-0.6241717,0.28370672,0.48120305,0.0,0.0,0.0,0.0,0.0,0.0,0.0,0,0,0,0,0,0,0,3,0,0,0,5,1,0,0
1449918893,-0.6243656,0.2782264,0.48120305,0.0,0.0,0.0,0.0,0.0,0.0,0.0,0,0,0,0,0,0,0,3,0,0,0,5,1,0,0
1450114133,-0.62436557,0.27146247,0.48120305,0.0,0.0,0.0,0.0,0.0,0.0,0.0,0,0,0,0,0,0,0,3,0,0,0,5,1,0,0
1450534888,-0.6243655,0.17789604,0.48120305,0.0,0.0,0.0,0.0,0.0,0.0,0.0,0,0,0,0,0,0,0,3,0,0,0,5,1,0,0
1450730372,-0.62488985,0.026693404,0.48120305,0.0,0.0,0.0,0.0,0.0,0.0,0.0,0,0,0,0,0,0,0,3,0,0,0,5,1,0,0
1450928655,-0.64465445,-1.3218642e-05,0.48120305,0.0,0.0,0.0,0.0,0.0,0.0,0.0,0,0,0,0,0,0,0,3,0,0,0,5,1,0,0
1451127269,-0.6057557,2.351613e-10,0.48120305,0.0,0.0,0.0,0.0,0.0,0.0,0.0,0,0,0,0,0,0,0,3,0,0,0,5,1,0,0
1451347699,-0.5913666,3.0378723e-12,0.48120305,0.0,0.0,0.0,0.0,0.0,0.0,0.0,0,0,0,0,0,0,0,3,0,0,0,5,1,0,0
1451545272,-0.60866165,-7.321988e-16,0.48120305,0.0,0.0,0.0,0.0,0.0,0.0,0.0,0,0,0,0,0,0,0,3,0,0,0,5,1,0,0
1451742292,-0.60966146,-6.4698976e-19,0.48120305,0.0,0.0,0.0,0.0,0.0,0.0,0.0,0,0,0,0,0,0,0,3,0,0,0,5,1,0,0
1451941227,-0.6454723,8.74457e-22,0.48120305,0.0,0.0,0.0,0.0,0.0,0.0,0.0,0,0,0,0,0,0,0,3,0,0,0,5,1,0,0
1452138298,-0.6522473,-4.8915086e-25,0.48120305,0.0,0.0,0.0,0.0,0.0,0.0,0.0,0,0,0,0,0,0,0,3,0,0,0,5,1,0,0
1452358456,-0.6548237,-1.414252e-28,0.48120305,0.0,0.0,0.0,0.0,0.0,0.0,0.0,0,0,0,0,0,0,0,3,0,0,0,5,1,0,0
1452559039,-0.6591294,1.0638492e-31,0.48120305,0.0,0.0,0.0,0.0,0.0,0.0,0.0,0,0,0,0,0,0,0,3,0,0,0,5,1,0,0
1452754927,-0.68366826,-3.2963846e-35,0.48120305,0.0,0.0,0.0,0.0,0.0,0.0,0.0,0,0,0,0,0,0,0,3,0,0,0,5,1,0,0
1452953255,-0.6905141,-1.6267964e-38,0.48120305,0.0,0.0,0.0,0.0,0.0,0.0,0.0,0,0,0,0,0,0,0,3,0,0,0,5,1,0,0
1453372321,-0.69289094,1e-45,0.48120305,0.0,0.0,0.0,0.0,0.0,0.0,0.0,0,0,0,0,0,0,0,3,0,0,0,5,1,0,0
1453568113,-0.69236904,0.0,0.48120305,0.0,0.0,0.0,0.0,0.0,0.0,0.0,0,0,0,0,0,0,0,3,0,0,0,5,1,0,0
1453768842,-0.69035393,0.0,0.48120305,0.0,0.0,0.0,0.0,0.0,0.0,0.0,0,0,0,0,0,0,0,3,0,0,0,5,1,0,0
1454166421,-0.50744617,0.0,0.48120305,0.0,0.0,0.0,0.0,0.0,0.0,0.0,0,0,0,0,0,0,0,3,0,0,0,5,1,0,0
1454362223,-0.0015191855,0.0,0.48120305,0.0,0.0,0.0,0.0,0.0,0.0,0.0,0,0,0,0,0,0,0,3,0,0,0,5,1,0,0
1454588253,2.2898669e-07,0.0,0.48120305,0.0,0.0,0.0,0.0,0.0,0.0,0.0,0,0,0,0,0,0,0,3,0,0,0,5,1,0,0
1454778338,1.7716986e-10,0.0,0.48120305,0.0,0.0,0.0,0.0,0.0,0.0,0.0,0,0,0,0,0,0,0,3,0,0,0,5,1,0,0
1454977255,-2.5151533e-13,0.0,0.48120305,-0.41479436,0.0,0.0,0.0,0.0,0.0,0.0,0,0,0,0,0,0,0,3,0,0,0,5,1,0,0
1455196163,-9.492529e-18,0.0,0.48120305,-0.011364148,0.0,0.0,0.0,0.0,0.0,0.0,0,0,0,0,0,0,0,3,0,0,0,5,1,0,0
1455396142,4.0202677e-20,0.0,0.48120305,0.3031227,0.0,0.0,0.0,0.0,0.0,0.0,0,0,0,0,0,0,0,3,0,0,0,5,1,0,0
1455791214,1.008525e-26,0.0,0.48120305,-9.233429e-05,0.0,0.0,0.0,0.0,0.0,0.0,0,0,0,0,0,0,0,3,0,0,0,5,1,0,0
1455989200,4.3475634e-30,0.0,0.48120305,1.3263187e-07,0.0,0.0,0.0,0.0,0.0,0.0,0,0,0,0,0,0,0,3,0,0,0,5,1,0,0
1456186342,-8.062359e-33,-0.019482326,0.48120305,-7.664487e-11,0.0,0.0,0.0,0.0,0.0,0.0,0,0,0,0,0,0,0,3,0,0,0,5,1,0,0
1456604187,1.217839e-39,-0.31356743,0.48120305,1.643599e-17,0.0,0.0,0.0,0.0,0.0,0.0,0,0,0,0,0,0,0,3,0,0,0,5,1,0,0
1456802129,-1.064e-42,-0.3908419,0.48120305,-5.392273e-21,0.0,0.0,0.0,0.0,0.0,0.0,0,0,0,0,0,0,0,3,0,0,0,5,1,0,0
1457000289,0.0,-0.4403117,0.48120305,-2.2519906e-24,0.0,0.0,0.0,0.0,0.0,0.0,0,0,0,0,0,0,0,3,0,0,0,5,1,0,0
1457221157,0.0,-0.49926555,0.48120305,1.5344169e-27,0.0,0.0,0.0,0.0,0.0,0.0,0,0,0,0,0,0,0,3,0,0,0,5,1,0,0
1457420287,0.0,-0.5144277,0.48120305,-1.1400878e-32,0.0,0.0,0.0,0.0,0.0,0.0,0,0,0,0,0,0,0,3,0,0,0,5,1,0,0
1457617261,0.0,-0.5671483,0.48120305,-6.3954024e-34,0.0,0.0,0.0,0.0,0.0,0.0,0,0,0,0,0,0,0,3,0,0,0,5,1,0,0
1457814272,0.0,-0.6034119,0.48120305,5.6285756e-37,0.0,0.0,0.0,0.0,0.0,0.0,0,0,0,0,0,0,0,3,0,0,0,5,1,0,0
1458015082,-0.0085733645,-0.60741866,0.48120305,-2.20419e-40,0.0,0.0,0.0,0.0,0.0,0.0,0,0,0,0,0,0,0,3,0,0,0,5,1,0,0
1458234983,-0.04622425,-0.6428872,0.48120305,-1.02e-43,0.0,0.0,0.0,0.0,0.0,0.0,0,0,0,0,0,0,0,3,0,0,0,5,1,0,0
1458431124,-0.092136286,-0.6759636,0.48120305,0.0,0.0,0.0,0.0,0.0,0.0,0.0,0,0,0,0,0,0,0,3,0,0,0,5,1,0,0
1458635887,-0.13566351,-0.6947947,0.48120305,0.0,0.0,0.0,0.0,0.0,0.0,0.0,0,0,0,0,0,0,0,3,0,0,0,5,1,0,0
1458827266,-0.1716577,-0.69014883,0.48120305,0.0,0.0,0.0,0.0,0.0,0.0,0.0,0,0,0,0,0,0,0,3,0,0,0,5,1,0,0
1459024308,-0.20509864,-0.65726227,0.48120305,0.0,0.0,0.0,0.0,0.0,0.0,0.0,0,0,0,0,0,0,0,3,0,0,0,5,1,0,0
1459246079,-0.20558365,-0.648953,0.48120305,0.0,0.0,0.0,0.0,0.0,0.0,0.0,0,0,0,0,0,0,0,3,0,0,0,5,1,0,0
1459444993,-0.23283435,-0.6361241,0.48120305,0.0,0.0,0.0,0.0,0.0,0.0,0.0,0,0,0,0,0,0,0,3,0,0,0,5,1,0,0
1459641891,-0.26736355,-0.6386439,0.48120305,0.0,0.0,0.0,0.0,0.0,0.0,0.0,0,0,0,0,0,0,0,3,0,0,0,5,1,0,0
1459839266,-0.30114475,-0.63771135,0.48120305,0.0,0.0,0.0,0.0,0.0,0.0,0.0,0,0,0,0,0,0,0,3,0,0,0,5,1,0,0
1460037531,-0.3037972,-0.63613003,0.48120305,0.0,0.0,0.0,0.0,0.0,0.0,0.0,0,0,0,0,0,0,0,3,0,0,0,5,1,0,0
1460257225,-0.3020278,-0.6361323,0.48120305,0.0,0.0,0.0,0.0,0.0,0.0,0.0,0,0,0,0,0,0,0,3,0,0,0,5,1,0,0
1460454180,-0.2989657,-0.61705416,0.48120305,0.0,0.0,0.0,0.0,0.0,0.0,0.0,0,0,0,0,0,0,0,3,0,0,0,5,1,0,0
1460654099,-0.2791241,-0.5689509,0.48120305,0.0,0.0,0.0,0.0,0.0,0.0,0.0,0,0,0,0,0,0,0,3,0,0,0,5,1,0,0
1460851824,-0.2584886,-0.5180932,0.48120305,0.0,0.0,0.0,0.0,0.0,0.0,0.0,0,0,0,0,0,0,0,3,0,0,0,5,1,0,0
1461049261,-0.25636187,-0.5314833,0.48120305,0.0,0.0,0.0,0.0,0.0,0.0,0.0,0,0,0,0,0,0,0,3,0,0,0,5,1,0,0
1461268628,-0.2621347,-0.5876506,0.48120305,0.0,0.0,0.0,0.0,0.0,0.0,0.0,0,0,0,0,0,0,0,3,0,0,0,5,1,0,0
1461468301,-0.26395968,-0.587785,0.48120305,0.0,0.0,0.0,0.0,0.0,0.0,0.0,0,0,0,0,0,0,0,3,0,0,0,5,1,0,0
1461664974,-0.26484007,-0.587575,0.48120305,0.0,0.0,0.0,0.0,0.0,0.0,0.0,0,0,0,0,0,0,0,3,0,0,0,5,1,0,0
1461863261,-0.26381704,-0.5850499,0.48120305,0.0,0.0,0.0,0.0,0.0,0.0,0.0,0,0,0,0,0,0,0,3,0,0,0,5,1,0,0
1462062801,-0.26398113,-0.5771189,0.48120305,0.0,0.0,0.0,0.0,0.0,0.0,0.0,0,0,0,0,0,0,0,3,0,0,0,5,1,0,0
1462258261,-0.2604261,-0.50584126,0.48120305,0.0,0.0,0.0,0.0,0.0,0.0,0.0,0,0,0,0,0,0,0,3,0,0,0,5,1,0,0
1462478925,-0.25457665,-0.50015736,0.48120305,0.0,0.0,0.0,0.0,0.0,0.0,0.0,0,0,0,0,0,0,0,3,0,0,0,5,1,0,0
1462676262,-0.22291227,-0.4360757,0.48120305,0.0,0.0,0.0,0.0,0.0,0.0,0.0,0,0,0,0,0,0,0,3,0,0,0,5,1,0,0
1462874884,-0.21557608,-0.38617656,0.48120305,0.0,0.0,0.0,0.0,0.0,0.0,0.0,0,0,0,0,0,0,0,3,0,0,0,5,1,0,0
1463073189,-0.17172194,-0.33764195,0.48120305,0.0,0.0,0.0,0.0,0.0,0.0,0.0,0,0,0,0,0,0,0,3,0,0,0,5,1,0,0
1463292293,-0.13126767,-0.33054549,0.48120305,0.0,0.0,0.0,0.0,0.0,0.0,0.0,0,0,0,0,0,0,0,3,0,0,0,5,1,0,0
1463492832,-0.054127574,-0.30854604,0.48120305,0.0,0.0,0.0,0.0,0.0,0.0,0.0,0,0,0,0,0,0,0,3,0,0,0,5,1,0,0
1463689450,-0.00021778716,-0.38569278,0.48120305,0.0,0.0,0.0,0.0,0.0,0.0,0.0,0,0,0,0,0,0,0,3,0,0,0,5,1,0,0
1463888282,0.028362919,-0.5057801,0.48120305,0.0,0.0,0.0,0.0,0.0,0.0,0.0,0,0,0,0,0,0,0,3,0,0,0,5,1,0,0
1464086136,0.0057721534,-0.4390557,0.48120305,0.0,0.0,0.0,0.0,0.0,0.0,0.0,0,0,0,0,0,0,0,3,0,0,0,5,1,0,0
1464304653,-1.620315e-06,-0.41455993,0.48120305,0.0,0.0,0.0,0.0,0.0,0.0,0.0,0,0,0,0,0,0,0,3,0,0,0,5,1,0,0
1464503269,3.0849978e-10,-0.23827182,0.48120305,0.0,0.0,0.0,0.0,0.0,0.0,0.0,0,0,0,0,0,0,0,3,0,0,0,5,1,0,0
1464703100,4.1666507e-13,-0.0007829286,0.48120305,0.0,0.0,0.0,0.0,0.0,0.0,0.0,0,0,0,0,0,0,0,3,0,0,0,5,1,0,0
1464899057,-4.9414356e-16,7.15488e-07,0.4689241,0.0,0.0,0.0,0.0,0.0,0.0,0.0,0,0,0,0,0,0,0,3,0,0,0,5,1,0,0
1465100747,2.5479968e-19,-2.929021e-10,0.41635278,0.0,0.0,0.0,0.0,0.0,0.0,0.0,0,0,0,0,0,0,0,3,0,0,0,5,1,0,0
1465295948,-1.31647135e-23,-4.727965e-14,0.36364052,0.0,0.0,0.0,0.0,0.0,0.0,0.0,0,0,0,0,0,0,0,3,0,0,0,5,1,0,0
1465518367,-5.747217e-26,7.391303e-17,0.32428962,0.0,0.0,0.0,0.0,0.0,0.0,0.0,0,0,0,0,0,0,0,3,0,0,0,5,1,0,0
1465713262,-0.026442451,-0.02697829,0.3207782,0.0,0.0,0.0,0.0,0.0,0.0,0.0,0,0,0,0,0,0,0,3,0,0,0,5,1,0,0
1465913147,-0.15070096,-0.19696108,0.31829813,0.0,0.0,0.0,0.0,0.0,0.0,0.0,0,0,0,0,0,0,0,3,0,0,0,5,1,0,0
1466108117,-0.15801916,-0.14808586,0.31704143,0.0,0.0,0.0,0.0,0.0,0.0,0.0,0,0,0,0,0,0,0,3,0,0,0,5,1,0,0
1466330272,-0.24800101,-0.14803179,0.31704262,0.0,0.0,0.0,0.0,0.0,0.0,0.0,0,0,0,0,0,0,0,3,0,0,0,5,1,0,0
1466532417,-0.24997313,-0.1705475,0.31704262,0.0,0.0,0.0,0.0,0.0,0.0,0.0,0,0,0,0,0,0,0,3,0,0,0,5,1,0,0
1466725767,-0.25385752,-0.2034985,0.31704262,0.0,0.0,0.0,0.0,0.0,0.0,0.0,0,0,0,0,0,0,0,3,0,0,0,5,1,0,0
1467122837,-0.22853003,-0.15875901,0.31704262,0.0,0.0,0.0,0.0,0.0,0.0,0.0,0,0,0,0,0,0,0,3,0,0,0,5,1,0,0
1467341357,-0.21899344,-0.15334572,0.31704262,0.0,0.0,0.0,0.0,0.0,0.0,0.0,0,0,0,0,0,0,0,3,0,0,0,5,1,0,0
1467540958,-0.21838576,-0.15631697,0.31704262,0.0,0.0,0.0,0.0,0.0,0.0,0.0,0,0,0,0,0,0,0,3,0,0,0,5,1,0,0
1467737427,-0.2545407,-0.15334897,0.31704262,0.0,0.0,0.0,0.0,0.0,0.0,0.0,0,0,0,0,0,0,0,3,0,0,0,5,1,0,0
1468154692,-0.25557372,-0.17630064,0.31704262,0.0,0.0,0.0,0.0,0.0,0.0,0.0,0,0,0,0,0,0,0,3,0,0,0,5,1,0,0
1468354926,-0.2538239,-0.17557098,0.31704262,0.0,0.0,0.0,0.0,0.0,0.0,0.0,0,0,0,0,0,0,0,3,0,0,0,5,1,0,0
1468550354,-0.2538071,-0.17609815,0.31704262,0.0,0.0,0.0,0.0,0.0,0.0,0.0,0,0,0,0,0,0,0,3,0,0,0,5,1,0,0
1468750981,-0.2538071,-0.18830611,0.31704262,0.0,0.0,0.0,0.0,0.0,0.0,0.0,0,0,0,0,0,0,0,3,0,0,0,5,1,0,0
1468947308,-0.24863848,-0.19255203,0.31704262,0.0,0.0,0.0,0.0,0.0,0.0,0.0,0,0,0,0,0,0,0,3,0,0,0,5,1,0,0
1469146272,-0.24495313,-0.18652081,0.31704262,0.0,0.0,0.0,0.0,0.0,0.0,0.0,0,0,0,0,0,0,0,3,0,0,0,5,1,0,0
1469564633,-0.22335085,-0.16528545,0.31704262,0.0,0.0,0.0,0.0,0.0,0.0,0.0,0,0,0,0,0,0,0,3,0,0,0,5,1,0,0
1469761266,-0.22335024,-0.16021536,0.31704262,0.0,0.0,0.0,0.0,0.0,0.0,0.0,0,0,0,0,0,0,0,3,0,0,0,5,1,0,0
1470158230,-0.25405988,-0.00047327462,0.31704262,0.0,0.0,0.0,0.0,0.0,0.0,0.0,0,0,0,0,0,0,0,3,0,0,0,5,1,0,0
1470376717,-0.26416105,-1.9522338e-08,0.31704262,0.0,0.0,0.0,0.0,0.0,0.0,0.0,0,0,0,0,0,0,0,3,0,0,0,5,1,0,0
1470575501,-0.25474602,7.602985e-11,0.31704262,0.0,0.0,0.0,0.0,0.0,0.0,0.0,0,0,0,0,0,0,0,3,0,0,0,5,1,0,0
1470772395,-0.13562846,0.023044454,0.31704262,0.0,0.0,0.0,0.0,0.0,0.0,0.0,0,0,0,0,0,0,0,3,0,0,0,5,1,0,0
1471169262,-9.17578e-08,1.414895e-05,0.31704262,0.0,0.0,0.0,0.0,0.0,0.0,0.0,0,0,0,0,0,0,0,3,0,0,0,5,1,0,0
1471366316,0.059934504,4.3664077e-08,0.31704262,0.0,0.0,0.0,0.0,0.0,0.0,0.0,0,0,0,0,0,0,0,3,0,0,0,5,1,0,0
1471586260,0.14042245,-8.772748e-12,0.31704262,0.0,0.0,0.0,0.0,0.0,0.0,0.0,0,0,0,0,0,0,0,3,0,0,0,5,1,0,0
1471786345,-0.0037059046,-0.11441998,0.31704262,0.0,0.0,0.0,0.0,0.0,0.0,0.0,0,0,0,0,0,0,0,3,0,0,0,5,1,0,0
1471982263,1.502695e-06,-0.12688896,0.31704262,0.0,0.0,0.0,0.0,0.0,0.0,0.0,0,0,0,0,0,0,0,3,0,0,0,5,1,0,0
1472182308,2.5745697e-10,-0.019085206,0.31704262,0.0,0.0,0.0,0.0,0.0,0.0,0.0,0,0,0,0,0,0,0,3,0,0,0,5,1,0,0
1472379681,-0.08043223,-0.015915079,0.31704262,0.0,0.0,0.0,0.0,0.0,0.0,0.0,0,0,0,0,0,0,0,3,0,0,0,5,1,0,0
1472598163,-0.15982224,-1.4008732e-05,0.31704262,0.0,0.0,0.0,0.0,0.0,0.0,0.0,0,0,0,0,0,0,0,3,0,0,0,5,1,0,0
1472796622,-0.059080876,-1.414307e-08,0.31704262,0.0,0.0,0.0,0.0,0.0,0.0,0.0,0,0,0,0,0,0,0,3,0,0,0,5,1,0,0
1472995604,-0.042808145,-0.041133415,0.31704262,0.0,0.0,0.0,0.0,0.0,0.0,0.0,0,0,0,0,0,0,0,3,0,0,0,5,1,0,0
1473194258,-0.05341139,-0.03965891,0.31704262,0.0,0.0,0.0,0.0,0.0,0.0,0.0,0,0,0,0,0,0,0,3,0,0,0,5,1,0,0
1473391882,-0.050711818,-9.0243506e-05,0.31704262,0.0,0.0,0.0,0.0,0.0,0.0,0.0,0,0,0,0,0,0,0,3,0,0,0,5,1,0,0
1473809126,0.00037631972,0.13884723,0.29073498,0.0,0.0,0.0,0.0,0.0,0.0,0.0,0,0,0,0,0,0,0,3,0,0,0,5,1,0,0
1474205637,-0.13049392,0.03798484,0.29072437,0.0,0.0,0.0,0.0,0.0,0.0,0.0,0,0,0,0,0,0,0,3,0,0,0,5,1,0,0
1474403602,-0.13360389,0.16462559,0.2907607,0.0,0.0,0.0,0.0,0.0,0.0,0.0,0,0,0,0,0,0,0,3,0,0,0,5,1,0,0
1474602131,-0.13566801,0.11922857,0.29046795,0.0,0.0,0.0,0.0,0.0,0.0,0.0,0,0,0,0,0,0,0,3,0,0,0,5,1,0,0
1474799485,-0.123673186,0.13018566,0.29079747,0.0,0.0,0.0,0.0,0.0,0.0,0.0,0,0,0,0,0,0,0,3,0,0,0,5,1,0,0
1475021903,-0.08616897,0.112752594,0.29046795,0.0,0.0,0.0,0.0,0.0,0.0,0.0,0,0,0,0,0,0,0,3,0,0,0,5,1,0,0
1475216341,-0.08110677,0.10115515,0.28984797,0.0,0.0,0.0,0.0,0.0,0.0,0.0,0,0,0,0,0,0,0,3,0,0,0,5,1,0,0
1475414077,-0.062266696,-0.004187371,0.0,-0.054418597,0.0,0.0,0.0,0.0,0.0,0.0,0,0,0,0,0,0,0,3,0,0,0,5,1,0,0
1475614691,2.6271653e-05,1.6453744e-06,7.9212405e-06,-0.5423459,0.0,0.0,0.0,0.0,0.0,0.0,0,0,0,0,0,0,0,3,0,0,0,5,1,0,0
1476428144,-2.9035952e-18,1.3908952e-19,0.0,-1.0,0.0,0.0,0.0,0.0,0.0,0.0,0,0,0,0,0,0,0,3,0,0,0,5,1,0,0
1476627280,5.6126623e-22,-1.4098321e-22,0.0,-1.0,0.0,0.0,0.0,0.0,0.0,0.0,0,0,0,0,0,0,0,3,0,0,0,5,1,0,0
1476844289,6.032282e-25,-1.455189e-26,1.169657e-25,-1.0,0.0,0.0,0.0,0.0,0.0,0.0,0,0,0,0,0,0,0,3,0,0,0,5,1,0,0
1477240634,-6.059099e-32,-1.5350504e-32,0.0,-1.0,0.0,0.0,0.0,0.0,0.0,0.0,0,0,0,0,0,0,0,3,0,0,0,5,1,0,0
1477441501,1.4733999e-34,2.9594591e-36,3.664928e-35,-1.0,0.0,0.0,0.0,0.0,0.0,0.0,0,0,0,0,0,0,0,3,0,0,0,5,1,0,0
