timestamp,counter,esc_count,esc_connectiontype,_padding0[0],_padding0[1],_padding0[2],_padding0[3],esc[0].timestamp,esc[0].esc_errorcount,esc[0].esc_rpm,esc[0].esc_voltage,esc[0].esc_current,esc[0].esc_temperature,esc[0].esc_setpoint,esc[0].esc_setpoint_raw,esc[0].esc_address,esc[0].esc_version,esc[0].esc_state,esc[0].esc_vendor,esc[0]._padding0[0],esc[0]._padding0[1],esc[0]._padding0[2],esc[0]._padding0[3],esc[0]._padding0[4],esc[0]._padding0[5],esc[0]._padding0[6],esc[1].timestamp,esc[1].esc_errorcount,esc[1].esc_rpm,esc[1].esc_voltage,esc[1].esc_current,esc[1].esc_temperature,esc[1].esc_setpoint,esc[1].esc_setpoint_raw,esc[1].esc_address,esc[1].esc_version,esc[1].esc_state,esc[1].esc_vendor,esc[1]._padding0[0],esc[1]._padding0[1],esc[1]._padding0[2],esc[1]._padding0[3],esc[1]._padding0[4],esc[1]._padding0[5],esc[1]._padding0[6],esc[2].timestamp,esc[2].esc_errorcount,esc[2].esc_rpm,esc[2].esc_voltage,esc[2].esc_current,esc[2].esc_temperature,esc[2].esc_setpoint,esc[2].esc_setpoint_raw,esc[2].esc_address,esc[2].esc_version,esc[2].esc_state,esc[2].esc_vendor,esc[2]._padding0[0],esc[2]._padding0[1],esc[2]._padding0[2],esc[2]._padding0[3],esc[2]._padding0[4],esc[2]._padding0[5],esc[2]._padding0[6],esc[3].timestamp,esc[3].esc_errorcount,esc[3].esc_rpm,esc[3].esc_voltage,esc[3].esc_current,esc[3].esc_temperature,esc[3].esc_setpoint,esc[3].esc_setpoint_raw,esc[3].esc_address,esc[3].esc_version,esc[3].esc_state,esc[3].esc_vendor,esc[3]._padding0[0],esc[3]._padding0[1],esc[3]._padding0[2],esc[3]._padding0[3],esc[3]._padding0[4],esc[3]._padding0[5],esc[3]._padding0[6],esc[4].timestamp,esc[4].esc_errorcount,esc[4].esc_rpm,esc[4].esc_voltage,esc[4].esc_current,esc[4].esc_temperature,esc[4].esc_setpoint,esc[4].esc_setpoint_raw,esc[4].esc_address,esc[4].esc_version,esc[4].esc_state,esc[4].esc_vendor,esc[4]._padding0[0],esc[4]._padding0[1],esc[4]._padding0[2],esc[4]._padding0[3],esc[4]._padding0[4],esc[4]._padding0[5],esc[4]._padding0[6],esc[5].timestamp,esc[5].esc_errorcount,esc[5].esc_rpm,esc[5].esc_voltage,esc[5].esc_current,esc[5].esc_temperature,esc[5].esc_setpoint,esc[5].esc_setpoint_raw,esc[5].esc_address,esc[5].esc_version,esc[5].esc_state,esc[5].esc_vendor,esc[5]._padding0[0],esc[5]._padding0[1],esc[5]._padding0[2],esc[5]._padding0[3],esc[5]._padding0[4],esc[5]._padding0[5],esc[5]._padding0[6],esc[6].timestamp,esc[6].esc_errorcount,esc[6].esc_rpm,esc[6].esc_voltage,esc[6].esc_current,esc[6].esc_temperature,esc[6].esc_setpoint,esc[6].esc_setpoint_raw,esc[6].esc_address,esc[6].esc_version,esc[6].esc_state,esc[6].esc_vendor,esc[6]._padding0[0],esc[6]._padding0[1],esc[6]._padding0[2],esc[6]._padding0[3],esc[6]._padding0[4],esc[6]._padding0[5],esc[6]._padding0[6],esc[7].timestamp,esc[7].esc_errorcount,esc[7].esc_rpm,esc[7].esc_voltage,esc[7].esc_current,esc[7].esc_temperature,esc[7].esc_setpoint,esc[7].esc_setpoint_raw,esc[7].esc_address,esc[7].esc_version,esc[7].esc_state,esc[7].esc_vendor,esc[7]._padding0[0],esc[7]._padding0[1],esc[7]._padding0[2],esc[7]._padding0[3],esc[7]._padding0[4],esc[7]._padding0[5],esc[7]._padding0[6]
1398990729,19340,4,1,0,0,0,0,0,0,5796,0.0,0.0,0.0,0.0,0,0,0,0,3,0,0,0,0,0,0,0,0,0,6543,0.0,0.0,0.0,0.0,0,0,0,0,3,0,0,0,0,0,0,0,0,0,6177,0.0,0.0,0.0,0.0,0,0,0,0,3,0,0,0,0,0,0,0,0,0,6093,0.0,0.0,0.0,0.0,0,0,0,0,3,0,0,0,0,0,0,0,0,0,0,0.0,0.0,0.0,0.0,0,0,0,0,0,0,0,0,0,0,0,0,0,0,0,0.0,0.0,0.0,0.0,0,0,0,0,0,0,0,0,0,0,0,0,0,0,0,0.0,0.0,0.0,0.0,0,0,0,0,0,0,0,0,0,0,0,0,0,0,0,0.0,0.0,0.0,0.0,0,0,0,0,0,0,0,0,0,0,0,0
1402175035,20279,4,1,0,0,0,0,0,0,5846,0.0,0.0,0.0,0.0,0,0,0,0,3,0,0,0,0,0,0,0,0,0,6456,0.0,0.0,0.0,0.0,0,0,0,0,3,0,0,0,0,0,0,0,0,0,6176,0.0,0.0,0.0,0.0,0,0,0,0,3,0,0,0,0,0,0,0,0,0,6117,0.0,0.0,0.0,0.0,0,0,0,0,3,0,0,0,0,0,0,0,0,0,0,0.0,0.0,0.0,0.0,0,0,0,0,0,0,0,0,0,0,0,0,0,0,0,0.0,0.0,0.0,0.0,0,0,0,0,0,0,0,0,0,0,0,0,0,0,0,0.0,0.0,0.0,0.0,0,0,0,0,0,0,0,0,0,0,0,0,0,0,0,0.0,0.0,0.0,0.0,0,0,0,0,0,0,0,0,0,0,0,0
1402426898,20354,4,1,0,0,0,0,0,0,5828,0.0,0.0,0.0,0.0,0,0,0,0,3,0,0,0,0,0,0,0,0,0,6435,0.0,0.0,0.0,0.0,0,0,0,0,3,0,0,0,0,0,0,0,0,0,6141,0.0,0.0,0.0,0.0,0,0,0,0,3,0,0,0,0,0,0,0,0,0,6107,0.0,0.0,0.0,0.0,0,0,0,0,3,0,0,0,0,0,0,0,0,0,0,0.0,0.0,0.0,0.0,0,0,0,0,0,0,0,0,0,0,0,0,0,0,0,0.0,0.0,0.0,0.0,0,0,0,0,0,0,0,0,0,0,0,0,0,0,0,0.0,0.0,0.0,0.0,0,0,0,0,0,0,0,0,0,0,0,0,0,0,0,0.0,0.0,0.0,0.0,0,0,0,0,0,0,0,0,0,0,0,0
1402679771,20428,4,1,0,0,0,0,0,0,5893,0.0,0.0,0.0,0.0,0,0,0,0,3,0,0,0,0,0,0,0,0,0,6391,0.0,0.0,0.0,0.0,0,0,0,0,3,0,0,0,0,0,0,0,0,0,6138,0.0,0.0,0.0,0.0,0,0,0,0,3,0,0,0,0,0,0,0,0,0,6139,0.0,0.0,0.0,0.0,0,0,0,0,3,0,0,0,0,0,0,0,0,0,0,0.0,0.0,0.0,0.0,0,0,0,0,0,0,0,0,0,0,0,0,0,0,0,0.0,0.0,0.0,0.0,0,0,0,0,0,0,0,0,0,0,0,0,0,0,0,0.0,0.0,0.0,0.0,0,0,0,0,0,0,0,0,0,0,0,0,0,0,0,0.0,0.0,0.0,0.0,0,0,0,0,0,0,0,0,0,0,0,0
1402931787,20503,4,1,0,0,0,0,0,0,5866,0.0,0.0,0.0,0.0,0,0,0,0,3,0,0,0,0,0,0,0,0,0,6401,0.0,0.0,0.0,0.0,0,0,0,0,3,0,0,0,0,0,0,0,0,0,6146,0.0,0.0,0.0,0.0,0,0,0,0,3,0,0,0,0,0,0,0,0,0,6147,0.0,0.0,0.0,0.0,0,0,0,0,3,0,0,0,0,0,0,0,0,0,0,0.0,0.0,0.0,0.0,0,0,0,0,0,0,0,0,0,0,0,0,0,0,0,0.0,0.0,0.0,0.0,0,0,0,0,0,0,0,0,0,0,0,0,0,0,0,0.0,0.0,0.0,0.0,0,0,0,0,0,0,0,0,0,0,0,0,0,0,0,0.0,0.0,0.0,0.0,0,0,0,0,0,0,0,0,0,0,0,0
1403184484,20577,4,1,0,0,0,0,0,0,5860,0.0,0.0,0.0,0.0,0,0,0,0,3,0,0,0,0,0,0,0,0,0,6420,0.0,0.0,0.0,0.0,0,0,0,0,3,0,0,0,0,0,0,0,0,0,6163,0.0,0.0,0.0,0.0,0,0,0,0,3,0,0,0,0,0,0,0,0,0,6131,0.0,0.0,0.0,0.0,0,0,0,0,3,0,0,0,0,0,0,0,0,0,0,0.0,0.0,0.0,0.0,0,0,0,0,0,0,0,0,0,0,0,0,0,0,0,0.0,0.0,0.0,0.0,0,0,0,0,0,0,0,0,0,0,0,0,0,0,0,0.0,0.0,0.0,0.0,0,0,0,0,0,0,0,0,0,0,0,0,0,0,0,0.0,0.0,0.0,0.0,0,0,0,0,0,0,0,0,0,0,0,0
1403437400,20652,4,1,0,0,0,0,0,0,5858,0.0,0.0,0.0,0.0,0,0,0,0,3,0,0,0,0,0,0,0,0,0,6414,0.0,0.0,0.0,0.0,0,0,0,0,3,0,0,0,0,0,0,0,0,0,6155,0.0,0.0,0.0,0.0,0,0,0,0,3,0,0,0,0,0,0,0,0,0,6124,0.0,0.0,0.0,0.0,0,0,0,0,3,0,0,0,0,0,0,0,0,0,0,0.0,0.0,0.0,0.0,0,0,0,0,0,0,0,0,0,0,0,0,0,0,0,0.0,0.0,0.0,0.0,0,0,0,0,0,0,0,0,0,0,0,0,0,0,0,0.0,0.0,0.0,0.0,0,0,0,0,0,0,0,0,0,0,0,0,0,0,0,0.0,0.0,0.0,0.0,0,0,0,0,0,0,0,0,0,0,0,0
1403689381,20726,4,1,0,0,0,0,0,0,5853,0.0,0.0,0.0,0.0,0,0,0,0,3,0,0,0,0,0,0,0,0,0,6435,0.0,0.0,0.0,0.0,0,0,0,0,3,0,0,0,0,0,0,0,0,0,6168,0.0,0.0,0.0,0.0,0,0,0,0,3,0,0,0,0,0,0,0,0,0,6106,0.0,0.0,0.0,0.0,0,0,0,0,3,0,0,0,0,0,0,0,0,0,0,0.0,0.0,0.0,0.0,0,0,0,0,0,0,0,0,0,0,0,0,0,0,0,0.0,0.0,0.0,0.0,0,0,0,0,0,0,0,0,0,0,0,0,0,0,0,0.0,0.0,0.0,0.0,0,0,0,0,0,0,0,0,0,0,0,0,0,0,0,0.0,0.0,0.0,0.0,0,0,0,0,0,0,0,0,0,0,0,0
1403942203,20801,4,1,0,0,0,0,0,0,5828,0.0,0.0,0.0,0.0,0,0,0,0,3,0,0,0,0,0,0,0,0,0,6464,0.0,0.0,0.0,0.0,0,0,0,0,3,0,0,0,0,0,0,0,0,0,6195,0.0,0.0,0.0,0.0,0,0,0,0,3,0,0,0,0,0,0,0,0,0,6100,0.0,0.0,0.0,0.0,0,0,0,0,3,0,0,0,0,0,0,0,0,0,0,0.0,0.0,0.0,0.0,0,0,0,0,0,0,0,0,0,0,0,0,0,0,0,0.0,0.0,0.0,0.0,0,0,0,0,0,0,0,0,0,0,0,0,0,0,0,0.0,0.0,0.0,0.0,0,0,0,0,0,0,0,0,0,0,0,0,0,0,0,0.0,0.0,0.0,0.0,0,0,0,0,0,0,0,0,0,0,0,0
1404194197,20875,4,1,0,0,0,0,0,0,5800,0.0,0.0,0.0,0.0,0,0,0,0,3,0,0,0,0,0,0,0,0,0,6467,0.0,0.0,0.0,0.0,0,0,0,0,3,0,0,0,0,0,0,0,0,0,6184,0.0,0.0,0.0,0.0,0,0,0,0,3,0,0,0,0,0,0,0,0,0,6090,0.0,0.0,0.0,0.0,0,0,0,0,3,0,0,0,0,0,0,0,0,0,0,0.0,0.0,0.0,0.0,0,0,0,0,0,0,0,0,0,0,0,0,0,0,0,0.0,0.0,0.0,0.0,0,0,0,0,0,0,0,0,0,0,0,0,0,0,0,0.0,0.0,0.0,0.0,0,0,0,0,0,0,0,0,0,0,0,0,0,0,0,0.0,0.0,0.0,0.0,0,0,0,0,0,0,0,0,0,0,0,0
1404443887,20949,4,1,0,0,0,0,0,0,5808,0.0,0.0,0.0,0.0,0,0,0,0,3,0,0,0,0,0,0,0,0,0,6510,0.0,0.0,0.0,0.0,0,0,0,0,3,0,0,0,0,0,0,0,0,0,6198,0.0,0.0,0.0,0.0,0,0,0,0,3,0,0,0,0,0,0,0,0,0,6079,0.0,0.0,0.0,0.0,0,0,0,0,3,0,0,0,0,0,0,0,0,0,0,0.0,0.0,0.0,0.0,0,0,0,0,0,0,0,0,0,0,0,0,0,0,0,0.0,0.0,0.0,0.0,0,0,0,0,0,0,0,0,0,0,0,0,0,0,0,0.0,0.0,0.0,0.0,0,0,0,0,0,0,0,0,0,0,0,0,0,0,0,0.0,0.0,0.0,0.0,0,0,0,0,0,0,0,0,0,0,0,0
1404695139,21023,4,1,0,0,0,0,0,0,5821,0.0,0.0,0.0,0.0,0,0,0,0,3,0,0,0,0,0,0,0,0,0,6513,0.0,0.0,0.0,0.0,0,0,0,0,3,0,0,0,0,0,0,0,0,0,6205,0.0,0.0,0.0,0.0,0,0,0,0,3,0,0,0,0,0,0,0,0,0,6053,0.0,0.0,0.0,0.0,0,0,0,0,3,0,0,0,0,0,0,0,0,0,0,0.0,0.0,0.0,0.0,0,0,0,0,0,0,0,0,0,0,0,0,0,0,0,0.0,0.0,0.0,0.0,0,0,0,0,0,0,0,0,0,0,0,0,0,0,0,0.0,0.0,0.0,0.0,0,0,0,0,0,0,0,0,0,0,0,0,0,0,0,0.0,0.0,0.0,0.0,0,0,0,0,0,0,0,0,0,0,0,0
1404948288,21098,4,1,0,0,0,0,0,0,5792,0.0,0.0,0.0,0.0,0,0,0,0,3,0,0,0,0,0,0,0,0,0,6534,0.0,0.0,0.0,0.0,0,0,0,0,3,0,0,0,0,0,0,0,0,0,6189,0.0,0.0,0.0,0.0,0,0,0,0,3,0,0,0,0,0,0,0,0,0,6064,0.0,0.0,0.0,0.0,0,0,0,0,3,0,0,0,0,0,0,0,0,0,0,0.0,0.0,0.0,0.0,0,0,0,0,0,0,0,0,0,0,0,0,0,0,0,0.0,0.0,0.0,0.0,0,0,0,0,0,0,0,0,0,0,0,0,0,0,0,0.0,0.0,0.0,0.0,0,0,0,0,0,0,0,0,0,0,0,0,0,0,0,0.0,0.0,0.0,0.0,0,0,0,0,0,0,0,0,0,0,0,0
1405452576,21246,4,1,0,0,0,0,0,0,5820,0.0,0.0,0.0,0.0,0,0,0,0,3,0,0,0,0,0,0,0,0,0,6497,0.0,0.0,0.0,0.0,0,0,0,0,3,0,0,0,0,0,0,0,0,0,6207,0.0,0.0,0.0,0.0,0,0,0,0,3,0,0,0,0,0,0,0,0,0,6035,0.0,0.0,0.0,0.0,0,0,0,0,3,0,0,0,0,0,0,0,0,0,0,0.0,0.0,0.0,0.0,0,0,0,0,0,0,0,0,0,0,0,0,0,0,0,0.0,0.0,0.0,0.0,0,0,0,0,0,0,0,0,0,0,0,0,0,0,0,0.0,0.0,0.0,0.0,0,0,0,0,0,0,0,0,0,0,0,0,0,0,0,0.0,0.0,0.0,0.0,0,0,0,0,0,0,0,0,0,0,0,0
1405705390,21321,4,1,0,0,0,0,0,0,5848,0.0,0.0,0.0,0.0,0,0,0,0,3,0,0,0,0,0,0,0,0,0,6473,0.0,0.0,0.0,0.0,0,0,0,0,3,0,0,0,0,0,0,0,0,0,6191,0.0,0.0,0.0,0.0,0,0,0,0,3,0,0,0,0,0,0,0,0,0,6085,0.0,0.0,0.0,0.0,0,0,0,0,3,0,0,0,0,0,0,0,0,0,0,0.0,0.0,0.0,0.0,0,0,0,0,0,0,0,0,0,0,0,0,0,0,0,0.0,0.0,0.0,0.0,0,0,0,0,0,0,0,0,0,0,0,0,0,0,0,0.0,0.0,0.0,0.0,0,0,0,0,0,0,0,0,0,0,0,0,0,0,0,0.0,0.0,0.0,0.0,0,0,0,0,0,0,0,0,0,0,0,0
1405957295,21395,4,1,0,0,0,0,0,0,5869,0.0,0.0,0.0,0.0,0,0,0,0,3,0,0,0,0,0,0,0,0,0,6455,0.0,0.0,0.0,0.0,0,0,0,0,3,0,0,0,0,0,0,0,0,0,6167,0.0,0.0,0.0,0.0,0,0,0,0,3,0,0,0,0,0,0,0,0,0,6105,0.0,0.0,0.0,0.0,0,0,0,0,3,0,0,0,0,0,0,0,0,0,0,0.0,0.0,0.0,0.0,0,0,0,0,0,0,0,0,0,0,0,0,0,0,0,0.0,0.0,0.0,0.0,0,0,0,0,0,0,0,0,0,0,0,0,0,0,0,0.0,0.0,0.0,0.0,0,0,0,0,0,0,0,0,0,0,0,0,0,0,0,0.0,0.0,0.0,0.0,0,0,0,0,0,0,0,0,0,0,0,0
1406210104,21470,4,1,0,0,0,0,0,0,5880,0.0,0.0,0.0,0.0,0,0,0,0,3,0,0,0,0,0,0,0,0,0,6479,0.0,0.0,0.0,0.0,0,0,0,0,3,0,0,0,0,0,0,0,0,0,6136,0.0,0.0,0.0,0.0,0,0,0,0,3,0,0,0,0,0,0,0,0,0,6111,0.0,0.0,0.0,0.0,0,0,0,0,3,0,0,0,0,0,0,0,0,0,0,0.0,0.0,0.0,0.0,0,0,0,0,0,0,0,0,0,0,0,0,0,0,0,0.0,0.0,0.0,0.0,0,0,0,0,0,0,0,0,0,0,0,0,0,0,0,0.0,0.0,0.0,0.0,0,0,0,0,0,0,0,0,0,0,0,0,0,0,0,0.0,0.0,0.0,0.0,0,0,0,0,0,0,0,0,0,0,0,0
1406714984,21619,4,1,0,0,0,0,0,0,5862,0.0,0.0,0.0,0.0,0,0,0,0,3,0,0,0,0,0,0,0,0,0,6472,0.0,0.0,0.0,0.0,0,0,0,0,3,0,0,0,0,0,0,0,0,0,6153,0.0,0.0,0.0,0.0,0,0,0,0,3,0,0,0,0,0,0,0,0,0,6099,0.0,0.0,0.0,0.0,0,0,0,0,3,0,0,0,0,0,0,0,0,0,0,0.0,0.0,0.0,0.0,0,0,0,0,0,0,0,0,0,0,0,0,0,0,0,0.0,0.0,0.0,0.0,0,0,0,0,0,0,0,0,0,0,0,0,0,0,0,0.0,0.0,0.0,0.0,0,0,0,0,0,0,0,0,0,0,0,0,0,0,0,0.0,0.0,0.0,0.0,0,0,0,0,0,0,0,0,0,0,0,0
1406966974,21693,4,1,0,0,0,0,0,0,5866,0.0,0.0,0.0,0.0,0,0,0,0,3,0,0,0,0,0,0,0,0,0,6479,0.0,0.0,0.0,0.0,0,0,0,0,3,0,0,0,0,0,0,0,0,0,6152,0.0,0.0,0.0,0.0,0,0,0,0,3,0,0,0,0,0,0,0,0,0,6069,0.0,0.0,0.0,0.0,0,0,0,0,3,0,0,0,0,0,0,0,0,0,0,0.0,0.0,0.0,0.0,0,0,0,0,0,0,0,0,0,0,0,0,0,0,0,0.0,0.0,0.0,0.0,0,0,0,0,0,0,0,0,0,0,0,0,0,0,0,0.0,0.0,0.0,0.0,0,0,0,0,0,0,0,0,0,0,0,0,0,0,0,0.0,0.0,0.0,0.0,0,0,0,0,0,0,0,0,0,0,0,0
1407220679,21768,4,1,0,0,0,0,0,0,5852,0.0,0.0,0.0,0.0,0,0,0,0,3,0,0,0,0,0,0,0,0,0,6458,0.0,0.0,0.0,0.0,0,0,0,0,3,0,0,0,0,0,0,0,0,0,6152,0.0,0.0,0.0,0.0,0,0,0,0,3,0,0,0,0,0,0,0,0,0,6094,0.0,0.0,0.0,0.0,0,0,0,0,3,0,0,0,0,0,0,0,0,0,0,0.0,0.0,0.0,0.0,0,0,0,0,0,0,0,0,0,0,0,0,0,0,0,0.0,0.0,0.0,0.0,0,0,0,0,0,0,0,0,0,0,0,0,0,0,0,0.0,0.0,0.0,0.0,0,0,0,0,0,0,0,0,0,0,0,0,0,0,0,0.0,0.0,0.0,0.0,0,0,0,0,0,0,0,0,0,0,0,0
1407472577,21842,4,1,0,0,0,0,0,0,5865,0.0,0.0,0.0,0.0,0,0,0,0,3,0,0,0,0,0,0,0,0,0,6449,0.0,0.0,0.0,0.0,0,0,0,0,3,0,0,0,0,0,0,0,0,0,6146,0.0,0.0,0.0,0.0,0,0,0,0,3,0,0,0,0,0,0,0,0,0,6105,0.0,0.0,0.0,0.0,0,0,0,0,3,0,0,0,0,0,0,0,0,0,0,0.0,0.0,0.0,0.0,0,0,0,0,0,0,0,0,0,0,0,0,0,0,0,0.0,0.0,0.0,0.0,0,0,0,0,0,0,0,0,0,0,0,0,0,0,0,0.0,0.0,0.0,0.0,0,0,0,0,0,0,0,0,0,0,0,0,0,0,0,0.0,0.0,0.0,0.0,0,0,0,0,0,0,0,0,0,0,0,0
1407725490,21917,4,1,0,0,0,0,0,0,5862,0.0,0.0,0.0,0.0,0,0,0,0,3,0,0,0,0,0,0,0,0,0,6448,0.0,0.0,0.0,0.0,0,0,0,0,3,0,0,0,0,0,0,0,0,0,6162,0.0,0.0,0.0,0.0,0,0,0,0,3,0,0,0,0,0,0,0,0,0,6103,0.0,0.0,0.0,0.0,0,0,0,0,3,0,0,0,0,0,0,0,0,0,0,0.0,0.0,0.0,0.0,0,0,0,0,0,0,0,0,0,0,0,0,0,0,0,0.0,0.0,0.0,0.0,0,0,0,0,0,0,0,0,0,0,0,0,0,0,0,0.0,0.0,0.0,0.0,0,0,0,0,0,0,0,0,0,0,0,0,0,0,0,0.0,0.0,0.0,0.0,0,0,0,0,0,0,0,0,0,0,0,0
1407977386,21991,4,1,0,0,0,0,0,0,5841,0.0,0.0,0.0,0.0,0,0,0,0,3,0,0,0,0,0,0,0,0,0,6431,0.0,0.0,0.0,0.0,0,0,0,0,3,0,0,0,0,0,0,0,0,0,6119,0.0,0.0,0.0,0.0,0,0,0,0,3,0,0,0,0,0,0,0,0,0,6108,0.0,0.0,0.0,0.0,0,0,0,0,3,0,0,0,0,0,0,0,0,0,0,0.0,0.0,0.0,0.0,0,0,0,0,0,0,0,0,0,0,0,0,0,0,0,0.0,0.0,0.0,0.0,0,0,0,0,0,0,0,0,0,0,0,0,0,0,0,0.0,0.0,0.0,0.0,0,0,0,0,0,0,0,0,0,0,0,0,0,0,0,0.0,0.0,0.0,0.0,0,0,0,0,0,0,0,0,0,0,0,0
1408230737,22066,4,1,0,0,0,0,0,0,5888,0.0,0.0,0.0,0.0,0,0,0,0,3,0,0,0,0,0,0,0,0,0,6451,0.0,0.0,0.0,0.0,0,0,0,0,3,0,0,0,0,0,0,0,0,0,6189,0.0,0.0,0.0,0.0,0,0,0,0,3,0,0,0,0,0,0,0,0,0,6098,0.0,0.0,0.0,0.0,0,0,0,0,3,0,0,0,0,0,0,0,0,0,0,0.0,0.0,0.0,0.0,0,0,0,0,0,0,0,0,0,0,0,0,0,0,0,0.0,0.0,0.0,0.0,0,0,0,0,0,0,0,0,0,0,0,0,0,0,0,0.0,0.0,0.0,0.0,0,0,0,0,0,0,0,0,0,0,0,0,0,0,0,0.0,0.0,0.0,0.0,0,0,0,0,0,0,0,0,0,0,0,0
1408730205,22213,4,1,0,0,0,0,0,0,5882,0.0,0.0,0.0,0.0,0,0,0,0,3,0,0,0,0,0,0,0,0,0,6494,0.0,0.0,0.0,0.0,0,0,0,0,3,0,0,0,0,0,0,0,0,0,6153,0.0,0.0,0.0,0.0,0,0,0,0,3,0,0,0,0,0,0,0,0,0,6092,0.0,0.0,0.0,0.0,0,0,0,0,3,0,0,0,0,0,0,0,0,0,0,0.0,0.0,0.0,0.0,0,0,0,0,0,0,0,0,0,0,0,0,0,0,0,0.0,0.0,0.0,0.0,0,0,0,0,0,0,0,0,0,0,0,0,0,0,0,0.0,0.0,0.0,0.0,0,0,0,0,0,0,0,0,0,0,0,0,0,0,0,0.0,0.0,0.0,0.0,0,0,0,0,0,0,0,0,0,0,0,0
1408982972,22288,4,1,0,0,0,0,0,0,5878,0.0,0.0,0.0,0.0,0,0,0,0,3,0,0,0,0,0,0,0,0,0,6446,0.0,0.0,0.0,0.0,0,0,0,0,3,0,0,0,0,0,0,0,0,0,6129,0.0,0.0,0.0,0.0,0,0,0,0,3,0,0,0,0,0,0,0,0,0,6094,0.0,0.0,0.0,0.0,0,0,0,0,3,0,0,0,0,0,0,0,0,0,0,0.0,0.0,0.0,0.0,0,0,0,0,0,0,0,0,0,0,0,0,0,0,0,0.0,0.0,0.0,0.0,0,0,0,0,0,0,0,0,0,0,0,0,0,0,0,0.0,0.0,0.0,0.0,0,0,0,0,0,0,0,0,0,0,0,0,0,0,0,0.0,0.0,0.0,0.0,0,0,0,0,0,0,0,0,0,0,0,0
1409235684,22362,4,1,0,0,0,0,0,0,5860,0.0,0.0,0.0,0.0,0,0,0,0,3,0,0,0,0,0,0,0,0,0,6452,0.0,0.0,0.0,0.0,0,0,0,0,3,0,0,0,0,0,0,0,0,0,6118,0.0,0.0,0.0,0.0,0,0,0,0,3,0,0,0,0,0,0,0,0,0,6094,0.0,0.0,0.0,0.0,0,0,0,0,3,0,0,0,0,0,0,0,0,0,0,0.0,0.0,0.0,0.0,0,0,0,0,0,0,0,0,0,0,0,0,0,0,0,0.0,0.0,0.0,0.0,0,0,0,0,0,0,0,0,0,0,0,0,0,0,0,0.0,0.0,0.0,0.0,0,0,0,0,0,0,0,0,0,0,0,0,0,0,0,0.0,0.0,0.0,0.0,0,0,0,0,0,0,0,0,0,0,0,0
1409487784,22437,4,1,0,0,0,0,0,0,5825,0.0,0.0,0.0,0.0,0,0,0,0,3,0,0,0,0,0,0,0,0,0,6491,0.0,0.0,0.0,0.0,0,0,0,0,3,0,0,0,0,0,0,0,0,0,6213,0.0,0.0,0.0,0.0,0,0,0,0,3,0,0,0,0,0,0,0,0,0,6081,0.0,0.0,0.0,0.0,0,0,0,0,3,0,0,0,0,0,0,0,0,0,0,0.0,0.0,0.0,0.0,0,0,0,0,0,0,0,0,0,0,0,0,0,0,0,0.0,0.0,0.0,0.0,0,0,0,0,0,0,0,0,0,0,0,0,0,0,0,0.0,0.0,0.0,0.0,0,0,0,0,0,0,0,0,0,0,0,0,0,0,0,0.0,0.0,0.0,0.0,0,0,0,0,0,0,0,0,0,0,0,0
1409740512,22511,4,1,0,0,0,0,0,0,5769,0.0,0.0,0.0,0.0,0,0,0,0,3,0,0,0,0,0,0,0,0,0,6549,0.0,0.0,0.0,0.0,0,0,0,0,3,0,0,0,0,0,0,0,0,0,6239,0.0,0.0,0.0,0.0,0,0,0,0,3,0,0,0,0,0,0,0,0,0,6016,0.0,0.0,0.0,0.0,0,0,0,0,3,0,0,0,0,0,0,0,0,0,0,0.0,0.0,0.0,0.0,0,0,0,0,0,0,0,0,0,0,0,0,0,0,0,0.0,0.0,0.0,0.0,0,0,0,0,0,0,0,0,0,0,0,0,0,0,0,0.0,0.0,0.0,0.0,0,0,0,0,0,0,0,0,0,0,0,0,0,0,0,0.0,0.0,0.0,0.0,0,0,0,0,0,0,0,0,0,0,0,0
1409992583,22586,4,1,0,0,0,0,0,0,5721,0.0,0.0,0.0,0.0,0,0,0,0,3,0,0,0,0,0,0,0,0,0,6563,0.0,0.0,0.0,0.0,0,0,0,0,3,0,0,0,0,0,0,0,0,0,6267,0.0,0.0,0.0,0.0,0,0,0,0,3,0,0,0,0,0,0,0,0,0,5996,0.0,0.0,0.0,0.0,0,0,0,0,3,0,0,0,0,0,0,0,0,0,0,0.0,0.0,0.0,0.0,0,0,0,0,0,0,0,0,0,0,0,0,0,0,0,0.0,0.0,0.0,0.0,0,0,0,0,0,0,0,0,0,0,0,0,0,0,0,0.0,0.0,0.0,0.0,0,0,0,0,0,0,0,0,0,0,0,0,0,0,0,0.0,0.0,0.0,0.0,0,0,0,0,0,0,0,0,0,0,0,0
1410245387,22660,4,1,0,0,0,0,0,0,5716,0.0,0.0,0.0,0.0,0,0,0,0,3,0,0,0,0,0,0,0,0,0,6579,0.0,0.0,0.0,0.0,0,0,0,0,3,0,0,0,0,0,0,0,0,0,6284,0.0,0.0,0.0,0.0,0,0,0,0,3,0,0,0,0,0,0,0,0,0,5967,0.0,0.0,0.0,0.0,0,0,0,0,3,0,0,0,0,0,0,0,0,0,0,0.0,0.0,0.0,0.0,0,0,0,0,0,0,0,0,0,0,0,0,0,0,0,0.0,0.0,0.0,0.0,0,0,0,0,0,0,0,0,0,0,0,0,0,0,0,0.0,0.0,0.0,0.0,0,0,0,0,0,0,0,0,0,0,0,0,0,0,0,0.0,0.0,0.0,0.0,0,0,0,0,0,0,0,0,0,0,0,0
1410494214,22734,4,1,0,0,0,0,0,0,5800,0.0,0.0,0.0,0.0,0,0,0,0,3,0,0,0,0,0,0,0,0,0,6605,0.0,0.0,0.0,0.0,0,0,0,0,3,0,0,0,0,0,0,0,0,0,6344,0.0,0.0,0.0,0.0,0,0,0,0,3,0,0,0,0,0,0,0,0,0,6004,0.0,0.0,0.0,0.0,0,0,0,0,3,0,0,0,0,0,0,0,0,0,0,0.0,0.0,0.0,0.0,0,0,0,0,0,0,0,0,0,0,0,0,0,0,0,0.0,0.0,0.0,0.0,0,0,0,0,0,0,0,0,0,0,0,0,0,0,0,0.0,0.0,0.0,0.0,0,0,0,0,0,0,0,0,0,0,0,0,0,0,0,0.0,0.0,0.0,0.0,0,0,0,0,0,0,0,0,0,0,0,0
1410746094,22808,4,1,0,0,0,0,0,0,5742,0.0,0.0,0.0,0.0,0,0,0,0,3,0,0,0,0,0,0,0,0,0,6619,0.0,0.0,0.0,0.0,0,0,0,0,3,0,0,0,0,0,0,0,0,0,6232,0.0,0.0,0.0,0.0,0,0,0,0,3,0,0,0,0,0,0,0,0,0,6009,0.0,0.0,0.0,0.0,0,0,0,0,3,0,0,0,0,0,0,0,0,0,0,0.0,0.0,0.0,0.0,0,0,0,0,0,0,0,0,0,0,0,0,0,0,0,0.0,0.0,0.0,0.0,0,0,0,0,0,0,0,0,0,0,0,0,0,0,0,0.0,0.0,0.0,0.0,0,0,0,0,0,0,0,0,0,0,0,0,0,0,0,0.0,0.0,0.0,0.0,0,0,0,0,0,0,0,0,0,0,0,0
1410999835,22883,4,1,0,0,0,0,0,0,5784,0.0,0.0,0.0,0.0,0,0,0,0,3,0,0,0,0,0,0,0,0,0,6623,0.0,0.0,0.0,0.0,0,0,0,0,3,0,0,0,0,0,0,0,0,0,6257,0.0,0.0,0.0,0.0,0,0,0,0,3,0,0,0,0,0,0,0,0,0,5999,0.0,0.0,0.0,0.0,0,0,0,0,3,0,0,0,0,0,0,0,0,0,0,0.0,0.0,0.0,0.0,0,0,0,0,0,0,0,0,0,0,0,0,0,0,0,0.0,0.0,0.0,0.0,0,0,0,0,0,0,0,0,0,0,0,0,0,0,0,0.0,0.0,0.0,0.0,0,0,0,0,0,0,0,0,0,0,0,0,0,0,0,0.0,0.0,0.0,0.0,0,0,0,0,0,0,0,0,0,0,0,0
1411250931,22957,4,1,0,0,0,0,0,0,5669,0.0,0.0,0.0,0.0,0,0,0,0,3,0,0,0,0,0,0,0,0,0,6675,0.0,0.0,0.0,0.0,0,0,0,0,3,0,0,0,0,0,0,0,0,0,6230,0.0,0.0,0.0,0.0,0,0,0,0,3,0,0,0,0,0,0,0,0,0,6073,0.0,0.0,0.0,0.0,0,0,0,0,3,0,0,0,0,0,0,0,0,0,0,0.0,0.0,0.0,0.0,0,0,0,0,0,0,0,0,0,0,0,0,0,0,0,0.0,0.0,0.0,0.0,0,0,0,0,0,0,0,0,0,0,0,0,0,0,0,0.0,0.0,0.0,0.0,0,0,0,0,0,0,0,0,0,0,0,0,0,0,0,0.0,0.0,0.0,0.0,0,0,0,0,0,0,0,0,0,0,0,0
1411503776,23031,4,1,0,0,0,0,0,0,5713,0.0,0.0,0.0,0.0,0,0,0,0,3,0,0,0,0,0,0,0,0,0,6617,0.0,0.0,0.0,0.0,0,0,0,0,3,0,0,0,0,0,0,0,0,0,6313,0.0,0.0,0.0,0.0,0,0,0,0,3,0,0,0,0,0,0,0,0,0,5913,0.0,0.0,0.0,0.0,0,0,0,0,3,0,0,0,0,0,0,0,0,0,0,0.0,0.0,0.0,0.0,0,0,0,0,0,0,0,0,0,0,0,0,0,0,0,0.0,0.0,0.0,0.0,0,0,0,0,0,0,0,0,0,0,0,0,0,0,0,0.0,0.0,0.0,0.0,0,0,0,0,0,0,0,0,0,0,0,0,0,0,0,0.0,0.0,0.0,0.0,0,0,0,0,0,0,0,0,0,0,0,0
1411755686,23106,4,1,0,0,0,0,0,0,5658,0.0,0.0,0.0,0.0,0,0,0,0,3,0,0,0,0,0,0,0,0,0,6655,0.0,0.0,0.0,0.0,0,0,0,0,3,0,0,0,0,0,0,0,0,0,6350,0.0,0.0,0.0,0.0,0,0,0,0,3,0,0,0,0,0,0,0,0,0,5908,0.0,0.0,0.0,0.0,0,0,0,0,3,0,0,0,0,0,0,0,0,0,0,0.0,0.0,0.0,0.0,0,0,0,0,0,0,0,0,0,0,0,0,0,0,0,0.0,0.0,0.0,0.0,0,0,0,0,0,0,0,0,0,0,0,0,0,0,0,0.0,0.0,0.0,0.0,0,0,0,0,0,0,0,0,0,0,0,0,0,0,0,0.0,0.0,0.0,0.0,0,0,0,0,0,0,0,0,0,0,0,0
1412008579,23180,4,1,0,0,0,0,0,0,5646,0.0,0.0,0.0,0.0,0,0,0,0,3,0,0,0,0,0,0,0,0,0,6689,0.0,0.0,0.0,0.0,0,0,0,0,3,0,0,0,0,0,0,0,0,0,6395,0.0,0.0,0.0,0.0,0,0,0,0,3,0,0,0,0,0,0,0,0,0,5872,0.0,0.0,0.0,0.0,0,0,0,0,3,0,0,0,0,0,0,0,0,0,0,0.0,0.0,0.0,0.0,0,0,0,0,0,0,0,0,0,0,0,0,0,0,0,0.0,0.0,0.0,0.0,0,0,0,0,0,0,0,0,0,0,0,0,0,0,0,0.0,0.0,0.0,0.0,0,0,0,0,0,0,0,0,0,0,0,0,0,0,0,0.0,0.0,0.0,0.0,0,0,0,0,0,0,0,0,0,0,0,0
1412260590,23255,4,1,0,0,0,0,0,0,5556,0.0,0.0,0.0,0.0,0,0,0,0,3,0,0,0,0,0,0,0,0,0,6691,0.0,0.0,0.0,0.0,0,0,0,0,3,0,0,0,0,0,0,0,0,0,6408,0.0,0.0,0.0,0.0,0,0,0,0,3,0,0,0,0,0,0,0,0,0,5875,0.0,0.0,0.0,0.0,0,0,0,0,3,0,0,0,0,0,0,0,0,0,0,0.0,0.0,0.0,0.0,0,0,0,0,0,0,0,0,0,0,0,0,0,0,0,0.0,0.0,0.0,0.0,0,0,0,0,0,0,0,0,0,0,0,0,0,0,0,0.0,0.0,0.0,0.0,0,0,0,0,0,0,0,0,0,0,0,0,0,0,0,0.0,0.0,0.0,0.0,0,0,0,0,0,0,0,0,0,0,0,0
1412763690,23403,4,1,0,0,0,0,0,0,5605,0.0,0.0,0.0,0.0,0,0,0,0,3,0,0,0,0,0,0,0,0,0,6712,0.0,0.0,0.0,0.0,0,0,0,0,3,0,0,0,0,0,0,0,0,0,6408,0.0,0.0,0.0,0.0,0,0,0,0,3,0,0,0,0,0,0,0,0,0,5874,0.0,0.0,0.0,0.0,0,0,0,0,3,0,0,0,0,0,0,0,0,0,0,0.0,0.0,0.0,0.0,0,0,0,0,0,0,0,0,0,0,0,0,0,0,0,0.0,0.0,0.0,0.0,0,0,0,0,0,0,0,0,0,0,0,0,0,0,0,0.0,0.0,0.0,0.0,0,0,0,0,0,0,0,0,0,0,0,0,0,0,0,0.0,0.0,0.0,0.0,0,0,0,0,0,0,0,0,0,0,0,0
1413014200,23477,4,1,0,0,0,0,0,0,5608,0.0,0.0,0.0,0.0,0,0,0,0,3,0,0,0,0,0,0,0,0,0,6716,0.0,0.0,0.0,0.0,0,0,0,0,3,0,0,0,0,0,0,0,0,0,6405,0.0,0.0,0.0,0.0,0,0,0,0,3,0,0,0,0,0,0,0,0,0,5898,0.0,0.0,0.0,0.0,0,0,0,0,3,0,0,0,0,0,0,0,0,0,0,0.0,0.0,0.0,0.0,0,0,0,0,0,0,0,0,0,0,0,0,0,0,0,0.0,0.0,0.0,0.0,0,0,0,0,0,0,0,0,0,0,0,0,0,0,0,0.0,0.0,0.0,0.0,0,0,0,0,0,0,0,0,0,0,0,0,0,0,0,0.0,0.0,0.0,0.0,0,0,0,0,0,0,0,0,0,0,0,0
1413268121,23552,4,1,0,0,0,0,0,0,5613,0.0,0.0,0.0,0.0,0,0,0,0,3,0,0,0,0,0,0,0,0,0,6675,0.0,0.0,0.0,0.0,0,0,0,0,3,0,0,0,0,0,0,0,0,0,6385,0.0,0.0,0.0,0.0,0,0,0,0,3,0,0,0,0,0,0,0,0,0,5919,0.0,0.0,0.0,0.0,0,0,0,0,3,0,0,0,0,0,0,0,0,0,0,0.0,0.0,0.0,0.0,0,0,0,0,0,0,0,0,0,0,0,0,0,0,0,0.0,0.0,0.0,0.0,0,0,0,0,0,0,0,0,0,0,0,0,0,0,0,0.0,0.0,0.0,0.0,0,0,0,0,0,0,0,0,0,0,0,0,0,0,0,0.0,0.0,0.0,0.0,0,0,0,0,0,0,0,0,0,0,0,0
1413518976,23626,4,1,0,0,0,0,0,0,5674,0.0,0.0,0.0,0.0,0,0,0,0,3,0,0,0,0,0,0,0,0,0,6655,0.0,0.0,0.0,0.0,0,0,0,0,3,0,0,0,0,0,0,0,0,0,6370,0.0,0.0,0.0,0.0,0,0,0,0,3,0,0,0,0,0,0,0,0,0,5935,0.0,0.0,0.0,0.0,0,0,0,0,3,0,0,0,0,0,0,0,0,0,0,0.0,0.0,0.0,0.0,0,0,0,0,0,0,0,0,0,0,0,0,0,0,0,0.0,0.0,0.0,0.0,0,0,0,0,0,0,0,0,0,0,0,0,0,0,0,0.0,0.0,0.0,0.0,0,0,0,0,0,0,0,0,0,0,0,0,0,0,0,0.0,0.0,0.0,0.0,0,0,0,0,0,0,0,0,0,0,0,0
1413772931,23701,4,1,0,0,0,0,0,0,5736,0.0,0.0,0.0,0.0,0,0,0,0,3,0,0,0,0,0,0,0,0,0,6604,0.0,0.0,0.0,0.0,0,0,0,0,3,0,0,0,0,0,0,0,0,0,6393,0.0,0.0,0.0,0.0,0,0,0,0,3,0,0,0,0,0,0,0,0,0,5889,0.0,0.0,0.0,0.0,0,0,0,0,3,0,0,0,0,0,0,0,0,0,0,0.0,0.0,0.0,0.0,0,0,0,0,0,0,0,0,0,0,0,0,0,0,0,0.0,0.0,0.0,0.0,0,0,0,0,0,0,0,0,0,0,0,0,0,0,0,0.0,0.0,0.0,0.0,0,0,0,0,0,0,0,0,0,0,0,0,0,0,0,0.0,0.0,0.0,0.0,0,0,0,0,0,0,0,0,0,0,0,0
1414023982,23775,4,1,0,0,0,0,0,0,5714,0.0,0.0,0.0,0.0,0,0,0,0,3,0,0,0,0,0,0,0,0,0,6623,0.0,0.0,0.0,0.0,0,0,0,0,3,0,0,0,0,0,0,0,0,0,6343,0.0,0.0,0.0,0.0,0,0,0,0,3,0,0,0,0,0,0,0,0,0,5899,0.0,0.0,0.0,0.0,0,0,0,0,3,0,0,0,0,0,0,0,0,0,0,0.0,0.0,0.0,0.0,0,0,0,0,0,0,0,0,0,0,0,0,0,0,0,0.0,0.0,0.0,0.0,0,0,0,0,0,0,0,0,0,0,0,0,0,0,0,0.0,0.0,0.0,0.0,0,0,0,0,0,0,0,0,0,0,0,0,0,0,0,0.0,0.0,0.0,0.0,0,0,0,0,0,0,0,0,0,0,0,0
1414276577,23849,4,1,0,0,0,0,0,0,5733,0.0,0.0,0.0,0.0,0,0,0,0,3,0,0,0,0,0,0,0,0,0,6623,0.0,0.0,0.0,0.0,0,0,0,0,3,0,0,0,0,0,0,0,0,0,6336,0.0,0.0,0.0,0.0,0,0,0,0,3,0,0,0,0,0,0,0,0,0,5937,0.0,0.0,0.0,0.0,0,0,0,0,3,0,0,0,0,0,0,0,0,0,0,0.0,0.0,0.0,0.0,0,0,0,0,0,0,0,0,0,0,0,0,0,0,0,0.0,0.0,0.0,0.0,0,0,0,0,0,0,0,0,0,0,0,0,0,0,0,0.0,0.0,0.0,0.0,0,0,0,0,0,0,0,0,0,0,0,0,0,0,0,0.0,0.0,0.0,0.0,0,0,0,0,0,0,0,0,0,0,0,0
1414781396,23998,4,1,0,0,0,0,0,0,5701,0.0,0.0,0.0,0.0,0,0,0,0,3,0,0,0,0,0,0,0,0,0,6588,0.0,0.0,0.0,0.0,0,0,0,0,3,0,0,0,0,0,0,0,0,0,6314,0.0,0.0,0.0,0.0,0,0,0,0,3,0,0,0,0,0,0,0,0,0,5945,0.0,0.0,0.0,0.0,0,0,0,0,3,0,0,0,0,0,0,0,0,0,0,0.0,0.0,0.0,0.0,0,0,0,0,0,0,0,0,0,0,0,0,0,0,0,0.0,0.0,0.0,0.0,0,0,0,0,0,0,0,0,0,0,0,0,0,0,0,0.0,0.0,0.0,0.0,0,0,0,0,0,0,0,0,0,0,0,0,0,0,0,0.0,0.0,0.0,0.0,0,0,0,0,0,0,0,0,0,0,0,0
1415030197,24072,4,1,0,0,0,0,0,0,5714,0.0,0.0,0.0,0.0,0,0,0,0,3,0,0,0,0,0,0,0,0,0,6591,0.0,0.0,0.0,0.0,0,0,0,0,3,0,0,0,0,0,0,0,0,0,6295,0.0,0.0,0.0,0.0,0,0,0,0,3,0,0,0,0,0,0,0,0,0,5977,0.0,0.0,0.0,0.0,0,0,0,0,3,0,0,0,0,0,0,0,0,0,0,0.0,0.0,0.0,0.0,0,0,0,0,0,0,0,0,0,0,0,0,0,0,0,0.0,0.0,0.0,0.0,0,0,0,0,0,0,0,0,0,0,0,0,0,0,0,0.0,0.0,0.0,0.0,0,0,0,0,0,0,0,0,0,0,0,0,0,0,0,0.0,0.0,0.0,0.0,0,0,0,0,0,0,0,0,0,0,0,0
1415282193,24146,4,1,0,0,0,0,0,0,5716,0.0,0.0,0.0,0.0,0,0,0,0,3,0,0,0,0,0,0,0,0,0,6568,0.0,0.0,0.0,0.0,0,0,0,0,3,0,0,0,0,0,0,0,0,0,6268,0.0,0.0,0.0,0.0,0,0,0,0,3,0,0,0,0,0,0,0,0,0,5969,0.0,0.0,0.0,0.0,0,0,0,0,3,0,0,0,0,0,0,0,0,0,0,0.0,0.0,0.0,0.0,0,0,0,0,0,0,0,0,0,0,0,0,0,0,0,0.0,0.0,0.0,0.0,0,0,0,0,0,0,0,0,0,0,0,0,0,0,0,0.0,0.0,0.0,0.0,0,0,0,0,0,0,0,0,0,0,0,0,0,0,0,0.0,0.0,0.0,0.0,0,0,0,0,0,0,0,0,0,0,0,0
1415787778,24295,4,1,0,0,0,0,0,0,5722,0.0,0.0,0.0,0.0,0,0,0,0,3,0,0,0,0,0,0,0,0,0,6596,0.0,0.0,0.0,0.0,0,0,0,0,3,0,0,0,0,0,0,0,0,0,6307,0.0,0.0,0.0,0.0,0,0,0,0,3,0,0,0,0,0,0,0,0,0,6011,0.0,0.0,0.0,0.0,0,0,0,0,3,0,0,0,0,0,0,0,0,0,0,0.0,0.0,0.0,0.0,0,0,0,0,0,0,0,0,0,0,0,0,0,0,0,0.0,0.0,0.0,0.0,0,0,0,0,0,0,0,0,0,0,0,0,0,0,0,0.0,0.0,0.0,0.0,0,0,0,0,0,0,0,0,0,0,0,0,0,0,0,0.0,0.0,0.0,0.0,0,0,0,0,0,0,0,0,0,0,0,0
1416040850,24370,4,1,0,0,0,0,0,0,5703,0.0,0.0,0.0,0.0,0,0,0,0,3,0,0,0,0,0,0,0,0,0,6553,0.0,0.0,0.0,0.0,0,0,0,0,3,0,0,0,0,0,0,0,0,0,6277,0.0,0.0,0.0,0.0,0,0,0,0,3,0,0,0,0,0,0,0,0,0,5957,0.0,0.0,0.0,0.0,0,0,0,0,3,0,0,0,0,0,0,0,0,0,0,0.0,0.0,0.0,0.0,0,0,0,0,0,0,0,0,0,0,0,0,0,0,0,0.0,0.0,0.0,0.0,0,0,0,0,0,0,0,0,0,0,0,0,0,0,0,0.0,0.0,0.0,0.0,0,0,0,0,0,0,0,0,0,0,0,0,0,0,0,0.0,0.0,0.0,0.0,0,0,0,0,0,0,0,0,0,0,0,0
1416292500,24444,4,1,0,0,0,0,0,0,5710,0.0,0.0,0.0,0.0,0,0,0,0,3,0,0,0,0,0,0,0,0,0,6595,0.0,0.0,0.0,0.0,0,0,0,0,3,0,0,0,0,0,0,0,0,0,6250,0.0,0.0,0.0,0.0,0,0,0,0,3,0,0,0,0,0,0,0,0,0,5975,0.0,0.0,0.0,0.0,0,0,0,0,3,0,0,0,0,0,0,0,0,0,0,0.0,0.0,0.0,0.0,0,0,0,0,0,0,0,0,0,0,0,0,0,0,0,0.0,0.0,0.0,0.0,0,0,0,0,0,0,0,0,0,0,0,0,0,0,0,0.0,0.0,0.0,0.0,0,0,0,0,0,0,0,0,0,0,0,0,0,0,0,0.0,0.0,0.0,0.0,0,0,0,0,0,0,0,0,0,0,0,0
1416544578,24518,4,1,0,0,0,0,0,0,5675,0.0,0.0,0.0,0.0,0,0,0,0,3,0,0,0,0,0,0,0,0,0,6579,0.0,0.0,0.0,0.0,0,0,0,0,3,0,0,0,0,0,0,0,0,0,6290,0.0,0.0,0.0,0.0,0,0,0,0,3,0,0,0,0,0,0,0,0,0,6000,0.0,0.0,0.0,0.0,0,0,0,0,3,0,0,0,0,0,0,0,0,0,0,0.0,0.0,0.0,0.0,0,0,0,0,0,0,0,0,0,0,0,0,0,0,0,0.0,0.0,0.0,0.0,0,0,0,0,0,0,0,0,0,0,0,0,0,0,0,0.0,0.0,0.0,0.0,0,0,0,0,0,0,0,0,0,0,0,0,0,0,0,0.0,0.0,0.0,0.0,0,0,0,0,0,0,0,0,0,0,0,0
1416797381,24593,4,1,0,0,0,0,0,0,5669,0.0,0.0,0.0,0.0,0,0,0,0,3,0,0,0,0,0,0,0,0,0,6575,0.0,0.0,0.0,0.0,0,0,0,0,3,0,0,0,0,0,0,0,0,0,6263,0.0,0.0,0.0,0.0,0,0,0,0,3,0,0,0,0,0,0,0,0,0,5967,0.0,0.0,0.0,0.0,0,0,0,0,3,0,0,0,0,0,0,0,0,0,0,0.0,0.0,0.0,0.0,0,0,0,0,0,0,0,0,0,0,0,0,0,0,0,0.0,0.0,0.0,0.0,0,0,0,0,0,0,0,0,0,0,0,0,0,0,0,0.0,0.0,0.0,0.0,0,0,0,0,0,0,0,0,0,0,0,0,0,0,0,0.0,0.0,0.0,0.0,0,0,0,0,0,0,0,0,0,0,0,0
1417049287,24667,4,1,0,0,0,0,0,0,5699,0.0,0.0,0.0,0.0,0,0,0,0,3,0,0,0,0,0,0,0,0,0,6583,0.0,0.0,0.0,0.0,0,0,0,0,3,0,0,0,0,0,0,0,0,0,6271,0.0,0.0,0.0,0.0,0,0,0,0,3,0,0,0,0,0,0,0,0,0,5993,0.0,0.0,0.0,0.0,0,0,0,0,3,0,0,0,0,0,0,0,0,0,0,0.0,0.0,0.0,0.0,0,0,0,0,0,0,0,0,0,0,0,0,0,0,0,0.0,0.0,0.0,0.0,0,0,0,0,0,0,0,0,0,0,0,0,0,0,0,0.0,0.0,0.0,0.0,0,0,0,0,0,0,0,0,0,0,0,0,0,0,0,0.0,0.0,0.0,0.0,0,0,0,0,0,0,0,0,0,0,0,0
1417298375,24741,4,1,0,0,0,0,0,0,5709,0.0,0.0,0.0,0.0,0,0,0,0,3,0,0,0,0,0,0,0,0,0,6587,0.0,0.0,0.0,0.0,0,0,0,0,3,0,0,0,0,0,0,0,0,0,6313,0.0,0.0,0.0,0.0,0,0,0,0,3,0,0,0,0,0,0,0,0,0,5982,0.0,0.0,0.0,0.0,0,0,0,0,3,0,0,0,0,0,0,0,0,0,0,0.0,0.0,0.0,0.0,0,0,0,0,0,0,0,0,0,0,0,0,0,0,0,0.0,0.0,0.0,0.0,0,0,0,0,0,0,0,0,0,0,0,0,0,0,0,0.0,0.0,0.0,0.0,0,0,0,0,0,0,0,0,0,0,0,0,0,0,0,0.0,0.0,0.0,0.0,0,0,0,0,0,0,0,0,0,0,0,0
1417550195,24815,4,1,0,0,0,0,0,0,5683,0.0,0.0,0.0,0.0,0,0,0,0,3,0,0,0,0,0,0,0,0,0,6588,0.0,0.0,0.0,0.0,0,0,0,0,3,0,0,0,0,0,0,0,0,0,6291,0.0,0.0,0.0,0.0,0,0,0,0,3,0,0,0,0,0,0,0,0,0,5986,0.0,0.0,0.0,0.0,0,0,0,0,3,0,0,0,0,0,0,0,0,0,0,0.0,0.0,0.0,0.0,0,0,0,0,0,0,0,0,0,0,0,0,0,0,0,0.0,0.0,0.0,0.0,0,0,0,0,0,0,0,0,0,0,0,0,0,0,0,0.0,0.0,0.0,0.0,0,0,0,0,0,0,0,0,0,0,0,0,0,0,0,0.0,0.0,0.0,0.0,0,0,0,0,0,0,0,0,0,0,0,0
1417802882,24890,4,1,0,0,0,0,0,0,5700,0.0,0.0,0.0,0.0,0,0,0,0,3,0,0,0,0,0,0,0,0,0,6578,0.0,0.0,0.0,0.0,0,0,0,0,3,0,0,0,0,0,0,0,0,0,6113,0.0,0.0,0.0,0.0,0,0,0,0,3,0,0,0,0,0,0,0,0,0,5903,0.0,0.0,0.0,0.0,0,0,0,0,3,0,0,0,0,0,0,0,0,0,0,0.0,0.0,0.0,0.0,0,0,0,0,0,0,0,0,0,0,0,0,0,0,0,0.0,0.0,0.0,0.0,0,0,0,0,0,0,0,0,0,0,0,0,0,0,0,0.0,0.0,0.0,0.0,0,0,0,0,0,0,0,0,0,0,0,0,0,0,0,0.0,0.0,0.0,0.0,0,0,0,0,0,0,0,0,0,0,0,0
1418055686,24964,4,1,0,0,0,0,0,0,5706,0.0,0.0,0.0,0.0,0,0,0,0,3,0,0,0,0,0,0,0,0,0,6566,0.0,0.0,0.0,0.0,0,0,0,0,3,0,0,0,0,0,0,0,0,0,6312,0.0,0.0,0.0,0.0,0,0,0,0,3,0,0,0,0,0,0,0,0,0,5991,0.0,0.0,0.0,0.0,0,0,0,0,3,0,0,0,0,0,0,0,0,0,0,0.0,0.0,0.0,0.0,0,0,0,0,0,0,0,0,0,0,0,0,0,0,0,0.0,0.0,0.0,0.0,0,0,0,0,0,0,0,0,0,0,0,0,0,0,0,0.0,0.0,0.0,0.0,0,0,0,0,0,0,0,0,0,0,0,0,0,0,0,0.0,0.0,0.0,0.0,0,0,0,0,0,0,0,0,0,0,0,0
1418307692,25039,4,1,0,0,0,0,0,0,5735,0.0,0.0,0.0,0.0,0,0,0,0,3,0,0,0,0,0,0,0,0,0,6544,0.0,0.0,0.0,0.0,0,0,0,0,3,0,0,0,0,0,0,0,0,0,6260,0.0,0.0,0.0,0.0,0,0,0,0,3,0,0,0,0,0,0,0,0,0,5989,0.0,0.0,0.0,0.0,0,0,0,0,3,0,0,0,0,0,0,0,0,0,0,0.0,0.0,0.0,0.0,0,0,0,0,0,0,0,0,0,0,0,0,0,0,0,0.0,0.0,0.0,0.0,0,0,0,0,0,0,0,0,0,0,0,0,0,0,0,0.0,0.0,0.0,0.0,0,0,0,0,0,0,0,0,0,0,0,0,0,0,0,0.0,0.0,0.0,0.0,0,0,0,0,0,0,0,0,0,0,0,0
1418560593,25113,4,1,0,0,0,0,0,0,5755,0.0,0.0,0.0,0.0,0,0,0,0,3,0,0,0,0,0,0,0,0,0,6581,0.0,0.0,0.0,0.0,0,0,0,0,3,0,0,0,0,0,0,0,0,0,6254,0.0,0.0,0.0,0.0,0,0,0,0,3,0,0,0,0,0,0,0,0,0,5959,0.0,0.0,0.0,0.0,0,0,0,0,3,0,0,0,0,0,0,0,0,0,0,0.0,0.0,0.0,0.0,0,0,0,0,0,0,0,0,0,0,0,0,0,0,0,0.0,0.0,0.0,0.0,0,0,0,0,0,0,0,0,0,0,0,0,0,0,0,0.0,0.0,0.0,0.0,0,0,0,0,0,0,0,0,0,0,0,0,0,0,0,0.0,0.0,0.0,0.0,0,0,0,0,0,0,0,0,0,0,0,0
1418813280,25188,4,1,0,0,0,0,0,0,5737,0.0,0.0,0.0,0.0,0,0,0,0,3,0,0,0,0,0,0,0,0,0,6606,0.0,0.0,0.0,0.0,0,0,0,0,3,0,0,0,0,0,0,0,0,0,6255,0.0,0.0,0.0,0.0,0,0,0,0,3,0,0,0,0,0,0,0,0,0,5960,0.0,0.0,0.0,0.0,0,0,0,0,3,0,0,0,0,0,0,0,0,0,0,0.0,0.0,0.0,0.0,0,0,0,0,0,0,0,0,0,0,0,0,0,0,0,0.0,0.0,0.0,0.0,0,0,0,0,0,0,0,0,0,0,0,0,0,0,0,0.0,0.0,0.0,0.0,0,0,0,0,0,0,0,0,0,0,0,0,0,0,0,0.0,0.0,0.0,0.0,0,0,0,0,0,0,0,0,0,0,0,0
1419065488,25262,4,1,0,0,0,0,0,0,5748,0.0,0.0,0.0,0.0,0,0,0,0,3,0,0,0,0,0,0,0,0,0,6602,0.0,0.0,0.0,0.0,0,0,0,0,3,0,0,0,0,0,0,0,0,0,6258,0.0,0.0,0.0,0.0,0,0,0,0,3,0,0,0,0,0,0,0,0,0,5974,0.0,0.0,0.0,0.0,0,0,0,0,3,0,0,0,0,0,0,0,0,0,0,0.0,0.0,0.0,0.0,0,0,0,0,0,0,0,0,0,0,0,0,0,0,0,0.0,0.0,0.0,0.0,0,0,0,0,0,0,0,0,0,0,0,0,0,0,0,0.0,0.0,0.0,0.0,0,0,0,0,0,0,0,0,0,0,0,0,0,0,0,0.0,0.0,0.0,0.0,0,0,0,0,0,0,0,0,0,0,0,0
1419318376,25337,4,1,0,0,0,0,0,0,5817,0.0,0.0,0.0,0.0,0,0,0,0,3,0,0,0,0,0,0,0,0,0,6586,0.0,0.0,0.0,0.0,0,0,0,0,3,0,0,0,0,0,0,0,0,0,6222,0.0,0.0,0.0,0.0,0,0,0,0,3,0,0,0,0,0,0,0,0,0,5995,0.0,0.0,0.0,0.0,0,0,0,0,3,0,0,0,0,0,0,0,0,0,0,0.0,0.0,0.0,0.0,0,0,0,0,0,0,0,0,0,0,0,0,0,0,0,0.0,0.0,0.0,0.0,0,0,0,0,0,0,0,0,0,0,0,0,0,0,0,0.0,0.0,0.0,0.0,0,0,0,0,0,0,0,0,0,0,0,0,0,0,0,0.0,0.0,0.0,0.0,0,0,0,0,0,0,0,0,0,0,0,0
1419566200,25410,4,1,0,0,0,0,0,0,5846,0.0,0.0,0.0,0.0,0,0,0,0,3,0,0,0,0,0,0,0,0,0,6543,0.0,0.0,0.0,0.0,0,0,0,0,3,0,0,0,0,0,0,0,0,0,6189,0.0,0.0,0.0,0.0,0,0,0,0,3,0,0,0,0,0,0,0,0,0,6010,0.0,0.0,0.0,0.0,0,0,0,0,3,0,0,0,0,0,0,0,0,0,0,0.0,0.0,0.0,0.0,0,0,0,0,0,0,0,0,0,0,0,0,0,0,0,0.0,0.0,0.0,0.0,0,0,0,0,0,0,0,0,0,0,0,0,0,0,0,0.0,0.0,0.0,0.0,0,0,0,0,0,0,0,0,0,0,0,0,0,0,0,0.0,0.0,0.0,0.0,0,0,0,0,0,0,0,0,0,0,0,0
1419818976,25484,4,1,0,0,0,0,0,0,5831,0.0,0.0,0.0,0.0,0,0,0,0,3,0,0,0,0,0,0,0,0,0,6536,0.0,0.0,0.0,0.0,0,0,0,0,3,0,0,0,0,0,0,0,0,0,6186,0.0,0.0,0.0,0.0,0,0,0,0,3,0,0,0,0,0,0,0,0,0,6053,0.0,0.0,0.0,0.0,0,0,0,0,3,0,0,0,0,0,0,0,0,0,0,0.0,0.0,0.0,0.0,0,0,0,0,0,0,0,0,0,0,0,0,0,0,0,0.0,0.0,0.0,0.0,0,0,0,0,0,0,0,0,0,0,0,0,0,0,0,0.0,0.0,0.0,0.0,0,0,0,0,0,0,0,0,0,0,0,0,0,0,0,0.0,0.0,0.0,0.0,0,0,0,0,0,0,0,0,0,0,0,0
1420070993,25559,4,1,0,0,0,0,0,0,5837,0.0,0.0,0.0,0.0,0,0,0,0,3,0,0,0,0,0,0,0,0,0,6531,0.0,0.0,0.0,0.0,0,0,0,0,3,0,0,0,0,0,0,0,0,0,6192,0.0,0.0,0.0,0.0,0,0,0,0,3,0,0,0,0,0,0,0,0,0,6020,0.0,0.0,0.0,0.0,0,0,0,0,3,0,0,0,0,0,0,0,0,0,0,0.0,0.0,0.0,0.0,0,0,0,0,0,0,0,0,0,0,0,0,0,0,0,0.0,0.0,0.0,0.0,0,0,0,0,0,0,0,0,0,0,0,0,0,0,0,0.0,0.0,0.0,0.0,0,0,0,0,0,0,0,0,0,0,0,0,0,0,0,0.0,0.0,0.0,0.0,0,0,0,0,0,0,0,0,0,0,0,0
1420323686,25633,4,1,0,0,0,0,0,0,5788,0.0,0.0,0.0,0.0,0,0,0,0,3,0,0,0,0,0,0,0,0,0,6535,0.0,0.0,0.0,0.0,0,0,0,0,3,0,0,0,0,0,0,0,0,0,6198,0.0,0.0,0.0,0.0,0,0,0,0,3,0,0,0,0,0,0,0,0,0,6006,0.0,0.0,0.0,0.0,0,0,0,0,3,0,0,0,0,0,0,0,0,0,0,0.0,0.0,0.0,0.0,0,0,0,0,0,0,0,0,0,0,0,0,0,0,0,0.0,0.0,0.0,0.0,0,0,0,0,0,0,0,0,0,0,0,0,0,0,0,0.0,0.0,0.0,0.0,0,0,0,0,0,0,0,0,0,0,0,0,0,0,0,0.0,0.0,0.0,0.0,0,0,0,0,0,0,0,0,0,0,0,0
1420576585,25708,4,1,0,0,0,0,0,0,5803,0.0,0.0,0.0,0.0,0,0,0,0,3,0,0,0,0,0,0,0,0,0,6547,0.0,0.0,0.0,0.0,0,0,0,0,3,0,0,0,0,0,0,0,0,0,6249,0.0,0.0,0.0,0.0,0,0,0,0,3,0,0,0,0,0,0,0,0,0,5954,0.0,0.0,0.0,0.0,0,0,0,0,3,0,0,0,0,0,0,0,0,0,0,0.0,0.0,0.0,0.0,0,0,0,0,0,0,0,0,0,0,0,0,0,0,0,0.0,0.0,0.0,0.0,0,0,0,0,0,0,0,0,0,0,0,0,0,0,0,0.0,0.0,0.0,0.0,0,0,0,0,0,0,0,0,0,0,0,0,0,0,0,0.0,0.0,0.0,0.0,0,0,0,0,0,0,0,0,0,0,0,0
1420828579,25782,4,1,0,0,0,0,0,0,5774,0.0,0.0,0.0,0.0,0,0,0,0,3,0,0,0,0,0,0,0,0,0,6561,0.0,0.0,0.0,0.0,0,0,0,0,3,0,0,0,0,0,0,0,0,0,6257,0.0,0.0,0.0,0.0,0,0,0,0,3,0,0,0,0,0,0,0,0,0,5941,0.0,0.0,0.0,0.0,0,0,0,0,3,0,0,0,0,0,0,0,0,0,0,0.0,0.0,0.0,0.0,0,0,0,0,0,0,0,0,0,0,0,0,0,0,0,0.0,0.0,0.0,0.0,0,0,0,0,0,0,0,0,0,0,0,0,0,0,0,0.0,0.0,0.0,0.0,0,0,0,0,0,0,0,0,0,0,0,0,0,0,0,0.0,0.0,0.0,0.0,0,0,0,0,0,0,0,0,0,0,0,0
1421081402,25857,4,1,0,0,0,0,0,0,5747,0.0,0.0,0.0,0.0,0,0,0,0,3,0,0,0,0,0,0,0,0,0,6583,0.0,0.0,0.0,0.0,0,0,0,0,3,0,0,0,0,0,0,0,0,0,6294,0.0,0.0,0.0,0.0,0,0,0,0,3,0,0,0,0,0,0,0,0,0,5951,0.0,0.0,0.0,0.0,0,0,0,0,3,0,0,0,0,0,0,0,0,0,0,0.0,0.0,0.0,0.0,0,0,0,0,0,0,0,0,0,0,0,0,0,0,0,0.0,0.0,0.0,0.0,0,0,0,0,0,0,0,0,0,0,0,0,0,0,0,0.0,0.0,0.0,0.0,0,0,0,0,0,0,0,0,0,0,0,0,0,0,0,0.0,0.0,0.0,0.0,0,0,0,0,0,0,0,0,0,0,0,0
1421333380,25931,4,1,0,0,0,0,0,0,5740,0.0,0.0,0.0,0.0,0,0,0,0,3,0,0,0,0,0,0,0,0,0,6596,0.0,0.0,0.0,0.0,0,0,0,0,3,0,0,0,0,0,0,0,0,0,6290,0.0,0.0,0.0,0.0,0,0,0,0,3,0,0,0,0,0,0,0,0,0,5942,0.0,0.0,0.0,0.0,0,0,0,0,3,0,0,0,0,0,0,0,0,0,0,0.0,0.0,0.0,0.0,0,0,0,0,0,0,0,0,0,0,0,0,0,0,0,0.0,0.0,0.0,0.0,0,0,0,0,0,0,0,0,0,0,0,0,0,0,0,0.0,0.0,0.0,0.0,0,0,0,0,0,0,0,0,0,0,0,0,0,0,0,0.0,0.0,0.0,0.0,0,0,0,0,0,0,0,0,0,0,0,0
1421583120,26005,4,1,0,0,0,0,0,0,5724,0.0,0.0,0.0,0.0,0,0,0,0,3,0,0,0,0,0,0,0,0,0,6565,0.0,0.0,0.0,0.0,0,0,0,0,3,0,0,0,0,0,0,0,0,0,6321,0.0,0.0,0.0,0.0,0,0,0,0,3,0,0,0,0,0,0,0,0,0,5942,0.0,0.0,0.0,0.0,0,0,0,0,3,0,0,0,0,0,0,0,0,0,0,0.0,0.0,0.0,0.0,0,0,0,0,0,0,0,0,0,0,0,0,0,0,0,0.0,0.0,0.0,0.0,0,0,0,0,0,0,0,0,0,0,0,0,0,0,0,0.0,0.0,0.0,0.0,0,0,0,0,0,0,0,0,0,0,0,0,0,0,0,0.0,0.0,0.0,0.0,0,0,0,0,0,0,0,0,0,0,0,0
1421834193,26079,4,1,0,0,0,0,0,0,5720,0.0,0.0,0.0,0.0,0,0,0,0,3,0,0,0,0,0,0,0,0,0,6570,0.0,0.0,0.0,0.0,0,0,0,0,3,0,0,0,0,0,0,0,0,0,6314,0.0,0.0,0.0,0.0,0,0,0,0,3,0,0,0,0,0,0,0,0,0,5942,0.0,0.0,0.0,0.0,0,0,0,0,3,0,0,0,0,0,0,0,0,0,0,0.0,0.0,0.0,0.0,0,0,0,0,0,0,0,0,0,0,0,0,0,0,0,0.0,0.0,0.0,0.0,0,0,0,0,0,0,0,0,0,0,0,0,0,0,0,0.0,0.0,0.0,0.0,0,0,0,0,0,0,0,0,0,0,0,0,0,0,0,0.0,0.0,0.0,0.0,0,0,0,0,0,0,0,0,0,0,0,0
1422082972,26152,4,1,0,0,0,0,0,0,5740,0.0,0.0,0.0,0.0,0,0,0,0,3,0,0,0,0,0,0,0,0,0,6584,0.0,0.0,0.0,0.0,0,0,0,0,3,0,0,0,0,0,0,0,0,0,6286,0.0,0.0,0.0,0.0,0,0,0,0,3,0,0,0,0,0,0,0,0,0,5930,0.0,0.0,0.0,0.0,0,0,0,0,3,0,0,0,0,0,0,0,0,0,0,0.0,0.0,0.0,0.0,0,0,0,0,0,0,0,0,0,0,0,0,0,0,0,0.0,0.0,0.0,0.0,0,0,0,0,0,0,0,0,0,0,0,0,0,0,0,0.0,0.0,0.0,0.0,0,0,0,0,0,0,0,0,0,0,0,0,0,0,0,0.0,0.0,0.0,0.0,0,0,0,0,0,0,0,0,0,0,0,0
1422334884,26227,4,1,0,0,0,0,0,0,5747,0.0,0.0,0.0,0.0,0,0,0,0,3,0,0,0,0,0,0,0,0,0,6563,0.0,0.0,0.0,0.0,0,0,0,0,3,0,0,0,0,0,0,0,0,0,6262,0.0,0.0,0.0,0.0,0,0,0,0,3,0,0,0,0,0,0,0,0,0,5957,0.0,0.0,0.0,0.0,0,0,0,0,3,0,0,0,0,0,0,0,0,0,0,0.0,0.0,0.0,0.0,0,0,0,0,0,0,0,0,0,0,0,0,0,0,0,0.0,0.0,0.0,0.0,0,0,0,0,0,0,0,0,0,0,0,0,0,0,0,0.0,0.0,0.0,0.0,0,0,0,0,0,0,0,0,0,0,0,0,0,0,0,0.0,0.0,0.0,0.0,0,0,0,0,0,0,0,0,0,0,0,0
1422587686,26301,4,1,0,0,0,0,0,0,5736,0.0,0.0,0.0,0.0,0,0,0,0,3,0,0,0,0,0,0,0,0,0,6566,0.0,0.0,0.0,0.0,0,0,0,0,3,0,0,0,0,0,0,0,0,0,6223,0.0,0.0,0.0,0.0,0,0,0,0,3,0,0,0,0,0,0,0,0,0,5959,0.0,0.0,0.0,0.0,0,0,0,0,3,0,0,0,0,0,0,0,0,0,0,0.0,0.0,0.0,0.0,0,0,0,0,0,0,0,0,0,0,0,0,0,0,0,0.0,0.0,0.0,0.0,0,0,0,0,0,0,0,0,0,0,0,0,0,0,0,0.0,0.0,0.0,0.0,0,0,0,0,0,0,0,0,0,0,0,0,0,0,0,0.0,0.0,0.0,0.0,0,0,0,0,0,0,0,0,0,0,0,0
1423092673,26450,4,1,0,0,0,0,0,0,5748,0.0,0.0,0.0,0.0,0,0,0,0,3,0,0,0,0,0,0,0,0,0,6563,0.0,0.0,0.0,0.0,0,0,0,0,3,0,0,0,0,0,0,0,0,0,6189,0.0,0.0,0.0,0.0,0,0,0,0,3,0,0,0,0,0,0,0,0,0,6006,0.0,0.0,0.0,0.0,0,0,0,0,3,0,0,0,0,0,0,0,0,0,0,0.0,0.0,0.0,0.0,0,0,0,0,0,0,0,0,0,0,0,0,0,0,0,0.0,0.0,0.0,0.0,0,0,0,0,0,0,0,0,0,0,0,0,0,0,0,0.0,0.0,0.0,0.0,0,0,0,0,0,0,0,0,0,0,0,0,0,0,0,0.0,0.0,0.0,0.0,0,0,0,0,0,0,0,0,0,0,0,0
1423346256,26525,4,1,0,0,0,0,0,0,5748,0.0,0.0,0.0,0.0,0,0,0,0,3,0,0,0,0,0,0,0,0,0,6569,0.0,0.0,0.0,0.0,0,0,0,0,3,0,0,0,0,0,0,0,0,0,6171,0.0,0.0,0.0,0.0,0,0,0,0,3,0,0,0,0,0,0,0,0,0,5989,0.0,0.0,0.0,0.0,0,0,0,0,3,0,0,0,0,0,0,0,0,0,0,0.0,0.0,0.0,0.0,0,0,0,0,0,0,0,0,0,0,0,0,0,0,0,0.0,0.0,0.0,0.0,0,0,0,0,0,0,0,0,0,0,0,0,0,0,0,0.0,0.0,0.0,0.0,0,0,0,0,0,0,0,0,0,0,0,0,0,0,0,0.0,0.0,0.0,0.0,0,0,0,0,0,0,0,0,0,0,0,0
1423597381,26599,4,1,0,0,0,0,0,0,5759,0.0,0.0,0.0,0.0,0,0,0,0,3,0,0,0,0,0,0,0,0,0,6539,0.0,0.0,0.0,0.0,0,0,0,0,3,0,0,0,0,0,0,0,0,0,6204,0.0,0.0,0.0,0.0,0,0,0,0,3,0,0,0,0,0,0,0,0,0,5991,0.0,0.0,0.0,0.0,0,0,0,0,3,0,0,0,0,0,0,0,0,0,0,0.0,0.0,0.0,0.0,0,0,0,0,0,0,0,0,0,0,0,0,0,0,0,0.0,0.0,0.0,0.0,0,0,0,0,0,0,0,0,0,0,0,0,0,0,0,0.0,0.0,0.0,0.0,0,0,0,0,0,0,0,0,0,0,0,0,0,0,0,0.0,0.0,0.0,0.0,0,0,0,0,0,0,0,0,0,0,0,0
1423850372,26673,4,1,0,0,0,0,0,0,5743,0.0,0.0,0.0,0.0,0,0,0,0,3,0,0,0,0,0,0,0,0,0,6543,0.0,0.0,0.0,0.0,0,0,0,0,3,0,0,0,0,0,0,0,0,0,6171,0.0,0.0,0.0,0.0,0,0,0,0,3,0,0,0,0,0,0,0,0,0,5994,0.0,0.0,0.0,0.0,0,0,0,0,3,0,0,0,0,0,0,0,0,0,0,0.0,0.0,0.0,0.0,0,0,0,0,0,0,0,0,0,0,0,0,0,0,0,0.0,0.0,0.0,0.0,0,0,0,0,0,0,0,0,0,0,0,0,0,0,0,0.0,0.0,0.0,0.0,0,0,0,0,0,0,0,0,0,0,0,0,0,0,0,0.0,0.0,0.0,0.0,0,0,0,0,0,0,0,0,0,0,0,0
1424098976,26747,4,1,0,0,0,0,0,0,5728,0.0,0.0,0.0,0.0,0,0,0,0,3,0,0,0,0,0,0,0,0,0,6545,0.0,0.0,0.0,0.0,0,0,0,0,3,0,0,0,0,0,0,0,0,0,6150,0.0,0.0,0.0,0.0,0,0,0,0,3,0,0,0,0,0,0,0,0,0,6012,0.0,0.0,0.0,0.0,0,0,0,0,3,0,0,0,0,0,0,0,0,0,0,0.0,0.0,0.0,0.0,0,0,0,0,0,0,0,0,0,0,0,0,0,0,0,0.0,0.0,0.0,0.0,0,0,0,0,0,0,0,0,0,0,0,0,0,0,0,0.0,0.0,0.0,0.0,0,0,0,0,0,0,0,0,0,0,0,0,0,0,0,0.0,0.0,0.0,0.0,0,0,0,0,0,0,0,0,0,0,0,0
1424350882,26821,4,1,0,0,0,0,0,0,5737,0.0,0.0,0.0,0.0,0,0,0,0,3,0,0,0,0,0,0,0,0,0,6516,0.0,0.0,0.0,0.0,0,0,0,0,3,0,0,0,0,0,0,0,0,0,6144,0.0,0.0,0.0,0.0,0,0,0,0,3,0,0,0,0,0,0,0,0,0,6026,0.0,0.0,0.0,0.0,0,0,0,0,3,0,0,0,0,0,0,0,0,0,0,0.0,0.0,0.0,0.0,0,0,0,0,0,0,0,0,0,0,0,0,0,0,0,0.0,0.0,0.0,0.0,0,0,0,0,0,0,0,0,0,0,0,0,0,0,0,0.0,0.0,0.0,0.0,0,0,0,0,0,0,0,0,0,0,0,0,0,0,0,0.0,0.0,0.0,0.0,0,0,0,0,0,0,0,0,0,0,0,0
1424603794,26896,4,1,0,0,0,0,0,0,5748,0.0,0.0,0.0,0.0,0,0,0,0,3,0,0,0,0,0,0,0,0,0,6517,0.0,0.0,0.0,0.0,0,0,0,0,3,0,0,0,0,0,0,0,0,0,6135,0.0,0.0,0.0,0.0,0,0,0,0,3,0,0,0,0,0,0,0,0,0,6068,0.0,0.0,0.0,0.0,0,0,0,0,3,0,0,0,0,0,0,0,0,0,0,0.0,0.0,0.0,0.0,0,0,0,0,0,0,0,0,0,0,0,0,0,0,0,0.0,0.0,0.0,0.0,0,0,0,0,0,0,0,0,0,0,0,0,0,0,0,0.0,0.0,0.0,0.0,0,0,0,0,0,0,0,0,0,0,0,0,0,0,0,0.0,0.0,0.0,0.0,0,0,0,0,0,0,0,0,0,0,0,0
1424855794,26970,4,1,0,0,0,0,0,0,5767,0.0,0.0,0.0,0.0,0,0,0,0,3,0,0,0,0,0,0,0,0,0,6523,0.0,0.0,0.0,0.0,0,0,0,0,3,0,0,0,0,0,0,0,0,0,6133,0.0,0.0,0.0,0.0,0,0,0,0,3,0,0,0,0,0,0,0,0,0,6075,0.0,0.0,0.0,0.0,0,0,0,0,3,0,0,0,0,0,0,0,0,0,0,0.0,0.0,0.0,0.0,0,0,0,0,0,0,0,0,0,0,0,0,0,0,0,0.0,0.0,0.0,0.0,0,0,0,0,0,0,0,0,0,0,0,0,0,0,0,0.0,0.0,0.0,0.0,0,0,0,0,0,0,0,0,0,0,0,0,0,0,0,0.0,0.0,0.0,0.0,0,0,0,0,0,0,0,0,0,0,0,0
1425108493,27045,4,1,0,0,0,0,0,0,5765,0.0,0.0,0.0,0.0,0,0,0,0,3,0,0,0,0,0,0,0,0,0,6516,0.0,0.0,0.0,0.0,0,0,0,0,3,0,0,0,0,0,0,0,0,0,6142,0.0,0.0,0.0,0.0,0,0,0,0,3,0,0,0,0,0,0,0,0,0,6079,0.0,0.0,0.0,0.0,0,0,0,0,3,0,0,0,0,0,0,0,0,0,0,0.0,0.0,0.0,0.0,0,0,0,0,0,0,0,0,0,0,0,0,0,0,0,0.0,0.0,0.0,0.0,0,0,0,0,0,0,0,0,0,0,0,0,0,0,0,0.0,0.0,0.0,0.0,0,0,0,0,0,0,0,0,0,0,0,0,0,0,0,0.0,0.0,0.0,0.0,0,0,0,0,0,0,0,0,0,0,0,0
1425360579,27119,4,1,0,0,0,0,0,0,5794,0.0,0.0,0.0,0.0,0,0,0,0,3,0,0,0,0,0,0,0,0,0,6538,0.0,0.0,0.0,0.0,0,0,0,0,3,0,0,0,0,0,0,0,0,0,6157,0.0,0.0,0.0,0.0,0,0,0,0,3,0,0,0,0,0,0,0,0,0,6077,0.0,0.0,0.0,0.0,0,0,0,0,3,0,0,0,0,0,0,0,0,0,0,0.0,0.0,0.0,0.0,0,0,0,0,0,0,0,0,0,0,0,0,0,0,0,0.0,0.0,0.0,0.0,0,0,0,0,0,0,0,0,0,0,0,0,0,0,0,0.0,0.0,0.0,0.0,0,0,0,0,0,0,0,0,0,0,0,0,0,0,0,0.0,0.0,0.0,0.0,0,0,0,0,0,0,0,0,0,0,0,0
1425613404,27194,4,1,0,0,0,0,0,0,5784,0.0,0.0,0.0,0.0,0,0,0,0,3,0,0,0,0,0,0,0,0,0,6552,0.0,0.0,0.0,0.0,0,0,0,0,3,0,0,0,0,0,0,0,0,0,6148,0.0,0.0,0.0,0.0,0,0,0,0,3,0,0,0,0,0,0,0,0,0,6075,0.0,0.0,0.0,0.0,0,0,0,0,3,0,0,0,0,0,0,0,0,0,0,0.0,0.0,0.0,0.0,0,0,0,0,0,0,0,0,0,0,0,0,0,0,0,0.0,0.0,0.0,0.0,0,0,0,0,0,0,0,0,0,0,0,0,0,0,0,0.0,0.0,0.0,0.0,0,0,0,0,0,0,0,0,0,0,0,0,0,0,0,0.0,0.0,0.0,0.0,0,0,0,0,0,0,0,0,0,0,0,0
1426118219,27343,4,1,0,0,0,0,0,0,5806,0.0,0.0,0.0,0.0,0,0,0,0,3,0,0,0,0,0,0,0,0,0,6508,0.0,0.0,0.0,0.0,0,0,0,0,3,0,0,0,0,0,0,0,0,0,6098,0.0,0.0,0.0,0.0,0,0,0,0,3,0,0,0,0,0,0,0,0,0,6060,0.0,0.0,0.0,0.0,0,0,0,0,3,0,0,0,0,0,0,0,0,0,0,0.0,0.0,0.0,0.0,0,0,0,0,0,0,0,0,0,0,0,0,0,0,0,0.0,0.0,0.0,0.0,0,0,0,0,0,0,0,0,0,0,0,0,0,0,0,0.0,0.0,0.0,0.0,0,0,0,0,0,0,0,0,0,0,0,0,0,0,0,0.0,0.0,0.0,0.0,0,0,0,0,0,0,0,0,0,0,0,0
1426367036,27416,4,1,0,0,0,0,0,0,5799,0.0,0.0,0.0,0.0,0,0,0,0,3,0,0,0,0,0,0,0,0,0,6483,0.0,0.0,0.0,0.0,0,0,0,0,3,0,0,0,0,0,0,0,0,0,6121,0.0,0.0,0.0,0.0,0,0,0,0,3,0,0,0,0,0,0,0,0,0,6105,0.0,0.0,0.0,0.0,0,0,0,0,3,0,0,0,0,0,0,0,0,0,0,0.0,0.0,0.0,0.0,0,0,0,0,0,0,0,0,0,0,0,0,0,0,0,0.0,0.0,0.0,0.0,0,0,0,0,0,0,0,0,0,0,0,0,0,0,0,0.0,0.0,0.0,0.0,0,0,0,0,0,0,0,0,0,0,0,0,0,0,0,0.0,0.0,0.0,0.0,0,0,0,0,0,0,0,0,0,0,0,0
1426618973,27490,4,1,0,0,0,0,0,0,5818,0.0,0.0,0.0,0.0,0,0,0,0,3,0,0,0,0,0,0,0,0,0,6529,0.0,0.0,0.0,0.0,0,0,0,0,3,0,0,0,0,0,0,0,0,0,6099,0.0,0.0,0.0,0.0,0,0,0,0,3,0,0,0,0,0,0,0,0,0,6105,0.0,0.0,0.0,0.0,0,0,0,0,3,0,0,0,0,0,0,0,0,0,0,0.0,0.0,0.0,0.0,0,0,0,0,0,0,0,0,0,0,0,0,0,0,0,0.0,0.0,0.0,0.0,0,0,0,0,0,0,0,0,0,0,0,0,0,0,0,0.0,0.0,0.0,0.0,0,0,0,0,0,0,0,0,0,0,0,0,0,0,0,0.0,0.0,0.0,0.0,0,0,0,0,0,0,0,0,0,0,0,0
1427124482,27639,4,1,0,0,0,0,0,0,5825,0.0,0.0,0.0,0.0,0,0,0,0,3,0,0,0,0,0,0,0,0,0,6499,0.0,0.0,0.0,0.0,0,0,0,0,3,0,0,0,0,0,0,0,0,0,6078,0.0,0.0,0.0,0.0,0,0,0,0,3,0,0,0,0,0,0,0,0,0,6159,0.0,0.0,0.0,0.0,0,0,0,0,3,0,0,0,0,0,0,0,0,0,0,0.0,0.0,0.0,0.0,0,0,0,0,0,0,0,0,0,0,0,0,0,0,0,0.0,0.0,0.0,0.0,0,0,0,0,0,0,0,0,0,0,0,0,0,0,0,0.0,0.0,0.0,0.0,0,0,0,0,0,0,0,0,0,0,0,0,0,0,0,0.0,0.0,0.0,0.0,0,0,0,0,0,0,0,0,0,0,0,0
1427376487,27714,4,1,0,0,0,0,0,0,5820,0.0,0.0,0.0,0.0,0,0,0,0,3,0,0,0,0,0,0,0,0,0,6488,0.0,0.0,0.0,0.0,0,0,0,0,3,0,0,0,0,0,0,0,0,0,6103,0.0,0.0,0.0,0.0,0,0,0,0,3,0,0,0,0,0,0,0,0,0,6158,0.0,0.0,0.0,0.0,0,0,0,0,3,0,0,0,0,0,0,0,0,0,0,0.0,0.0,0.0,0.0,0,0,0,0,0,0,0,0,0,0,0,0,0,0,0,0.0,0.0,0.0,0.0,0,0,0,0,0,0,0,0,0,0,0,0,0,0,0,0.0,0.0,0.0,0.0,0,0,0,0,0,0,0,0,0,0,0,0,0,0,0,0.0,0.0,0.0,0.0,0,0,0,0,0,0,0,0,0,0,0,0
1427629392,27788,4,1,0,0,0,0,0,0,5789,0.0,0.0,0.0,0.0,0,0,0,0,3,0,0,0,0,0,0,0,0,0,6505,0.0,0.0,0.0,0.0,0,0,0,0,3,0,0,0,0,0,0,0,0,0,6141,0.0,0.0,0.0,0.0,0,0,0,0,3,0,0,0,0,0,0,0,0,0,6136,0.0,0.0,0.0,0.0,0,0,0,0,3,0,0,0,0,0,0,0,0,0,0,0.0,0.0,0.0,0.0,0,0,0,0,0,0,0,0,0,0,0,0,0,0,0,0.0,0.0,0.0,0.0,0,0,0,0,0,0,0,0,0,0,0,0,0,0,0,0.0,0.0,0.0,0.0,0,0,0,0,0,0,0,0,0,0,0,0,0,0,0,0.0,0.0,0.0,0.0,0,0,0,0,0,0,0,0,0,0,0,0
1428134212,27937,4,1,0,0,0,0,0,0,5774,0.0,0.0,0.0,0.0,0,0,0,0,3,0,0,0,0,0,0,0,0,0,6564,0.0,0.0,0.0,0.0,0,0,0,0,3,0,0,0,0,0,0,0,0,0,6181,0.0,0.0,0.0,0.0,0,0,0,0,3,0,0,0,0,0,0,0,0,0,6113,0.0,0.0,0.0,0.0,0,0,0,0,3,0,0,0,0,0,0,0,0,0,0,0.0,0.0,0.0,0.0,0,0,0,0,0,0,0,0,0,0,0,0,0,0,0,0.0,0.0,0.0,0.0,0,0,0,0,0,0,0,0,0,0,0,0,0,0,0,0.0,0.0,0.0,0.0,0,0,0,0,0,0,0,0,0,0,0,0,0,0,0,0.0,0.0,0.0,0.0,0,0,0,0,0,0,0,0,0,0,0,0
1428382976,28011,4,1,0,0,0,0,0,0,5733,0.0,0.0,0.0,0.0,0,0,0,0,3,0,0,0,0,0,0,0,0,0,6540,0.0,0.0,0.0,0.0,0,0,0,0,3,0,0,0,0,0,0,0,0,0,6134,0.0,0.0,0.0,0.0,0,0,0,0,3,0,0,0,0,0,0,0,0,0,6125,0.0,0.0,0.0,0.0,0,0,0,0,3,0,0,0,0,0,0,0,0,0,0,0.0,0.0,0.0,0.0,0,0,0,0,0,0,0,0,0,0,0,0,0,0,0,0.0,0.0,0.0,0.0,0,0,0,0,0,0,0,0,0,0,0,0,0,0,0,0.0,0.0,0.0,0.0,0,0,0,0,0,0,0,0,0,0,0,0,0,0,0,0.0,0.0,0.0,0.0,0,0,0,0,0,0,0,0,0,0,0,0
1428635137,28085,4,1,0,0,0,0,0,0,5754,0.0,0.0,0.0,0.0,0,0,0,0,3,0,0,0,0,0,0,0,0,0,6538,0.0,0.0,0.0,0.0,0,0,0,0,3,0,0,0,0,0,0,0,0,0,6115,0.0,0.0,0.0,0.0,0,0,0,0,3,0,0,0,0,0,0,0,0,0,6175,0.0,0.0,0.0,0.0,0,0,0,0,3,0,0,0,0,0,0,0,0,0,0,0.0,0.0,0.0,0.0,0,0,0,0,0,0,0,0,0,0,0,0,0,0,0,0.0,0.0,0.0,0.0,0,0,0,0,0,0,0,0,0,0,0,0,0,0,0,0.0,0.0,0.0,0.0,0,0,0,0,0,0,0,0,0,0,0,0,0,0,0,0.0,0.0,0.0,0.0,0,0,0,0,0,0,0,0,0,0,0,0
1429139769,28234,4,1,0,0,0,0,0,0,5802,0.0,0.0,0.0,0.0,0,0,0,0,3,0,0,0,0,0,0,0,0,0,6510,0.0,0.0,0.0,0.0,0,0,0,0,3,0,0,0,0,0,0,0,0,0,6124,0.0,0.0,0.0,0.0,0,0,0,0,3,0,0,0,0,0,0,0,0,0,6147,0.0,0.0,0.0,0.0,0,0,0,0,3,0,0,0,0,0,0,0,0,0,0,0.0,0.0,0.0,0.0,0,0,0,0,0,0,0,0,0,0,0,0,0,0,0,0.0,0.0,0.0,0.0,0,0,0,0,0,0,0,0,0,0,0,0,0,0,0,0.0,0.0,0.0,0.0,0,0,0,0,0,0,0,0,0,0,0,0,0,0,0,0.0,0.0,0.0,0.0,0,0,0,0,0,0,0,0,0,0,0,0
1429393144,28309,4,1,0,0,0,0,0,0,5797,0.0,0.0,0.0,0.0,0,0,0,0,3,0,0,0,0,0,0,0,0,0,6493,0.0,0.0,0.0,0.0,0,0,0,0,3,0,0,0,0,0,0,0,0,0,6112,0.0,0.0,0.0,0.0,0,0,0,0,3,0,0,0,0,0,0,0,0,0,6102,0.0,0.0,0.0,0.0,0,0,0,0,3,0,0,0,0,0,0,0,0,0,0,0.0,0.0,0.0,0.0,0,0,0,0,0,0,0,0,0,0,0,0,0,0,0,0.0,0.0,0.0,0.0,0,0,0,0,0,0,0,0,0,0,0,0,0,0,0,0.0,0.0,0.0,0.0,0,0,0,0,0,0,0,0,0,0,0,0,0,0,0,0.0,0.0,0.0,0.0,0,0,0,0,0,0,0,0,0,0,0,0
1429645381,28383,4,1,0,0,0,0,0,0,5794,0.0,0.0,0.0,0.0,0,0,0,0,3,0,0,0,0,0,0,0,0,0,6499,0.0,0.0,0.0,0.0,0,0,0,0,3,0,0,0,0,0,0,0,0,0,6138,0.0,0.0,0.0,0.0,0,0,0,0,3,0,0,0,0,0,0,0,0,0,6099,0.0,0.0,0.0,0.0,0,0,0,0,3,0,0,0,0,0,0,0,0,0,0,0.0,0.0,0.0,0.0,0,0,0,0,0,0,0,0,0,0,0,0,0,0,0,0.0,0.0,0.0,0.0,0,0,0,0,0,0,0,0,0,0,0,0,0,0,0,0.0,0.0,0.0,0.0,0,0,0,0,0,0,0,0,0,0,0,0,0,0,0,0.0,0.0,0.0,0.0,0,0,0,0,0,0,0,0,0,0,0,0
1429897379,28457,4,1,0,0,0,0,0,0,5784,0.0,0.0,0.0,0.0,0,0,0,0,3,0,0,0,0,0,0,0,0,0,6487,0.0,0.0,0.0,0.0,0,0,0,0,3,0,0,0,0,0,0,0,0,0,6116,0.0,0.0,0.0,0.0,0,0,0,0,3,0,0,0,0,0,0,0,0,0,6083,0.0,0.0,0.0,0.0,0,0,0,0,3,0,0,0,0,0,0,0,0,0,0,0.0,0.0,0.0,0.0,0,0,0,0,0,0,0,0,0,0,0,0,0,0,0,0.0,0.0,0.0,0.0,0,0,0,0,0,0,0,0,0,0,0,0,0,0,0,0.0,0.0,0.0,0.0,0,0,0,0,0,0,0,0,0,0,0,0,0,0,0,0.0,0.0,0.0,0.0,0,0,0,0,0,0,0,0,0,0,0,0
1430150195,28532,4,1,0,0,0,0,0,0,5778,0.0,0.0,0.0,0.0,0,0,0,0,3,0,0,0,0,0,0,0,0,0,6535,0.0,0.0,0.0,0.0,0,0,0,0,3,0,0,0,0,0,0,0,0,0,6103,0.0,0.0,0.0,0.0,0,0,0,0,3,0,0,0,0,0,0,0,0,0,6111,0.0,0.0,0.0,0.0,0,0,0,0,3,0,0,0,0,0,0,0,0,0,0,0.0,0.0,0.0,0.0,0,0,0,0,0,0,0,0,0,0,0,0,0,0,0,0.0,0.0,0.0,0.0,0,0,0,0,0,0,0,0,0,0,0,0,0,0,0,0.0,0.0,0.0,0.0,0,0,0,0,0,0,0,0,0,0,0,0,0,0,0,0.0,0.0,0.0,0.0,0,0,0,0,0,0,0,0,0,0,0,0
1430402204,28606,4,1,0,0,0,0,0,0,5821,0.0,0.0,0.0,0.0,0,0,0,0,3,0,0,0,0,0,0,0,0,0,6516,0.0,0.0,0.0,0.0,0,0,0,0,3,0,0,0,0,0,0,0,0,0,6152,0.0,0.0,0.0,0.0,0,0,0,0,3,0,0,0,0,0,0,0,0,0,6075,0.0,0.0,0.0,0.0,0,0,0,0,3,0,0,0,0,0,0,0,0,0,0,0.0,0.0,0.0,0.0,0,0,0,0,0,0,0,0,0,0,0,0,0,0,0,0.0,0.0,0.0,0.0,0,0,0,0,0,0,0,0,0,0,0,0,0,0,0,0.0,0.0,0.0,0.0,0,0,0,0,0,0,0,0,0,0,0,0,0,0,0,0.0,0.0,0.0,0.0,0,0,0,0,0,0,0,0,0,0,0,0
1430650887,28680,4,1,0,0,0,0,0,0,5805,0.0,0.0,0.0,0.0,0,0,0,0,3,0,0,0,0,0,0,0,0,0,6511,0.0,0.0,0.0,0.0,0,0,0,0,3,0,0,0,0,0,0,0,0,0,6154,0.0,0.0,0.0,0.0,0,0,0,0,3,0,0,0,0,0,0,0,0,0,6081,0.0,0.0,0.0,0.0,0,0,0,0,3,0,0,0,0,0,0,0,0,0,0,0.0,0.0,0.0,0.0,0,0,0,0,0,0,0,0,0,0,0,0,0,0,0,0.0,0.0,0.0,0.0,0,0,0,0,0,0,0,0,0,0,0,0,0,0,0,0.0,0.0,0.0,0.0,0,0,0,0,0,0,0,0,0,0,0,0,0,0,0,0.0,0.0,0.0,0.0,0,0,0,0,0,0,0,0,0,0,0,0
1430902977,28754,4,1,0,0,0,0,0,0,5859,0.0,0.0,0.0,0.0,0,0,0,0,3,0,0,0,0,0,0,0,0,0,6470,0.0,0.0,0.0,0.0,0,0,0,0,3,0,0,0,0,0,0,0,0,0,6184,0.0,0.0,0.0,0.0,0,0,0,0,3,0,0,0,0,0,0,0,0,0,6117,0.0,0.0,0.0,0.0,0,0,0,0,3,0,0,0,0,0,0,0,0,0,0,0.0,0.0,0.0,0.0,0,0,0,0,0,0,0,0,0,0,0,0,0,0,0,0.0,0.0,0.0,0.0,0,0,0,0,0,0,0,0,0,0,0,0,0,0,0,0.0,0.0,0.0,0.0,0,0,0,0,0,0,0,0,0,0,0,0,0,0,0,0.0,0.0,0.0,0.0,0,0,0,0,0,0,0,0,0,0,0,0
1431156964,28829,4,1,0,0,0,0,0,0,5851,0.0,0.0,0.0,0.0,0,0,0,0,3,0,0,0,0,0,0,0,0,0,6477,0.0,0.0,0.0,0.0,0,0,0,0,3,0,0,0,0,0,0,0,0,0,6119,0.0,0.0,0.0,0.0,0,0,0,0,3,0,0,0,0,0,0,0,0,0,6098,0.0,0.0,0.0,0.0,0,0,0,0,3,0,0,0,0,0,0,0,0,0,0,0.0,0.0,0.0,0.0,0,0,0,0,0,0,0,0,0,0,0,0,0,0,0,0.0,0.0,0.0,0.0,0,0,0,0,0,0,0,0,0,0,0,0,0,0,0,0.0,0.0,0.0,0.0,0,0,0,0,0,0,0,0,0,0,0,0,0,0,0,0.0,0.0,0.0,0.0,0,0,0,0,0,0,0,0,0,0,0,0
1431408487,28903,4,1,0,0,0,0,0,0,5688,0.0,0.0,0.0,0.0,0,0,0,0,3,0,0,0,0,0,0,0,0,0,6515,0.0,0.0,0.0,0.0,0,0,0,0,3,0,0,0,0,0,0,0,0,0,6092,0.0,0.0,0.0,0.0,0,0,0,0,3,0,0,0,0,0,0,0,0,0,6163,0.0,0.0,0.0,0.0,0,0,0,0,3,0,0,0,0,0,0,0,0,0,0,0.0,0.0,0.0,0.0,0,0,0,0,0,0,0,0,0,0,0,0,0,0,0,0.0,0.0,0.0,0.0,0,0,0,0,0,0,0,0,0,0,0,0,0,0,0,0.0,0.0,0.0,0.0,0,0,0,0,0,0,0,0,0,0,0,0,0,0,0,0.0,0.0,0.0,0.0,0,0,0,0,0,0,0,0,0,0,0,0
1431661396,28978,4,1,0,0,0,0,0,0,5869,0.0,0.0,0.0,0.0,0,0,0,0,3,0,0,0,0,0,0,0,0,0,6448,0.0,0.0,0.0,0.0,0,0,0,0,3,0,0,0,0,0,0,0,0,0,6118,0.0,0.0,0.0,0.0,0,0,0,0,3,0,0,0,0,0,0,0,0,0,6110,0.0,0.0,0.0,0.0,0,0,0,0,3,0,0,0,0,0,0,0,0,0,0,0.0,0.0,0.0,0.0,0,0,0,0,0,0,0,0,0,0,0,0,0,0,0,0.0,0.0,0.0,0.0,0,0,0,0,0,0,0,0,0,0,0,0,0,0,0,0.0,0.0,0.0,0.0,0,0,0,0,0,0,0,0,0,0,0,0,0,0,0,0.0,0.0,0.0,0.0,0,0,0,0,0,0,0,0,0,0,0,0
1431913391,29052,4,1,0,0,0,0,0,0,5852,0.0,0.0,0.0,0.0,0,0,0,0,3,0,0,0,0,0,0,0,0,0,6479,0.0,0.0,0.0,0.0,0,0,0,0,3,0,0,0,0,0,0,0,0,0,6151,0.0,0.0,0.0,0.0,0,0,0,0,3,0,0,0,0,0,0,0,0,0,6060,0.0,0.0,0.0,0.0,0,0,0,0,3,0,0,0,0,0,0,0,0,0,0,0.0,0.0,0.0,0.0,0,0,0,0,0,0,0,0,0,0,0,0,0,0,0,0.0,0.0,0.0,0.0,0,0,0,0,0,0,0,0,0,0,0,0,0,0,0,0.0,0.0,0.0,0.0,0,0,0,0,0,0,0,0,0,0,0,0,0,0,0,0.0,0.0,0.0,0.0,0,0,0,0,0,0,0,0,0,0,0,0
1432166684,29127,4,1,0,0,0,0,0,0,5751,0.0,0.0,0.0,0.0,0,0,0,0,3,0,0,0,0,0,0,0,0,0,6447,0.0,0.0,0.0,0.0,0,0,0,0,3,0,0,0,0,0,0,0,0,0,6104,0.0,0.0,0.0,0.0,0,0,0,0,3,0,0,0,0,0,0,0,0,0,6102,0.0,0.0,0.0,0.0,0,0,0,0,3,0,0,0,0,0,0,0,0,0,0,0.0,0.0,0.0,0.0,0,0,0,0,0,0,0,0,0,0,0,0,0,0,0,0.0,0.0,0.0,0.0,0,0,0,0,0,0,0,0,0,0,0,0,0,0,0,0.0,0.0,0.0,0.0,0,0,0,0,0,0,0,0,0,0,0,0,0,0,0,0.0,0.0,0.0,0.0,0,0,0,0,0,0,0,0,0,0,0,0
1432418196,29201,4,1,0,0,0,0,0,0,5778,0.0,0.0,0.0,0.0,0,0,0,0,3,0,0,0,0,0,0,0,0,0,6446,0.0,0.0,0.0,0.0,0,0,0,0,3,0,0,0,0,0,0,0,0,0,6042,0.0,0.0,0.0,0.0,0,0,0,0,3,0,0,0,0,0,0,0,0,0,6181,0.0,0.0,0.0,0.0,0,0,0,0,3,0,0,0,0,0,0,0,0,0,0,0.0,0.0,0.0,0.0,0,0,0,0,0,0,0,0,0,0,0,0,0,0,0,0.0,0.0,0.0,0.0,0,0,0,0,0,0,0,0,0,0,0,0,0,0,0,0.0,0.0,0.0,0.0,0,0,0,0,0,0,0,0,0,0,0,0,0,0,0,0.0,0.0,0.0,0.0,0,0,0,0,0,0,0,0,0,0,0,0
1432667145,29274,4,1,0,0,0,0,0,0,5811,0.0,0.0,0.0,0.0,0,0,0,0,3,0,0,0,0,0,0,0,0,0,6390,0.0,0.0,0.0,0.0,0,0,0,0,3,0,0,0,0,0,0,0,0,0,6008,0.0,0.0,0.0,0.0,0,0,0,0,3,0,0,0,0,0,0,0,0,0,6132,0.0,0.0,0.0,0.0,0,0,0,0,3,0,0,0,0,0,0,0,0,0,0,0.0,0.0,0.0,0.0,0,0,0,0,0,0,0,0,0,0,0,0,0,0,0,0.0,0.0,0.0,0.0,0,0,0,0,0,0,0,0,0,0,0,0,0,0,0,0.0,0.0,0.0,0.0,0,0,0,0,0,0,0,0,0,0,0,0,0,0,0,0.0,0.0,0.0,0.0,0,0,0,0,0,0,0,0,0,0,0,0
1432919185,29349,4,1,0,0,0,0,0,0,5871,0.0,0.0,0.0,0.0,0,0,0,0,3,0,0,0,0,0,0,0,0,0,6306,0.0,0.0,0.0,0.0,0,0,0,0,3,0,0,0,0,0,0,0,0,0,5961,0.0,0.0,0.0,0.0,0,0,0,0,3,0,0,0,0,0,0,0,0,0,6198,0.0,0.0,0.0,0.0,0,0,0,0,3,0,0,0,0,0,0,0,0,0,0,0.0,0.0,0.0,0.0,0,0,0,0,0,0,0,0,0,0,0,0,0,0,0,0.0,0.0,0.0,0.0,0,0,0,0,0,0,0,0,0,0,0,0,0,0,0,0.0,0.0,0.0,0.0,0,0,0,0,0,0,0,0,0,0,0,0,0,0,0,0.0,0.0,0.0,0.0,0,0,0,0,0,0,0,0,0,0,0,0
1433171679,29423,4,1,0,0,0,0,0,0,5915,0.0,0.0,0.0,0.0,0,0,0,0,3,0,0,0,0,0,0,0,0,0,6335,0.0,0.0,0.0,0.0,0,0,0,0,3,0,0,0,0,0,0,0,0,0,5921,0.0,0.0,0.0,0.0,0,0,0,0,3,0,0,0,0,0,0,0,0,0,6186,0.0,0.0,0.0,0.0,0,0,0,0,3,0,0,0,0,0,0,0,0,0,0,0.0,0.0,0.0,0.0,0,0,0,0,0,0,0,0,0,0,0,0,0,0,0,0.0,0.0,0.0,0.0,0,0,0,0,0,0,0,0,0,0,0,0,0,0,0,0.0,0.0,0.0,0.0,0,0,0,0,0,0,0,0,0,0,0,0,0,0,0,0.0,0.0,0.0,0.0,0,0,0,0,0,0,0,0,0,0,0,0
1433423689,29498,4,1,0,0,0,0,0,0,5956,0.0,0.0,0.0,0.0,0,0,0,0,3,0,0,0,0,0,0,0,0,0,6326,0.0,0.0,0.0,0.0,0,0,0,0,3,0,0,0,0,0,0,0,0,0,5952,0.0,0.0,0.0,0.0,0,0,0,0,3,0,0,0,0,0,0,0,0,0,6223,0.0,0.0,0.0,0.0,0,0,0,0,3,0,0,0,0,0,0,0,0,0,0,0.0,0.0,0.0,0.0,0,0,0,0,0,0,0,0,0,0,0,0,0,0,0,0.0,0.0,0.0,0.0,0,0,0,0,0,0,0,0,0,0,0,0,0,0,0,0.0,0.0,0.0,0.0,0,0,0,0,0,0,0,0,0,0,0,0,0,0,0,0.0,0.0,0.0,0.0,0,0,0,0,0,0,0,0,0,0,0,0
1433676577,29572,4,1,0,0,0,0,0,0,5958,0.0,0.0,0.0,0.0,0,0,0,0,3,0,0,0,0,0,0,0,0,0,6321,0.0,0.0,0.0,0.0,0,0,0,0,3,0,0,0,0,0,0,0,0,0,5996,0.0,0.0,0.0,0.0,0,0,0,0,3,0,0,0,0,0,0,0,0,0,6231,0.0,0.0,0.0,0.0,0,0,0,0,3,0,0,0,0,0,0,0,0,0,0,0.0,0.0,0.0,0.0,0,0,0,0,0,0,0,0,0,0,0,0,0,0,0,0.0,0.0,0.0,0.0,0,0,0,0,0,0,0,0,0,0,0,0,0,0,0,0.0,0.0,0.0,0.0,0,0,0,0,0,0,0,0,0,0,0,0,0,0,0,0.0,0.0,0.0,0.0,0,0,0,0,0,0,0,0,0,0,0,0
1433929572,29647,4,1,0,0,0,0,0,0,6010,0.0,0.0,0.0,0.0,0,0,0,0,3,0,0,0,0,0,0,0,0,0,6415,0.0,0.0,0.0,0.0,0,0,0,0,3,0,0,0,0,0,0,0,0,0,6018,0.0,0.0,0.0,0.0,0,0,0,0,3,0,0,0,0,0,0,0,0,0,6272,0.0,0.0,0.0,0.0,0,0,0,0,3,0,0,0,0,0,0,0,0,0,0,0.0,0.0,0.0,0.0,0,0,0,0,0,0,0,0,0,0,0,0,0,0,0,0.0,0.0,0.0,0.0,0,0,0,0,0,0,0,0,0,0,0,0,0,0,0,0.0,0.0,0.0,0.0,0,0,0,0,0,0,0,0,0,0,0,0,0,0,0,0.0,0.0,0.0,0.0,0,0,0,0,0,0,0,0,0,0,0,0
1434434199,29796,4,1,0,0,0,0,0,0,5966,0.0,0.0,0.0,0.0,0,0,0,0,3,0,0,0,0,0,0,0,0,0,6394,0.0,0.0,0.0,0.0,0,0,0,0,3,0,0,0,0,0,0,0,0,0,5955,0.0,0.0,0.0,0.0,0,0,0,0,3,0,0,0,0,0,0,0,0,0,6231,0.0,0.0,0.0,0.0,0,0,0,0,3,0,0,0,0,0,0,0,0,0,0,0.0,0.0,0.0,0.0,0,0,0,0,0,0,0,0,0,0,0,0,0,0,0,0.0,0.0,0.0,0.0,0,0,0,0,0,0,0,0,0,0,0,0,0,0,0,0.0,0.0,0.0,0.0,0,0,0,0,0,0,0,0,0,0,0,0,0,0,0,0.0,0.0,0.0,0.0,0,0,0,0,0,0,0,0,0,0,0,0
1434683140,29869,4,1,0,0,0,0,0,0,6009,0.0,0.0,0.0,0.0,0,0,0,0,3,0,0,0,0,0,0,0,0,0,6349,0.0,0.0,0.0,0.0,0,0,0,0,3,0,0,0,0,0,0,0,0,0,6038,0.0,0.0,0.0,0.0,0,0,0,0,3,0,0,0,0,0,0,0,0,0,6254,0.0,0.0,0.0,0.0,0,0,0,0,3,0,0,0,0,0,0,0,0,0,0,0.0,0.0,0.0,0.0,0,0,0,0,0,0,0,0,0,0,0,0,0,0,0,0.0,0.0,0.0,0.0,0,0,0,0,0,0,0,0,0,0,0,0,0,0,0,0.0,0.0,0.0,0.0,0,0,0,0,0,0,0,0,0,0,0,0,0,0,0,0.0,0.0,0.0,0.0,0,0,0,0,0,0,0,0,0,0,0,0
1434934980,29943,4,1,0,0,0,0,0,0,5933,0.0,0.0,0.0,0.0,0,0,0,0,3,0,0,0,0,0,0,0,0,0,6367,0.0,0.0,0.0,0.0,0,0,0,0,3,0,0,0,0,0,0,0,0,0,6014,0.0,0.0,0.0,0.0,0,0,0,0,3,0,0,0,0,0,0,0,0,0,6238,0.0,0.0,0.0,0.0,0,0,0,0,3,0,0,0,0,0,0,0,0,0,0,0.0,0.0,0.0,0.0,0,0,0,0,0,0,0,0,0,0,0,0,0,0,0,0.0,0.0,0.0,0.0,0,0,0,0,0,0,0,0,0,0,0,0,0,0,0,0.0,0.0,0.0,0.0,0,0,0,0,0,0,0,0,0,0,0,0,0,0,0,0.0,0.0,0.0,0.0,0,0,0,0,0,0,0,0,0,0,0,0
1435439694,30092,4,1,0,0,0,0,0,0,5834,0.0,0.0,0.0,0.0,0,0,0,0,3,0,0,0,0,0,0,0,0,0,6431,0.0,0.0,0.0,0.0,0,0,0,0,3,0,0,0,0,0,0,0,0,0,6135,0.0,0.0,0.0,0.0,0,0,0,0,3,0,0,0,0,0,0,0,0,0,6176,0.0,0.0,0.0,0.0,0,0,0,0,3,0,0,0,0,0,0,0,0,0,0,0.0,0.0,0.0,0.0,0,0,0,0,0,0,0,0,0,0,0,0,0,0,0,0.0,0.0,0.0,0.0,0,0,0,0,0,0,0,0,0,0,0,0,0,0,0,0.0,0.0,0.0,0.0,0,0,0,0,0,0,0,0,0,0,0,0,0,0,0,0.0,0.0,0.0,0.0,0,0,0,0,0,0,0,0,0,0,0,0
1435692496,30167,4,1,0,0,0,0,0,0,5788,0.0,0.0,0.0,0.0,0,0,0,0,3,0,0,0,0,0,0,0,0,0,6467,0.0,0.0,0.0,0.0,0,0,0,0,3,0,0,0,0,0,0,0,0,0,6127,0.0,0.0,0.0,0.0,0,0,0,0,3,0,0,0,0,0,0,0,0,0,6067,0.0,0.0,0.0,0.0,0,0,0,0,3,0,0,0,0,0,0,0,0,0,0,0.0,0.0,0.0,0.0,0,0,0,0,0,0,0,0,0,0,0,0,0,0,0,0.0,0.0,0.0,0.0,0,0,0,0,0,0,0,0,0,0,0,0,0,0,0,0.0,0.0,0.0,0.0,0,0,0,0,0,0,0,0,0,0,0,0,0,0,0,0.0,0.0,0.0,0.0,0,0,0,0,0,0,0,0,0,0,0,0
1435944604,30241,4,1,0,0,0,0,0,0,5759,0.0,0.0,0.0,0.0,0,0,0,0,3,0,0,0,0,0,0,0,0,0,6503,0.0,0.0,0.0,0.0,0,0,0,0,3,0,0,0,0,0,0,0,0,0,6168,0.0,0.0,0.0,0.0,0,0,0,0,3,0,0,0,0,0,0,0,0,0,6044,0.0,0.0,0.0,0.0,0,0,0,0,3,0,0,0,0,0,0,0,0,0,0,0.0,0.0,0.0,0.0,0,0,0,0,0,0,0,0,0,0,0,0,0,0,0,0.0,0.0,0.0,0.0,0,0,0,0,0,0,0,0,0,0,0,0,0,0,0,0.0,0.0,0.0,0.0,0,0,0,0,0,0,0,0,0,0,0,0,0,0,0,0.0,0.0,0.0,0.0,0,0,0,0,0,0,0,0,0,0,0,0
1436197387,30316,4,1,0,0,0,0,0,0,5734,0.0,0.0,0.0,0.0,0,0,0,0,3,0,0,0,0,0,0,0,0,0,6520,0.0,0.0,0.0,0.0,0,0,0,0,3,0,0,0,0,0,0,0,0,0,6203,0.0,0.0,0.0,0.0,0,0,0,0,3,0,0,0,0,0,0,0,0,0,6020,0.0,0.0,0.0,0.0,0,0,0,0,3,0,0,0,0,0,0,0,0,0,0,0.0,0.0,0.0,0.0,0,0,0,0,0,0,0,0,0,0,0,0,0,0,0,0.0,0.0,0.0,0.0,0,0,0,0,0,0,0,0,0,0,0,0,0,0,0,0.0,0.0,0.0,0.0,0,0,0,0,0,0,0,0,0,0,0,0,0,0,0,0.0,0.0,0.0,0.0,0,0,0,0,0,0,0,0,0,0,0,0
1436450195,30390,4,1,0,0,0,0,0,0,5734,0.0,0.0,0.0,0.0,0,0,0,0,3,0,0,0,0,0,0,0,0,0,6543,0.0,0.0,0.0,0.0,0,0,0,0,3,0,0,0,0,0,0,0,0,0,6205,0.0,0.0,0.0,0.0,0,0,0,0,3,0,0,0,0,0,0,0,0,0,6000,0.0,0.0,0.0,0.0,0,0,0,0,3,0,0,0,0,0,0,0,0,0,0,0.0,0.0,0.0,0.0,0,0,0,0,0,0,0,0,0,0,0,0,0,0,0,0.0,0.0,0.0,0.0,0,0,0,0,0,0,0,0,0,0,0,0,0,0,0,0.0,0.0,0.0,0.0,0,0,0,0,0,0,0,0,0,0,0,0,0,0,0,0.0,0.0,0.0,0.0,0,0,0,0,0,0,0,0,0,0,0,0
1436702204,30465,4,1,0,0,0,0,0,0,5764,0.0,0.0,0.0,0.0,0,0,0,0,3,0,0,0,0,0,0,0,0,0,6575,0.0,0.0,0.0,0.0,0,0,0,0,3,0,0,0,0,0,0,0,0,0,6185,0.0,0.0,0.0,0.0,0,0,0,0,3,0,0,0,0,0,0,0,0,0,5993,0.0,0.0,0.0,0.0,0,0,0,0,3,0,0,0,0,0,0,0,0,0,0,0.0,0.0,0.0,0.0,0,0,0,0,0,0,0,0,0,0,0,0,0,0,0,0.0,0.0,0.0,0.0,0,0,0,0,0,0,0,0,0,0,0,0,0,0,0,0.0,0.0,0.0,0.0,0,0,0,0,0,0,0,0,0,0,0,0,0,0,0,0.0,0.0,0.0,0.0,0,0,0,0,0,0,0,0,0,0,0,0
1436955129,30539,4,1,0,0,0,0,0,0,5735,0.0,0.0,0.0,0.0,0,0,0,0,3,0,0,0,0,0,0,0,0,0,6582,0.0,0.0,0.0,0.0,0,0,0,0,3,0,0,0,0,0,0,0,0,0,6201,0.0,0.0,0.0,0.0,0,0,0,0,3,0,0,0,0,0,0,0,0,0,6006,0.0,0.0,0.0,0.0,0,0,0,0,3,0,0,0,0,0,0,0,0,0,0,0.0,0.0,0.0,0.0,0,0,0,0,0,0,0,0,0,0,0,0,0,0,0,0.0,0.0,0.0,0.0,0,0,0,0,0,0,0,0,0,0,0,0,0,0,0,0.0,0.0,0.0,0.0,0,0,0,0,0,0,0,0,0,0,0,0,0,0,0,0.0,0.0,0.0,0.0,0,0,0,0,0,0,0,0,0,0,0,0
1437206975,30614,4,1,0,0,0,0,0,0,5636,0.0,0.0,0.0,0.0,0,0,0,0,3,0,0,0,0,0,0,0,0,0,6462,0.0,0.0,0.0,0.0,0,0,0,0,3,0,0,0,0,0,0,0,0,0,6308,0.0,0.0,0.0,0.0,0,0,0,0,3,0,0,0,0,0,0,0,0,0,6077,0.0,0.0,0.0,0.0,0,0,0,0,3,0,0,0,0,0,0,0,0,0,0,0.0,0.0,0.0,0.0,0,0,0,0,0,0,0,0,0,0,0,0,0,0,0,0.0,0.0,0.0,0.0,0,0,0,0,0,0,0,0,0,0,0,0,0,0,0,0.0,0.0,0.0,0.0,0,0,0,0,0,0,0,0,0,0,0,0,0,0,0,0.0,0.0,0.0,0.0,0,0,0,0,0,0,0,0,0,0,0,0
1437459773,30688,4,1,0,0,0,0,0,0,5708,0.0,0.0,0.0,0.0,0,0,0,0,3,0,0,0,0,0,0,0,0,0,6610,0.0,0.0,0.0,0.0,0,0,0,0,3,0,0,0,0,0,0,0,0,0,6240,0.0,0.0,0.0,0.0,0,0,0,0,3,0,0,0,0,0,0,0,0,0,5962,0.0,0.0,0.0,0.0,0,0,0,0,3,0,0,0,0,0,0,0,0,0,0,0.0,0.0,0.0,0.0,0,0,0,0,0,0,0,0,0,0,0,0,0,0,0,0.0,0.0,0.0,0.0,0,0,0,0,0,0,0,0,0,0,0,0,0,0,0,0.0,0.0,0.0,0.0,0,0,0,0,0,0,0,0,0,0,0,0,0,0,0,0.0,0.0,0.0,0.0,0,0,0,0,0,0,0,0,0,0,0,0
1437712580,30763,4,1,0,0,0,0,0,0,5681,0.0,0.0,0.0,0.0,0,0,0,0,3,0,0,0,0,0,0,0,0,0,6654,0.0,0.0,0.0,0.0,0,0,0,0,3,0,0,0,0,0,0,0,0,0,6303,0.0,0.0,0.0,0.0,0,0,0,0,3,0,0,0,0,0,0,0,0,0,5942,0.0,0.0,0.0,0.0,0,0,0,0,3,0,0,0,0,0,0,0,0,0,0,0.0,0.0,0.0,0.0,0,0,0,0,0,0,0,0,0,0,0,0,0,0,0,0.0,0.0,0.0,0.0,0,0,0,0,0,0,0,0,0,0,0,0,0,0,0,0.0,0.0,0.0,0.0,0,0,0,0,0,0,0,0,0,0,0,0,0,0,0,0.0,0.0,0.0,0.0,0,0,0,0,0,0,0,0,0,0,0,0
1437964549,30837,4,1,0,0,0,0,0,0,5667,0.0,0.0,0.0,0.0,0,0,0,0,3,0,0,0,0,0,0,0,0,0,6705,0.0,0.0,0.0,0.0,0,0,0,0,3,0,0,0,0,0,0,0,0,0,6337,0.0,0.0,0.0,0.0,0,0,0,0,3,0,0,0,0,0,0,0,0,0,5884,0.0,0.0,0.0,0.0,0,0,0,0,3,0,0,0,0,0,0,0,0,0,0,0.0,0.0,0.0,0.0,0,0,0,0,0,0,0,0,0,0,0,0,0,0,0,0.0,0.0,0.0,0.0,0,0,0,0,0,0,0,0,0,0,0,0,0,0,0,0.0,0.0,0.0,0.0,0,0,0,0,0,0,0,0,0,0,0,0,0,0,0,0.0,0.0,0.0,0.0,0,0,0,0,0,0,0,0,0,0,0,0
1438217388,30912,4,1,0,0,0,0,0,0,5623,0.0,0.0,0.0,0.0,0,0,0,0,3,0,0,0,0,0,0,0,0,0,6718,0.0,0.0,0.0,0.0,0,0,0,0,3,0,0,0,0,0,0,0,0,0,6358,0.0,0.0,0.0,0.0,0,0,0,0,3,0,0,0,0,0,0,0,0,0,5901,0.0,0.0,0.0,0.0,0,0,0,0,3,0,0,0,0,0,0,0,0,0,0,0.0,0.0,0.0,0.0,0,0,0,0,0,0,0,0,0,0,0,0,0,0,0,0.0,0.0,0.0,0.0,0,0,0,0,0,0,0,0,0,0,0,0,0,0,0,0.0,0.0,0.0,0.0,0,0,0,0,0,0,0,0,0,0,0,0,0,0,0,0.0,0.0,0.0,0.0,0,0,0,0,0,0,0,0,0,0,0,0
1438466197,30985,4,1,0,0,0,0,0,0,5619,0.0,0.0,0.0,0.0,0,0,0,0,3,0,0,0,0,0,0,0,0,0,6721,0.0,0.0,0.0,0.0,0,0,0,0,3,0,0,0,0,0,0,0,0,0,6323,0.0,0.0,0.0,0.0,0,0,0,0,3,0,0,0,0,0,0,0,0,0,5870,0.0,0.0,0.0,0.0,0,0,0,0,3,0,0,0,0,0,0,0,0,0,0,0.0,0.0,0.0,0.0,0,0,0,0,0,0,0,0,0,0,0,0,0,0,0,0.0,0.0,0.0,0.0,0,0,0,0,0,0,0,0,0,0,0,0,0,0,0,0.0,0.0,0.0,0.0,0,0,0,0,0,0,0,0,0,0,0,0,0,0,0,0.0,0.0,0.0,0.0,0,0,0,0,0,0,0,0,0,0,0,0
1438718100,31059,4,1,0,0,0,0,0,0,5661,0.0,0.0,0.0,0.0,0,0,0,0,3,0,0,0,0,0,0,0,0,0,6730,0.0,0.0,0.0,0.0,0,0,0,0,3,0,0,0,0,0,0,0,0,0,6239,0.0,0.0,0.0,0.0,0,0,0,0,3,0,0,0,0,0,0,0,0,0,5963,0.0,0.0,0.0,0.0,0,0,0,0,3,0,0,0,0,0,0,0,0,0,0,0.0,0.0,0.0,0.0,0,0,0,0,0,0,0,0,0,0,0,0,0,0,0,0.0,0.0,0.0,0.0,0,0,0,0,0,0,0,0,0,0,0,0,0,0,0,0.0,0.0,0.0,0.0,0,0,0,0,0,0,0,0,0,0,0,0,0,0,0,0.0,0.0,0.0,0.0,0,0,0,0,0,0,0,0,0,0,0,0
1438970975,31134,4,1,0,0,0,0,0,0,5733,0.0,0.0,0.0,0.0,0,0,0,0,3,0,0,0,0,0,0,0,0,0,6674,0.0,0.0,0.0,0.0,0,0,0,0,3,0,0,0,0,0,0,0,0,0,6175,0.0,0.0,0.0,0.0,0,0,0,0,3,0,0,0,0,0,0,0,0,0,5964,0.0,0.0,0.0,0.0,0,0,0,0,3,0,0,0,0,0,0,0,0,0,0,0.0,0.0,0.0,0.0,0,0,0,0,0,0,0,0,0,0,0,0,0,0,0,0.0,0.0,0.0,0.0,0,0,0,0,0,0,0,0,0,0,0,0,0,0,0,0.0,0.0,0.0,0.0,0,0,0,0,0,0,0,0,0,0,0,0,0,0,0,0.0,0.0,0.0,0.0,0,0,0,0,0,0,0,0,0,0,0,0
1439222890,31208,4,1,0,0,0,0,0,0,5799,0.0,0.0,0.0,0.0,0,0,0,0,3,0,0,0,0,0,0,0,0,0,6550,0.0,0.0,0.0,0.0,0,0,0,0,3,0,0,0,0,0,0,0,0,0,6165,0.0,0.0,0.0,0.0,0,0,0,0,3,0,0,0,0,0,0,0,0,0,6038,0.0,0.0,0.0,0.0,0,0,0,0,3,0,0,0,0,0,0,0,0,0,0,0.0,0.0,0.0,0.0,0,0,0,0,0,0,0,0,0,0,0,0,0,0,0,0.0,0.0,0.0,0.0,0,0,0,0,0,0,0,0,0,0,0,0,0,0,0,0.0,0.0,0.0,0.0,0,0,0,0,0,0,0,0,0,0,0,0,0,0,0,0.0,0.0,0.0,0.0,0,0,0,0,0,0,0,0,0,0,0,0
1439475787,31283,4,1,0,0,0,0,0,0,5854,0.0,0.0,0.0,0.0,0,0,0,0,3,0,0,0,0,0,0,0,0,0,6505,0.0,0.0,0.0,0.0,0,0,0,0,3,0,0,0,0,0,0,0,0,0,6116,0.0,0.0,0.0,0.0,0,0,0,0,3,0,0,0,0,0,0,0,0,0,6134,0.0,0.0,0.0,0.0,0,0,0,0,3,0,0,0,0,0,0,0,0,0,0,0.0,0.0,0.0,0.0,0,0,0,0,0,0,0,0,0,0,0,0,0,0,0,0.0,0.0,0.0,0.0,0,0,0,0,0,0,0,0,0,0,0,0,0,0,0,0.0,0.0,0.0,0.0,0,0,0,0,0,0,0,0,0,0,0,0,0,0,0,0.0,0.0,0.0,0.0,0,0,0,0,0,0,0,0,0,0,0,0
1439728588,31357,4,1,0,0,0,0,0,0,5932,0.0,0.0,0.0,0.0,0,0,0,0,3,0,0,0,0,0,0,0,0,0,6437,0.0,0.0,0.0,0.0,0,0,0,0,3,0,0,0,0,0,0,0,0,0,6081,0.0,0.0,0.0,0.0,0,0,0,0,3,0,0,0,0,0,0,0,0,0,6133,0.0,0.0,0.0,0.0,0,0,0,0,3,0,0,0,0,0,0,0,0,0,0,0.0,0.0,0.0,0.0,0,0,0,0,0,0,0,0,0,0,0,0,0,0,0,0.0,0.0,0.0,0.0,0,0,0,0,0,0,0,0,0,0,0,0,0,0,0,0.0,0.0,0.0,0.0,0,0,0,0,0,0,0,0,0,0,0,0,0,0,0,0.0,0.0,0.0,0.0,0,0,0,0,0,0,0,0,0,0,0,0
1439980586,31432,4,1,0,0,0,0,0,0,5947,0.0,0.0,0.0,0.0,0,0,0,0,3,0,0,0,0,0,0,0,0,0,6425,0.0,0.0,0.0,0.0,0,0,0,0,3,0,0,0,0,0,0,0,0,0,6055,0.0,0.0,0.0,0.0,0,0,0,0,3,0,0,0,0,0,0,0,0,0,6144,0.0,0.0,0.0,0.0,0,0,0,0,3,0,0,0,0,0,0,0,0,0,0,0.0,0.0,0.0,0.0,0,0,0,0,0,0,0,0,0,0,0,0,0,0,0,0.0,0.0,0.0,0.0,0,0,0,0,0,0,0,0,0,0,0,0,0,0,0,0.0,0.0,0.0,0.0,0,0,0,0,0,0,0,0,0,0,0,0,0,0,0,0.0,0.0,0.0,0.0,0,0,0,0,0,0,0,0,0,0,0,0
