timestamp,time_utc_usec,lat,lon,alt,alt_ellipsoid,s_variance_m_s,c_variance_rad,eph,epv,hdop,vdop,noise_per_ms,jamming_indicator,vel_m_s,vel_n_m_s,vel_e_m_s,vel_d_m_s,cog_rad,timestamp_time_relative,fix_type,vel_ned_valid,satellites_used
1399015387,1550508338200117,0,0,-17000,0,168.41,3.1415925,4294967.5,3750334.2,99.99,99.99,100,91,0.0,0.0,0.0,0.0,0.0,0,0,0,0
1401211295,1550508340400117,0,0,-17000,0,168.54001,3.1415925,4294967.5,3750336.0,99.99,99.99,100,94,0.0,0.0,0.0,0.0,0.0,0,0,0,0
1402212331,1550508341400117,0,0,-17000,0,168.6,3.1415925,4294967.5,3750337.0,99.99,99.99,100,92,0.0,0.0,0.0,0.0,0.0,0,0,0,0
1402413319,1550508341600117,0,0,-17000,0,168.61101,3.1415925,4294967.5,3750337.0,99.99,99.99,100,92,0.0,0.0,0.0,0.0,0.0,0,0,0,0
1402613912,1550508341800117,0,0,-17000,0,168.623,3.1415925,4294967.5,3750337.2,99.99,99.99,100,92,0.0,0.0,0.0,0.0,0.0,0,0,0,0
1402811321,1550508342000117,0,0,-17000,0,168.63501,3.1415925,4294967.5,3750337.2,99.99,99.99,100,92,0.0,0.0,0.0,0.0,0.0,0,0,0,0
1403011319,1550508342200117,0,0,-17000,0,168.647,3.1415925,4294967.5,3750337.5,99.99,99.99,100,92,0.0,0.0,0.0,0.0,0.0,0,0,0,0
1403211327,1550508342400117,0,0,-17000,0,168.65901,3.1415925,4294967.5,3750337.8,99.99,99.99,100,95,0.0,0.0,0.0,0.0,0.0,0,0,0,0
1403412364,1550508342600117,0,0,-17000,0,168.671,3.1415925,4294967.5,3750337.8,99.99,99.99,100,95,0.0,0.0,0.0,0.0,0.0,0,0,0,0
1403611390,1550508342800117,0,0,-17000,0,168.68301,3.1415925,4294967.5,3750338.0,99.99,99.99,100,95,0.0,0.0,0.0,0.0,0.0,0,0,0,0
1403812371,1550508343000117,0,0,-17000,0,168.69402,3.1415925,4294967.5,3750338.2,99.99,99.99,100,95,0.0,0.0,0.0,0.0,0.0,0,0,0,0
1404012347,1550508343200117,0,0,-17000,0,168.70601,3.1415925,4294967.5,3750338.2,99.99,99.99,100,95,0.0,0.0,0.0,0.0,0.0,0,0,0,0
1404212344,1550508343400117,0,0,-17000,0,168.718,3.1415925,4294967.5,3750338.5,99.99,99.99,100,95,0.0,0.0,0.0,0.0,0.0,0,0,0,0
1404412408,1550508343600117,0,0,-17000,0,168.73001,3.1415925,4294967.5,3750338.5,99.99,99.99,100,95,0.0,0.0,0.0,0.0,0.0,0,0,0,0
1404811321,1550508344000117,0,0,-17000,0,168.75401,3.1415925,4294967.5,3750339.0,99.99,99.99,100,95,0.0,0.0,0.0,0.0,0.0,0,0,0,0
1405011320,1550508344200117,0,0,-17000,0,168.766,3.1415925,4294967.5,3750339.0,99.99,99.99,100,95,0.0,0.0,0.0,0.0,0.0,0,0,0,0
1405211323,1550508344400117,0,0,-17000,0,168.77701,3.1415925,4294967.5,3750339.2,99.99,99.99,100,92,0.0,0.0,0.0,0.0,0.0,0,0,0,0
1405411315,1550508344600117,0,0,-17000,0,168.789,3.1415925,4294967.5,3750339.5,99.99,99.99,100,92,0.0,0.0,0.0,0.0,0.0,0,0,0,0
1405611318,1550508344800117,0,0,-17000,0,168.80101,3.1415925,4294967.5,3750339.5,99.99,99.99,100,92,0.0,0.0,0.0,0.0,0.0,0,0,0,0
1405811298,1550508345000117,0,0,-17000,0,168.813,3.1415925,4294967.5,3750339.8,99.99,99.99,100,92,0.0,0.0,0.0,0.0,0.0,0,0,0,0
1406012319,1550508345200117,0,0,-17000,0,168.82501,3.1415925,4294967.5,3750339.8,99.99,99.99,100,92,0.0,0.0,0.0,0.0,0.0,0,0,0,0
1406212400,1550508345400117,0,0,-17000,0,168.837,3.1415925,4294967.5,3750340.0,99.99,99.99,100,95,0.0,0.0,0.0,0.0,0.0,0,0,0,0
1406411376,1550508345600117,0,0,-17000,0,168.848,3.1415925,4294967.5,3750340.2,99.99,99.99,100,95,0.0,0.0,0.0,0.0,0.0,0,0,0,0
1406612322,1550508345800117,0,0,-17000,0,168.86,3.1415925,4294967.5,3750340.5,99.99,99.99,100,95,0.0,0.0,0.0,0.0,0.0,0,0,0,0
1406810321,1550508346000117,0,0,-17000,0,168.87201,3.1415925,4294967.5,3750340.5,99.99,99.99,100,95,0.0,0.0,0.0,0.0,0.0,0,0,0,0
1407011376,1550508346200117,0,0,-17000,0,168.884,3.1415925,4294967.5,3750340.8,99.99,99.99,100,95,0.0,0.0,0.0,0.0,0.0,0,0,0,0
1407212899,1550508346400117,0,0,-17000,0,168.89601,3.1415925,4294967.5,3750340.8,99.99,99.99,100,99,0.0,0.0,0.0,0.0,0.0,0,0,0,0
1407411297,1550508346600117,0,0,-17000,0,168.908,3.1415925,4294967.5,3750341.0,99.99,99.99,100,99,0.0,0.0,0.0,0.0,0.0,0,0,0,0
1407613422,1550508346800117,0,0,-17000,0,168.92001,3.1415925,4294967.5,3750341.0,99.99,99.99,100,99,0.0,0.0,0.0,0.0,0.0,0,0,0,0
1407811318,1550508347000117,0,0,-17000,0,168.93102,3.1415925,4294967.5,3750341.2,99.99,99.99,100,99,0.0,0.0,0.0,0.0,0.0,0,0,0,0
1408011326,1550508347200117,0,0,-17000,0,168.94301,3.1415925,4294967.5,3750341.5,99.99,99.99,100,99,0.0,0.0,0.0,0.0,0.0,0,0,0,0
1408212316,1550508347400117,0,0,-17000,0,168.955,3.1415925,4294967.5,3750341.5,99.99,99.99,100,90,0.0,0.0,0.0,0.0,0.0,0,0,0,0
1408413296,1550508347589133,561458100,142093300,14673398,14709750,121.937004,3.1415925,4294967.5,3751101.5,99.99,99.99,100,90,0.0,0.0,0.0,0.0,0.0,0,0,0,0
1408612486,1550508347789206,560876087,160237654,14656035,14689579,122.976006,3.1415925,4294967.5,3751106.5,99.99,99.99,100,90,0.0,0.0,0.0,0.0,0.0,0,0,0,0
1408825322,1550508348000206,561070116,154996835,14661957,14696306,122.686005,3.1415925,4294967.5,3751105.5,99.99,99.99,100,90,0.0,0.0,0.0,0.0,0.0,0,0,0,0
1409025321,1550508348200206,561068147,155018455,14661892,14696237,122.704,3.1415925,4294967.5,3751106.0,99.99,99.99,100,90,0.0,0.0,0.0,0.0,0.0,0,0,0,0
1409225322,1550508348400133,561451393,142180151,14673178,14709518,122.01,3.1415925,4294967.5,3751103.2,99.99,99.99,100,92,0.0,0.0,0.0,0.0,0.0,0,0,0,0
1409423298,1550508348600133,561449716,142201852,14673123,14709460,122.02801,3.1415925,4294967.5,3751104.2,99.99,99.99,100,92,0.0,0.0,0.0,0.0,0.0,0,0,0,0
1409622324,1550508348800133,561639125,133174208,14678264,14716021,121.58401,3.1415925,4294967.5,3751102.5,99.99,99.99,100,92,0.0,0.0,0.0,0.0,0.0,0,0,0,0
1409823321,1550508349000133,561637651,133195969,14678217,14715970,121.601006,3.1415925,4294967.5,3751103.0,99.99,99.99,100,92,0.0,0.0,0.0,0.0,0.0,0,0,0,0
1410026735,1550508349200066,561774676,122794130,14681311,14720715,121.129005,3.1415925,4294967.5,3751101.0,99.99,99.99,100,92,0.0,0.0,0.0,0.0,0.0,0,0,0,0
1410223389,1550508349400066,561773439,122815931,14681272,14720672,121.146,3.1415925,4294967.5,3751101.5,99.99,99.99,100,89,0.0,0.0,0.0,0.0,0.0,0,0,0,0
1410424552,1550508349600066,561772202,122837740,14681232,14720630,121.16401,3.1415925,4294967.5,3751102.2,99.99,99.99,100,89,0.0,0.0,0.0,0.0,0.0,0,0,0,0
1410624325,1550508349800016,561811466,106238062,14679934,14721989,120.495,3.1415925,4294967.5,3751099.0,99.99,99.99,100,89,0.0,0.0,0.0,0.0,0.0,0,0,0,0
1410824465,1550508350000016,561810608,106259915,14679908,14721959,120.51301,3.1415925,4294967.5,3751099.5,99.99,99.99,100,89,0.0,0.0,0.0,0.0,0.0,0,0,0,0
1411022397,1550508350200067,561768485,122903160,14681114,14720501,121.217,3.1415925,4294967.5,3751104.0,99.99,99.99,100,89,0.0,0.0,0.0,0.0,0.0,0,0,0,0
1411224402,1550508350400176,561132623,152750326,14663775,14698472,122.755005,3.1415925,4294967.5,3751111.2,99.99,99.99,100,95,0.0,0.0,0.0,0.0,0.0,0,0,0,0
1411425421,1550508350600176,560925044,158526580,14657468,14691276,123.106,3.1415925,4294967.5,3751113.5,99.99,99.99,100,95,0.0,0.0,0.0,0.0,0.0,0,0,0,0
1411624340,1550508350800260,560325844,172215572,14638761,14670494,123.965004,3.1415925,4294967.5,3751117.5,99.99,99.99,100,95,0.0,0.0,0.0,0.0,0.0,0,0,0,0
1411825323,1550508351000260,560323481,172237047,14638682,14670412,123.98301,3.1415925,4294967.5,3751118.0,99.99,99.99,100,95,0.0,0.0,0.0,0.0,0.0,0,0,0,0
1412023322,1550508351200200,560918884,158591356,14657264,14691063,123.159004,3.1415925,4294967.5,3751115.0,99.99,99.99,100,95,0.0,0.0,0.0,0.0,0.0,0,0,0,0
1412223327,1550508351400200,561123010,152858513,14663458,14698139,122.843,3.1415925,4294967.5,3751114.2,99.99,99.99,100,93,0.0,0.0,0.0,0.0,0.0,0,0,0,0
1412424318,1550508351600200,561121085,152880146,14663394,14698072,122.86101,3.1415925,4294967.5,3751114.8,99.99,99.99,100,93,0.0,0.0,0.0,0.0,0.0,0,0,0,0
1412623320,1550508351800200,560912719,158656114,14657059,14690849,123.212006,3.1415925,4294967.5,3751117.0,99.99,99.99,100,93,0.0,0.0,0.0,0.0,0.0,0,0,0,0
1412825384,1550508352000200,560910663,158677701,14656991,14690778,123.23,3.1415925,4294967.5,3751117.2,99.99,99.99,100,93,0.0,0.0,0.0,0.0,0.0,0,0,0,0
1413025314,1550508352200165,561215699,149838405,14666202,14701351,122.739006,3.1415925,4294967.5,3751115.5,99.99,99.99,100,93,0.0,0.0,0.0,0.0,0.0,0,0,0,0
1413224611,1550508352400165,561000362,156203269,14659721,14693888,123.118004,3.1415925,4294967.5,3751117.5,99.99,99.99,100,92,0.0,0.0,0.0,0.0,0.0,0,0,0,0
1413424345,1550508352600165,561211985,149881711,14666079,14701223,122.774,3.1415925,4294967.5,3751117.0,99.99,99.99,100,92,0.0,0.0,0.0,0.0,0.0,0,0,0,0
1413624392,1550508352800086,561694756,128186819,14679399,14717948,121.676,3.1415925,4294967.5,3751112.0,99.99,99.99,100,92,0.0,0.0,0.0,0.0,0.0,0,0,0,0
1413823296,1550508353000019,561797637,106587787,14679510,14721510,120.77601,3.1415925,4294967.5,3751107.8,99.99,99.99,100,92,0.0,0.0,0.0,0.0,0.0,0,0,0,0
1414023366,1550508353200019,561806059,111103070,14680527,14721802,120.968,3.1415925,4294967.5,3751109.2,99.99,99.99,100,92,0.0,0.0,0.0,0.0,0.0,0,0,0,0
1414225619,1550508353400019,561805085,111124915,14680496,14721768,120.98501,3.1415925,4294967.5,3751109.8,99.99,99.99,100,95,0.0,0.0,0.0,0.0,0.0,0,0,0,0
1414425651,1550508353600070,561747294,123273866,14680437,14719767,121.51601,3.1415925,4294967.5,3751113.0,99.99,99.99,100,95,0.0,0.0,0.0,0.0,0.0,0,0,0,0
1414624381,1550508353800070,561746041,123295676,14680397,14719724,121.534004,3.1415925,4294967.5,3751113.8,99.99,99.99,100,95,0.0,0.0,0.0,0.0,0.0,0,0,0,0
1414824467,1550508354000070,561744787,123317480,14680357,14719680,121.551,3.1415925,4294967.5,3751114.2,99.99,99.99,100,95,0.0,0.0,0.0,0.0,0.0,0,0,0,0
1415024342,1550508354200020,561792402,106718921,14679350,14721329,120.881004,3.1415925,4294967.5,3751110.5,99.99,99.99,100,95,0.0,0.0,0.0,0.0,0.0,0,0,0,0
1415224343,1550508354400020,561791527,106740772,14679323,14721299,120.899,3.1415925,4294967.5,3751111.5,99.99,99.99,100,88,0.0,0.0,0.0,0.0,0.0,0,0,0,0
1415425908,1550508354600020,561790652,106762627,14679296,14721268,120.91601,3.1415925,4294967.5,3751112.0,99.99,99.99,100,88,0.0,0.0,0.0,0.0,0.0,0,0,0,0
1415625296,1550508354800020,561767536,102642762,14677833,14720468,120.781006,3.1415925,4294967.5,3751111.5,99.99,99.99,100,88,0.0,0.0,0.0,0.0,0.0,0,0,0,0
1415823318,1550508355000020,561766753,102664625,14677809,14720441,120.798004,3.1415925,4294967.5,3751111.8,99.99,99.99,100,88,0.0,0.0,0.0,0.0,0.0,0,0,0,0
1416023364,1550508355200020,561765970,102686488,14677786,14720414,120.81601,3.1415925,4294967.5,3751112.8,99.99,99.99,100,88,0.0,0.0,0.0,0.0,0.0,0,0,0,0
1416223361,1550508355400020,561765186,102708350,14677762,14720387,120.83301,3.1415925,4294967.5,3751113.5,99.99,99.99,100,95,0.0,0.0,0.0,0.0,0.0,0,0,0,0
1416423320,1550508355600020,561786262,106871902,14679161,14721116,121.003006,3.1415925,4294967.5,3751114.8,99.99,99.99,100,95,0.0,0.0,0.0,0.0,0.0,0,0,0,0
1416624965,1550508355800020,561785382,106893756,14679134,14721086,121.021,3.1415925,4294967.5,3751115.2,99.99,99.99,100,95,0.0,0.0,0.0,0.0,0.0,0,0,0,0
1416824361,1550508356000020,561784501,106915611,14679107,14721055,121.038,3.1415925,4294967.5,3751116.0,99.99,99.99,100,95,0.0,0.0,0.0,0.0,0.0,0,0,0,0
1417023321,1550508356200020,561783619,106937465,14679080,14721025,121.05601,3.1415925,4294967.5,3751116.2,99.99,99.99,100,95,0.0,0.0,0.0,0.0,0.0,0,0,0,0
1417225315,1550508356400020,561782737,106959319,14679053,14720994,121.073006,3.1415925,4294967.5,3751117.0,99.99,99.99,100,97,0.0,0.0,0.0,0.0,0.0,0,0,0,0
1417425312,1550508356600020,561760468,102839524,14677619,14720223,120.938,3.1415925,4294967.5,3751116.8,99.99,99.99,100,97,0.0,0.0,0.0,0.0,0.0,0,0,0,0
1417624405,1550508356800020,561759679,102861385,14677595,14720196,120.95501,3.1415925,4294967.5,3751117.2,99.99,99.99,100,97,0.0,0.0,0.0,0.0,0.0,0,0,0,0
1417824429,1550508357000020,561759679,102861385,14677595,14720196,120.97201,3.1415925,4294967.5,3751117.8,99.99,99.99,100,97,0.0,0.0,0.0,0.0,0.0,0,0,0,0
1418024446,1550508357200020,561759679,102861385,14677595,14720196,120.98801,3.1415925,4294967.5,3751118.5,99.99,99.99,100,97,0.0,0.0,0.0,0.0,0.0,0,0,0,0
1418223320,1550508357400020,561759679,102861385,14677595,14720196,121.005005,3.1415925,4294967.5,3751118.8,99.99,99.99,100,95,0.0,0.0,0.0,0.0,0.0,0,0,0,0
1418423296,1550508357600020,561759679,102861385,14677595,14720196,121.022,3.1415925,4294967.5,3751119.5,99.99,99.99,100,95,0.0,0.0,0.0,0.0,0.0,0,0,0,0
1418625565,1550508357800020,561755723,102970692,14677476,14720059,121.04301,3.1415925,4294967.5,3751120.0,99.99,99.99,100,95,0.0,0.0,0.0,0.0,0.0,0,0,0,0
1418825387,1550508358000020,561754930,102992553,14677451,14720031,121.060005,3.1415925,4294967.5,3751120.2,99.99,99.99,100,95,0.0,0.0,0.0,0.0,0.0,0,0,0,0
1419024393,1550508358200020,561754136,103014414,14677427,14720004,121.077,3.1415925,4294967.5,3751120.8,99.99,99.99,100,95,0.0,0.0,0.0,0.0,0.0,0,0,0,0
1419224364,1550508358400020,561753341,103036275,14677403,14719976,121.09501,3.1415925,4294967.5,3751121.5,99.99,99.99,100,74,0.0,0.0,0.0,0.0,0.0,0,0,0,0
1419427513,1550508358600059,561754058,119194859,14680018,14720001,121.75101,3.1415925,4294967.5,3751125.8,99.99,99.99,100,74,0.0,0.0,0.0,0.0,0.0,0,0,0,0
1419625314,1550508358800059,561714474,123840718,14679388,14718630,121.97201,3.1415925,4294967.5,3751127.2,99.99,99.99,100,74,0.0,0.0,0.0,0.0,0.0,0,0,0,0
1419825527,1550508359000128,561459260,139308229,14672993,14709791,122.73401,3.1415925,4294967.5,3751131.2,99.99,99.99,100,74,0.0,0.0,0.0,0.0,0.0,0,0,0,0
1420025324,1550508359200240,560513906,167092248,14644505,14677019,124.326004,3.1415925,4294967.5,3751139.0,99.99,99.99,100,74,0.0,0.0,0.0,0.0,0.0,0,0,0,0
1420223322,1550508359400240,560191983,173764363,14634337,14665849,124.76301,3.1415925,4294967.5,3751141.2,99.99,99.99,100,75,0.0,0.0,0.0,0.0,0.0,0,0,0,0
1420423367,1550508359600240,560189576,173785807,14634257,14665765,124.78001,3.1415925,4294967.5,3751141.8,99.99,99.99,100,75,0.0,0.0,0.0,0.0,0.0,0,0,0,0
1420623322,1550508359800240,560187168,173807251,14634176,14665682,124.798004,3.1415925,4294967.5,3751142.0,99.99,99.99,100,75,0.0,0.0,0.0,0.0,0.0,0,0,0,0
1420823300,1550508360000298,559873573,179670350,14624161,14654796,125.19601,3.1415925,4294967.5,3751144.2,99.99,99.99,100,75,0.0,0.0,0.0,0.0,0.0,0,0,0,0
1421023299,1550508360200298,560156005,174365697,14633177,14664600,124.866005,3.1415925,4294967.5,3751143.2,99.99,99.99,100,75,0.0,0.0,0.0,0.0,0.0,0,0,0,0
1421223325,1550508360400298,559569302,184883966,14614359,14644229,125.578,3.1415925,4294967.5,3751147.0,99.99,99.99,100,93,0.0,0.0,0.0,0.0,0.0,0,0,0,0
1421423327,1550508360600298,559566644,184905290,14614270,14644137,125.59601,3.1415925,4294967.5,3751147.5,99.99,99.99,100,93,0.0,0.0,0.0,0.0,0.0,0,0,0,0
1421625317,1550508360800298,559563984,184926615,14614180,14644045,125.61301,3.1415925,4294967.5,3751148.0,99.99,99.99,100,93,0.0,0.0,0.0,0.0,0.0,0,0,0,0
1421824422,1550508361000374,558926017,194847111,14593443,14621875,126.31901,3.1415925,4294967.5,3751151.2,99.99,99.99,100,93,0.0,0.0,0.0,0.0,0.0,0,0,0,0
1422024362,1550508361200324,559558663,184969270,14614001,14643860,125.64901,3.1415925,4294967.5,3751149.5,99.99,99.99,100,93,0.0,0.0,0.0,0.0,0.0,0,0,0,0
1422423320,1550508361600374,558917365,194910736,14593150,14621574,126.37201,3.1415925,4294967.5,3751152.8,99.99,99.99,100,92,0.0,0.0,0.0,0.0,0.0,0,0,0,0
1422625368,1550508361800374,558914480,194931941,14593053,14621474,126.38901,3.1415925,4294967.5,3751153.2,99.99,99.99,100,92,0.0,0.0,0.0,0.0,0.0,0,0,0,0
1422823605,1550508362000424,558235713,204298534,14570403,14597865,127.08401,3.1415925,4294967.5,3751156.8,99.99,99.99,100,92,0.0,0.0,0.0,0.0,0.0,0,0,0,0
1423023324,1550508362200424,558232617,204319623,14570296,14597758,127.102005,3.1415925,4294967.5,3751157.2,99.99,99.99,100,92,0.0,0.0,0.0,0.0,0.0,0,0,0,0
1423424316,1550508362600424,558226424,204361788,14570083,14597542,127.13701,3.1415925,4294967.5,3751158.5,99.99,99.99,100,93,0.0,0.0,0.0,0.0,0.0,0,0,0,0
1423825318,1550508363000424,558501301,200645274,14579437,14607106,126.896,3.1415925,4294967.5,3751158.5,99.99,99.99,100,93,0.0,0.0,0.0,0.0,0.0,0,0,0,0
1424025316,1550508363200424,558051128,206572942,14564105,14591441,127.34901,3.1415925,4294967.5,3751160.8,99.99,99.99,100,93,0.0,0.0,0.0,0.0,0.0,0,0,0,0
1424225294,1550508363400424,558047980,206593993,14563996,14591332,127.366005,3.1415925,4294967.5,3751161.2,99.99,99.99,100,94,0.0,0.0,0.0,0.0,0.0,0,0,0,0
1424425326,1550508363600424,558044832,206615044,14563888,14591222,127.384,3.1415925,4294967.5,3751162.0,99.99,99.99,100,94,0.0,0.0,0.0,0.0,0.0,0,0,0,0
1424625325,1550508363800491,557258322,216156353,14537031,14563831,128.123,3.1415925,4294967.5,3751165.0,99.99,99.99,100,94,0.0,0.0,0.0,0.0,0.0,0,0,0,0
1424824567,1550508364000491,557254960,216177275,14536915,14563714,128.141,3.1415925,4294967.5,3751165.5,99.99,99.99,100,94,0.0,0.0,0.0,0.0,0.0,0,0,0,0
1425025385,1550508364200457,557753776,210207303,14553955,14581089,127.701004,3.1415925,4294967.5,3751164.2,99.99,99.99,100,94,0.0,0.0,0.0,0.0,0.0,0,0,0,0
1425225403,1550508364400302,559817505,180140689,14622278,14652849,125.58201,3.1415925,4294967.5,3751157.0,99.99,99.99,100,90,0.0,0.0,0.0,0.0,0.0,0,0,0,0
1425427314,1550508364600302,559814950,180162046,14622192,14652760,125.600006,3.1415925,4294967.5,3751157.5,99.99,99.99,100,90,0.0,0.0,0.0,0.0,0.0,0,0,0,0
1425624319,1550508364800302,559812393,180183419,14622106,14652672,125.617004,3.1415925,4294967.5,3751158.0,99.99,99.99,100,90,0.0,0.0,0.0,0.0,0.0,0,0,0,0
1425825357,1550508365000347,559267207,189249004,14604492,14633734,126.24701,3.1415925,4294967.5,3751161.0,99.99,99.99,100,90,0.0,0.0,0.0,0.0,0.0,0,0,0,0
1426024762,1550508365200435,558078722,206026788,14565032,14592402,127.467,3.1415925,4294967.5,3751166.2,99.99,99.99,100,90,0.0,0.0,0.0,0.0,0.0,0,0,0,0
1426224657,1550508365400435,557674631,211064419,14551245,14578333,127.86001,3.1415925,4294967.5,3751168.2,99.99,99.99,100,89,0.0,0.0,0.0,0.0,0.0,0,0,0,0
1426424451,1550508365600435,557671382,211085405,14551133,14578220,127.878006,3.1415925,4294967.5,3751168.8,99.99,99.99,100,89,0.0,0.0,0.0,0.0,0.0,0,0,0,0
1426624556,1550508365800435,557668131,211106391,14551021,14578107,127.895004,3.1415925,4294967.5,3751169.2,99.99,99.99,100,89,0.0,0.0,0.0,0.0,0.0,0,0,0,0
1426823336,1550508366000508,556996565,218949993,14528062,14554709,128.514,3.1415925,4294967.5,3751172.0,99.99,99.99,100,89,0.0,0.0,0.0,0.0,0.0,0,0,0,0
1427023393,1550508366199508,556509920,224278055,14511392,14537741,128.94801,3.1415925,4294967.5,3751174.0,99.99,99.99,100,89,0.0,0.0,0.0,0.0,0.0,0,0,0,0
1427225658,1550508366399789,552350977,262141381,14368103,14392284,132.136,3.1415925,4294967.5,3751186.0,99.99,99.99,100,92,0.0,0.0,0.0,0.0,0.0,0,0,0,0
1427423378,1550508366599844,551370735,269672052,14334153,14357887,132.81801,3.1415925,4294967.5,3751189.2,99.99,99.99,100,92,0.0,0.0,0.0,0.0,0.0,0,0,0,0
1427624361,1550508366796438,550344204,277165065,14298538,14321820,133.507,3.1415925,4294967.5,3751192.2,99.99,99.99,100,92,0.0,0.0,0.0,0.0,0.0,0,0,0,0
1427823317,1550508366996334,548159552,292009391,14222552,14244908,134.88301,3.1415925,4294967.5,3751197.5,99.99,99.99,100,92,0.0,0.0,0.0,0.0,0.0,0,0,0,0
1428029421,1550508367200333,548154442,292029270,14222373,14244728,134.90001,3.1415925,4294967.5,3751198.5,99.99,99.99,100,92,0.0,0.0,0.0,0.0,0.0,0,0,0,0
1428233302,1550508367400277,546853395,300257556,14177008,14198827,135.68301,3.1415925,4294967.5,3751201.8,99.99,99.99,100,96,0.0,0.0,0.0,0.0,0.0,0,0,0,0
1428429392,1550508367600220,545414018,308919990,14126938,14147961,136.515,3.1415925,4294967.5,3751205.2,99.99,99.99,100,96,0.0,0.0,0.0,0.0,0.0,0,0,0,0
1428628831,1550508367800220,545408650,308939093,14126750,14147771,136.531,3.1415925,4294967.5,3751205.8,99.99,99.99,100,96,0.0,0.0,0.0,0.0,0.0,0,0,0,0
1428827359,1550508368000220,545403280,308958200,14126562,14147581,136.548,3.1415925,4294967.5,3751206.2,99.99,99.99,100,96,0.0,0.0,0.0,0.0,0.0,0,0,0,0
1429027337,1550508368200220,545397909,308977307,14126373,14147391,136.565,3.1415925,4294967.5,3751206.8,99.99,99.99,100,96,0.0,0.0,0.0,0.0,0.0,0,0,0,0
1429227367,1550508368400276,546827455,300354096,14176100,14197911,135.766,3.1415925,4294967.5,3751204.5,99.99,99.99,100,94,0.0,0.0,0.0,0.0,0.0,0,0,0,0
1429427321,1550508368600276,546822262,300373409,14175918,14197727,135.783,3.1415925,4294967.5,3751205.0,99.99,99.99,100,94,0.0,0.0,0.0,0.0,0.0,0,0,0,0
1429627321,1550508368800276,546817071,300392716,14175737,14197544,135.8,3.1415925,4294967.5,3751205.8,99.99,99.99,100,94,0.0,0.0,0.0,0.0,0.0,0,0,0,0
1429828384,1550508369000219,545376417,309053733,14125619,14146631,136.63101,3.1415925,4294967.5,3751209.5,99.99,99.99,100,94,0.0,0.0,0.0,0.0,0.0,0,0,0,0
1430027316,1550508369200219,545371045,309072831,14125431,14146441,136.64801,3.1415925,4294967.5,3751210.0,99.99,99.99,100,94,0.0,0.0,0.0,0.0,0.0,0,0,0,0
1430227770,1550508369400219,545365670,309091933,14125242,14146251,136.66501,3.1415925,4294967.5,3751210.5,99.99,99.99,100,95,0.0,0.0,0.0,0.0,0.0,0,0,0,0
1430428349,1550508369600263,546489698,302351580,14164352,14185982,136.043,3.1415925,4294967.5,3751208.8,99.99,99.99,100,95,0.0,0.0,0.0,0.0,0.0,0,0,0,0
1430626391,1550508369800160,543763193,318236547,14069371,14089517,137.565,3.1415925,4294967.5,3751214.5,99.99,99.99,100,95,0.0,0.0,0.0,0.0,0.0,0,0,0,0
1430826382,1550508370000101,541990094,327860752,14007410,14026620,138.50401,3.1415925,4294967.5,3751218.5,99.99,99.99,100,95,0.0,0.0,0.0,0.0,0.0,0,0,0,0
1431027319,1550508370200101,541984330,327879386,14007207,14026415,138.52,3.1415925,4294967.5,3751219.0,99.99,99.99,100,95,0.0,0.0,0.0,0.0,0.0,0,0,0,0
1431227320,1550508370400202,544912897,311668718,14109463,14130232,136.983,3.1415925,4294967.5,3751214.0,99.99,99.99,100,96,0.0,0.0,0.0,0.0,0.0,0,0,0,0
1431427320,1550508370600263,546463522,302447871,14163435,14185058,136.127,3.1415925,4294967.5,3751211.2,99.99,99.99,100,96,0.0,0.0,0.0,0.0,0.0,0,0,0,0
1431627380,1550508370800432,550186554,278012848,14293042,14316276,133.88701,3.1415925,4294967.5,3751203.5,99.99,99.99,100,96,0.0,0.0,0.0,0.0,0.0,0,0,0,0
1431827543,1550508371003790,552308105,262148025,14366594,14390781,132.48901,3.1415925,4294967.5,3751199.0,99.99,99.99,100,96,0.0,0.0,0.0,0.0,0.0,0,0,0,0
1432023472,1550508371199737,553232456,254637293,14398552,14423179,131.85101,3.1415925,4294967.5,3751196.5,99.99,99.99,100,96,0.0,0.0,0.0,0.0,0.0,0,0,0,0
1432223351,1550508371399633,554995931,239025738,14459358,14484882,130.548,3.1415925,4294967.5,3751192.8,99.99,99.99,100,92,0.0,0.0,0.0,0.0,0.0,0,0,0,0
1432425311,1550508371599590,555688028,232310093,14483154,14509059,130.014,3.1415925,4294967.5,3751191.0,99.99,99.99,100,92,0.0,0.0,0.0,0.0,0.0,0,0,0,0
1432622474,1550508371799590,555684302,232330743,14483025,14508928,130.031,3.1415925,4294967.5,3751191.8,99.99,99.99,100,92,0.0,0.0,0.0,0.0,0.0,0,0,0,0
1432822322,1550508371999591,555680574,232351397,14482896,14508798,130.048,3.1415925,4294967.5,3751192.2,99.99,99.99,100,92,0.0,0.0,0.0,0.0,0.0,0,0,0,0
1433022318,1550508372199552,556300228,225992358,14504165,14530426,129.554,3.1415925,4294967.5,3751190.5,99.99,99.99,100,92,0.0,0.0,0.0,0.0,0.0,0,0,0,0
1433223319,1550508372399645,554789890,240871295,14452259,14477680,130.779,3.1415925,4294967.5,3751195.2,99.99,99.99,100,93,0.0,0.0,0.0,0.0,0.0,0,0,0,0
1433422321,1550508372599690,554036858,247649768,14426309,14451342,131.362,3.1415925,4294967.5,3751198.2,99.99,99.99,100,93,0.0,0.0,0.0,0.0,0.0,0,0,0,0
1433623297,1550508372799738,553198721,254799358,14397378,14421997,131.988,3.1415925,4294967.5,3751201.2,99.99,99.99,100,93,0.0,0.0,0.0,0.0,0.0,0,0,0,0
1433823321,1550508372999796,552206347,262805155,14363061,14387212,132.699,3.1415925,4294967.5,3751204.2,99.99,99.99,100,93,0.0,0.0,0.0,0.0,0.0,0,0,0,0
1434023324,1550508373199795,552201952,262825264,14362908,14387057,132.716,3.1415925,4294967.5,3751205.0,99.99,99.99,100,93,0.0,0.0,0.0,0.0,0.0,0,0,0,0
1434224320,1550508373396489,551216184,270350808,14328757,14352460,133.39601,3.1415925,4294967.5,3751207.8,99.99,99.99,100,94,0.0,0.0,0.0,0.0,0.0,0,0,0,0
1434424418,1550508373596489,551211702,270370430,14328601,14352302,133.41301,3.1415925,4294967.5,3751208.2,99.99,99.99,100,94,0.0,0.0,0.0,0.0,0.0,0,0,0,0
1434628475,1550508373800489,551207054,270390781,14328439,14352139,133.43001,3.1415925,4294967.5,3751209.0,99.99,99.99,100,94,0.0,0.0,0.0,0.0,0.0,0,0,0,0
1434828324,1550508374000489,551202495,270410731,14328280,14351979,133.447,3.1415925,4294967.5,3751209.5,99.99,99.99,100,94,0.0,0.0,0.0,0.0,0.0,0,0,0,0
1435026323,1550508374200489,551197936,270430681,14328120,14351819,133.464,3.1415925,4294967.5,3751210.0,99.99,99.99,100,94,0.0,0.0,0.0,0.0,0.0,0,0,0,0
1435226325,1550508374400073,541032124,332609258,13973844,13992585,139.283,3.1415925,4294967.5,3751232.8,99.99,99.99,100,93,0.0,0.0,0.0,0.0,0.0,0,0,0,0
1435426323,1550508374600122,542573104,324471165,14027768,14047315,138.514,3.1415925,4294967.5,3751230.5,99.99,99.99,100,93,0.0,0.0,0.0,0.0,0.0,0,0,0,0
1435627316,1550508374800122,542567401,324489888,14027567,14047113,138.531,3.1415925,4294967.5,3751230.8,99.99,99.99,100,93,0.0,0.0,0.0,0.0,0.0,0,0,0,0
1435827316,1550508375000206,544936764,311245628,14110263,14131077,137.283,3.1415925,4294967.5,3751226.5,99.99,99.99,100,93,0.0,0.0,0.0,0.0,0.0,0,0,0,0
1436028316,1550508375200206,544931335,311264678,14110073,14130884,137.29901,3.1415925,4294967.5,3751226.8,99.99,99.99,100,93,0.0,0.0,0.0,0.0,0.0,0,0,0,0
1436228323,1550508375400243,545908758,305496630,14144106,14165454,136.77,3.1415925,4294967.5,3751225.2,99.99,99.99,101,94,0.0,0.0,0.0,0.0,0.0,0,0,0,0
1436428419,1550508375600243,545903450,305515812,14143920,14165267,136.787,3.1415925,4294967.5,3751226.2,99.99,99.99,101,94,0.0,0.0,0.0,0.0,0.0,0,0,0,0
1436628863,1550508375800284,546906192,299394065,14178800,14200691,136.22801,3.1415925,4294967.5,3751224.2,99.99,99.99,101,94,0.0,0.0,0.0,0.0,0.0,0,0,0,0
1436826401,1550508376000230,545562290,307520929,14132043,14153205,137.005,3.1415925,4294967.5,3751228.0,99.99,99.99,101,94,0.0,0.0,0.0,0.0,0.0,0,0,0,0
1437026322,1550508376200272,546624553,301106573,14168995,14190746,136.418,3.1415925,4294967.5,3751226.2,99.99,99.99,101,94,0.0,0.0,0.0,0.0,0.0,0,0,0,0
1437229996,1550508376400272,546619337,301125857,14168812,14190561,136.434,3.1415925,4294967.5,3751226.8,99.99,99.99,101,90,0.0,0.0,0.0,0.0,0.0,0,0,0,0
1437426379,1550508376600272,546885473,299471343,14178073,14199959,136.29501,3.1415925,4294967.5,3751226.5,99.99,99.99,101,90,0.0,0.0,0.0,0.0,0.0,0,0,0,0
1437626474,1550508376800272,546880292,299490660,14177891,14199776,136.311,3.1415925,4294967.5,3751227.0,99.99,99.99,101,90,0.0,0.0,0.0,0.0,0.0,0,0,0,0
1437827324,1550508377000190,544496064,313657817,14094888,14115477,137.65901,3.1415925,4294967.5,3751232.8,99.99,99.99,101,90,0.0,0.0,0.0,0.0,0.0,0,0,0,0
1438027361,1550508377200190,544490587,313676791,14094696,14115283,137.675,3.1415925,4294967.5,3751233.2,99.99,99.99,101,90,0.0,0.0,0.0,0.0,0.0,0,0,0,0
1438428319,1550508377600242,545850350,305707559,14142059,14163390,136.953,3.1415925,4294967.5,3751231.5,99.99,99.99,101,92,0.0,0.0,0.0,0.0,0.0,0,0,0,0
1438627347,1550508377800242,545845036,305726730,14141872,14163202,136.96901,3.1415925,4294967.5,3751232.2,99.99,99.99,101,92,0.0,0.0,0.0,0.0,0.0,0,0,0,0
1438827556,1550508378000190,544468663,313752715,14093926,14114507,137.742,3.1415925,4294967.5,3751235.8,99.99,99.99,101,92,0.0,0.0,0.0,0.0,0.0,0,0,0,0
1439026340,1550508378200190,544463182,313771688,14093733,14114313,137.75801,3.1415925,4294967.5,3751236.5,99.99,99.99,101,92,0.0,0.0,0.0,0.0,0.0,0,0,0,0
1439226322,1550508378400242,545829094,305784233,14141313,14162638,137.01901,3.1415925,4294967.5,3751233.8,99.99,99.99,101,93,0.0,0.0,0.0,0.0,0.0,0,0,0,0
1439426321,1550508378600242,545823776,305803406,14141127,14162450,137.03601,3.1415925,4294967.5,3751234.5,99.99,99.99,101,93,0.0,0.0,0.0,0.0,0.0,0,0,0,0
1439627321,1550508378800335,548047537,291964866,14218586,14240959,135.763,3.1415925,4294967.5,3751229.8,99.99,99.99,101,93,0.0,0.0,0.0,0.0,0.0,0,0,0,0
1439829651,1550508379000335,548042510,291984359,14218410,14240782,135.779,3.1415925,4294967.5,3751230.5,99.99,99.99,101,93,0.0,0.0,0.0,0.0,0.0,0,0,0,0
1440027314,1550508379200335,548037484,292003843,14218234,14240605,135.796,3.1415925,4294967.5,3751231.0,99.99,99.99,101,93,0.0,0.0,0.0,0.0,0.0,0,0,0,0
1440228317,1550508379400335,548032458,292023326,14218057,14240428,135.813,3.1415925,4294967.5,3751231.5,99.99,99.99,101,95,0.0,0.0,0.0,0.0,0.0,0,0,0,0
1440428342,1550508379600282,546807688,299761032,14175342,14197213,136.54501,3.1415925,4294967.5,3751235.0,99.99,99.99,101,95,0.0,0.0,0.0,0.0,0.0,0,0,0,0
1440627353,1550508379800381,549020917,285463840,14252473,14275258,135.24101,3.1415925,4294967.5,3751230.5,99.99,99.99,101,95,0.0,0.0,0.0,0.0,0.0,0,0,0,0
1440827302,1550508380000381,549016027,285483476,14252302,14275085,135.25801,3.1415925,4294967.5,3751231.0,99.99,99.99,101,95,0.0,0.0,0.0,0.0,0.0,0,0,0,0
1441226368,1550508380403801,552043319,263548608,14357376,14381493,133.328,3.1415925,4294967.5,3751224.8,99.99,99.99,101,95,0.0,0.0,0.0,0.0,0.0,0,0,0,0
1441422316,1550508380599697,553873763,248464856,14420637,14445634,132.046,3.1415925,4294967.5,3751220.2,99.99,99.99,101,95,0.0,0.0,0.0,0.0,0.0,0,0,0,0
1441623363,1550508380799697,553869674,248485210,14420495,14445491,132.063,3.1415925,4294967.5,3751220.8,99.99,99.99,101,95,0.0,0.0,0.0,0.0,0.0,0,0,0,0
1441822329,1550508380999753,552920179,256493170,14387706,14412238,132.761,3.1415925,4294967.5,3751224.0,99.99,99.99,101,95,0.0,0.0,0.0,0.0,0.0,0,0,0,0
1442025140,1550508381199706,553719633,249755318,14415316,14440239,132.201,3.1415925,4294967.5,3751222.5,99.99,99.99,101,95,0.0,0.0,0.0,0.0,0.0,0,0,0,0
1442223495,1550508381399706,553715514,249775654,14415172,14440095,132.218,3.1415925,4294967.5,3751223.0,99.99,99.99,100,95,0.0,0.0,0.0,0.0,0.0,0,0,0,0
1442424736,1550508381599805,551964590,264075295,14354643,14378731,133.464,3.1415925,4294967.5,3751228.0,99.99,99.99,100,95,0.0,0.0,0.0,0.0,0.0,0,0,0,0
1442623297,1550508381799805,551960157,264095372,14354489,14378575,133.481,3.1415925,4294967.5,3751228.2,99.99,99.99,100,95,0.0,0.0,0.0,0.0,0.0,0,0,0,0
1442824363,1550508381999806,552007968,263709163,14356143,14380253,133.46301,3.1415925,4294967.5,3751228.8,99.99,99.99,100,95,0.0,0.0,0.0,0.0,0.0,0,0,0,0
1443024408,1550508382199747,552999653,255750762,14390446,14415023,132.789,3.1415925,4294967.5,3751226.8,99.99,99.99,100,95,0.0,0.0,0.0,0.0,0.0,0,0,0,0
1443222324,1550508382399747,552995403,255770984,14390298,14414874,132.806,3.1415925,4294967.5,3751227.5,99.99,99.99,100,95,0.0,0.0,0.0,0.0,0.0,0,0,0,0
1443422320,1550508382599800,552053140,263313759,14357704,14381837,133.474,3.1415925,4294967.5,3751230.8,99.99,99.99,100,95,0.0,0.0,0.0,0.0,0.0,0,0,0,0
1443623316,1550508382796485,551001294,271287848,14321254,14344912,134.19101,3.1415925,4294967.5,3751234.2,99.99,99.99,100,95,0.0,0.0,0.0,0.0,0.0,0,0,0,0
1443823319,1550508382999742,553100285,254859231,14393918,14418549,132.77301,3.1415925,4294967.5,3751228.8,99.99,99.99,100,95,0.0,0.0,0.0,0.0,0.0,0,0,0,0
1444025634,1550508383199797,552105704,262859467,14359520,14383681,133.48001,3.1415925,4294967.5,3751232.2,99.99,99.99,100,95,0.0,0.0,0.0,0.0,0.0,0,0,0,0
1444223371,1550508383399797,552101296,262879563,14359366,14383527,133.49701,3.1415925,4294967.5,3751233.0,99.99,99.99,100,93,0.0,0.0,0.0,0.0,0.0,0,0,0,0
1444424320,1550508383596484,550982939,271367529,14320613,14344267,134.25801,3.1415925,4294967.5,3751236.0,99.99,99.99,100,93,0.0,0.0,0.0,0.0,0.0,0,0,0,0
1444624321,1550508383799793,552167218,262333738,14361646,14385839,133.479,3.1415925,4294967.5,3751233.8,99.99,99.99,100,93,0.0,0.0,0.0,0.0,0.0,0,0,0,0
1444824349,1550508383996485,550973757,271407365,14320292,14343944,134.292,3.1415925,4294967.5,3751237.5,99.99,99.99,100,93,0.0,0.0,0.0,0.0,0.0,0,0,0,0
1445023323,1550508384196484,550969241,271426953,14320134,14343786,134.309,3.1415925,4294967.5,3751237.8,99.99,99.99,100,93,0.0,0.0,0.0,0.0,0.0,0,0,0,0
1445226368,1550508384400484,550964557,271447268,14319971,14343621,134.326,3.1415925,4294967.5,3751238.2,99.99,99.99,100,97,0.0,0.0,0.0,0.0,0.0,0,0,0,0
1445426297,1550508384600484,550959964,271467184,14319810,14343460,134.343,3.1415925,4294967.5,3751238.8,99.99,99.99,100,97,0.0,0.0,0.0,0.0,0.0,0,0,0,0
1445629233,1550508384800484,550955370,271487100,14319650,14343298,134.36,3.1415925,4294967.5,3751239.2,99.99,99.99,100,97,0.0,0.0,0.0,0.0,0.0,0,0,0,0
1445827297,1550508385000413,549598343,281168486,14272526,14295585,135.24101,3.1415925,4294967.5,3751243.8,99.99,99.99,100,97,0.0,0.0,0.0,0.0,0.0,0,0,0,0
1446027386,1550508385200413,549593543,281188192,14272358,14295416,135.25801,3.1415925,4294967.5,3751244.2,99.99,99.99,100,97,0.0,0.0,0.0,0.0,0.0,0,0,0,0
1446227501,1550508385400339,548047086,291535650,14218535,14240943,136.21501,3.1415925,4294967.5,3751248.0,99.99,99.99,100,96,0.0,0.0,0.0,0.0,0.0,0,0,0,0
1446430129,1550508385600339,548042064,291555128,14218359,14240766,136.23201,3.1415925,4294967.5,3751248.5,99.99,99.99,100,96,0.0,0.0,0.0,0.0,0.0,0,0,0,0
1446627361,1550508385800264,546274689,302632548,14156764,14178386,137.27101,3.1415925,4294967.5,3751253.5,99.99,99.99,100,96,0.0,0.0,0.0,0.0,0.0,0,0,0,0
1446828486,1550508386000264,546269433,302651772,14156580,14178201,137.28801,3.1415925,4294967.5,3751254.2,99.99,99.99,100,96,0.0,0.0,0.0,0.0,0.0,0,0,0,0
1447028341,1550508386200328,547770993,293265467,14208908,14231207,136.43301,3.1415925,4294967.5,3751251.0,99.99,99.99,100,96,0.0,0.0,0.0,0.0,0.0,0,0,0,0
1447228464,1550508386400263,546258913,302690240,14156211,14177829,137.321,3.1415925,4294967.5,3751255.2,99.99,99.99,100,90,0.0,0.0,0.0,0.0,0.0,0,0,0,0
1447426321,1550508386600263,546253655,302709463,14156027,14177643,137.337,3.1415925,4294967.5,3751255.8,99.99,99.99,100,90,0.0,0.0,0.0,0.0,0.0,0,0,0,0
1447626326,1550508386800263,546248395,302728692,14155843,14177457,137.354,3.1415925,4294967.5,3751256.5,99.99,99.99,100,90,0.0,0.0,0.0,0.0,0.0,0,0,0,0
1447826324,1550508387000327,547750746,293343244,14208198,14230493,136.5,3.1415925,4294967.5,3751253.5,99.99,99.99,100,90,0.0,0.0,0.0,0.0,0.0,0,0,0,0
1448030445,1550508387200327,547745682,293362693,14208021,14230315,136.51701,3.1415925,4294967.5,3751254.0,99.99,99.99,100,90,0.0,0.0,0.0,0.0,0.0,0,0,0,0
1448226319,1550508387400327,547740618,293382135,14207843,14230136,136.533,3.1415925,4294967.5,3751254.5,99.99,99.99,100,93,0.0,0.0,0.0,0.0,0.0,0,0,0,0
1448428320,1550508387600406,549424170,282194493,14266457,14289455,135.528,3.1415925,4294967.5,3751251.0,99.99,99.99,100,93,0.0,0.0,0.0,0.0,0.0,0,0,0,0
1448628319,1550508387800406,549419341,282214188,14266288,14289285,135.54501,3.1415925,4294967.5,3751251.8,99.99,99.99,100,93,0.0,0.0,0.0,0.0,0.0,0,0,0,0
1448827307,1550508388000406,549526246,281464090,14270004,14293047,135.492,3.1415925,4294967.5,3751252.0,99.99,99.99,100,93,0.0,0.0,0.0,0.0,0.0,0,0,0,0
1449027353,1550508388200406,549617381,280819847,14273171,14296255,135.449,3.1415925,4294967.5,3751252.2,99.99,99.99,100,93,0.0,0.0,0.0,0.0,0.0,0,0,0,0
1449228351,1550508388400482,550872573,271845457,14316758,14340390,134.66301,3.1415925,4294967.5,3751249.8,99.99,99.99,100,92,0.0,0.0,0.0,0.0,0.0,0,0,0,0
1449429321,1550508388600424,549764053,279772179,14278266,14301415,135.38501,3.1415925,4294967.5,3751253.0,99.99,99.99,100,92,0.0,0.0,0.0,0.0,0.0,0,0,0,0
1449626318,1550508388800424,549759278,279791911,14278099,14301247,135.40201,3.1415925,4294967.5,3751253.8,99.99,99.99,100,92,0.0,0.0,0.0,0.0,0.0,0,0,0,0
1449827365,1550508389000313,547394094,295486418,14195752,14217911,136.845,3.1415925,4294967.5,3751259.8,99.99,99.99,100,92,0.0,0.0,0.0,0.0,0.0,0,0,0,0
1450027318,1550508389200313,547388986,295505798,14195573,14217731,136.862,3.1415925,4294967.5,3751260.2,99.99,99.99,100,92,0.0,0.0,0.0,0.0,0.0,0,0,0,0
1450227325,1550508389400423,549744948,279851108,14277598,14300743,135.45201,3.1415925,4294967.5,3751255.5,99.99,99.99,100,93,0.0,0.0,0.0,0.0,0.0,0,0,0,0
1450430915,1550508389600423,549740166,279870853,14277431,14300575,135.46901,3.1415925,4294967.5,3751255.8,99.99,99.99,100,93,0.0,0.0,0.0,0.0,0.0,0,0,0,0
1450627340,1550508389800481,550840316,271984765,14315631,14339256,134.78,3.1415925,4294967.5,3751253.5,99.99,99.99,100,93,0.0,0.0,0.0,0.0,0.0,0,0,0,0
1450828343,1550508390000481,550835704,272004670,14315470,14339094,134.79701,3.1415925,4294967.5,3751254.2,99.99,99.99,100,93,0.0,0.0,0.0,0.0,0.0,0,0,0,0
1451028347,1550508390200423,549725825,279930059,14276929,14300070,135.51901,3.1415925,4294967.5,3751257.5,99.99,99.99,100,93,0.0,0.0,0.0,0.0,0.0,0,0,0,0
1451228355,1550508390400423,549721045,279949785,14276762,14299902,135.53601,3.1415925,4294967.5,3751258.2,99.99,99.99,100,97,0.0,0.0,0.0,0.0,0.0,0,0,0,0
1451428360,1550508390600363,548485855,288319106,14233790,14256409,136.30801,3.1415925,4294967.5,3751261.5,99.99,99.99,100,97,0.0,0.0,0.0,0.0,0.0,0,0,0,0
1451627378,1550508390800363,548480896,288338650,14233617,14256234,136.324,3.1415925,4294967.5,3751262.2,99.99,99.99,100,97,0.0,0.0,0.0,0.0,0.0,0,0,0,0
1451827321,1550508391000208,544781551,311150727,14104744,14125583,138.45001,3.1415925,4294967.5,3751271.0,99.99,99.99,100,97,0.0,0.0,0.0,0.0,0.0,0,0,0,0
1452027317,1550508391200150,543164113,320252488,14048307,14068280,139.32301,3.1415925,4294967.5,3751275.2,99.99,99.99,100,97,0.0,0.0,0.0,0.0,0.0,0,0,0,0
1452227318,1550508391400150,543158483,320271283,14048109,14068081,139.34001,3.1415925,4294967.5,3751276.0,99.99,99.99,100,95,0.0,0.0,0.0,0.0,0.0,0,0,0,0
1452410447,1550508391600055,540196264,335870545,13944433,13962858,140.84201,3.1415925,4294967.5,3751282.5,99.99,99.99,100,95,0.0,0.0,0.0,0.0,0.0,0,0,0,0
1452628321,1550508391800055,539369146,340000250,13915414,13933416,141.253,3.1415925,4294967.5,3751285.0,99.99,99.99,100,95,0.0,0.0,0.0,0.0,0.0,0,0,0,0
1452828538,1550508392000055,539363108,340018544,13915201,13933201,141.26901,3.1415925,4294967.5,3751285.8,99.99,99.99,100,95,0.0,0.0,0.0,0.0,0.0,0,0,0,0
1453029312,1550508392200055,539357068,340036838,13914987,13932986,141.285,3.1415925,4294967.5,3751286.2,99.99,99.99,100,95,0.0,0.0,0.0,0.0,0.0,0,0,0,0
1453228346,1550508392399970,537134918,350738619,13836882,13853751,142.33101,3.1415925,4294967.5,3751291.0,99.99,99.99,100,96,0.0,0.0,0.0,0.0,0.0,0,0,0,0
1453429693,1550508392599910,534654763,362053662,13749471,13765096,143.44,3.1415925,4294967.5,3751296.5,99.99,99.99,100,96,0.0,0.0,0.0,0.0,0.0,0,0,0,0
1453629290,1550508392799814,530027090,381677567,13585744,13599071,145.35701,3.1415925,4294967.5,3751305.8,99.99,99.99,100,96,0.0,0.0,0.0,0.0,0.0,0,0,0,0
1453826386,1550508392999775,527787120,390571717,13506216,13518436,146.23201,3.1415925,4294967.5,3751310.0,99.99,99.99,100,96,0.0,0.0,0.0,0.0,0.0,0,0,0,0
1454027297,1550508393199730,525043914,401006878,13408641,13419455,147.253,3.1415925,4294967.5,3751315.5,99.99,99.99,100,96,0.0,0.0,0.0,0.0,0.0,0,0,0,0
1454227318,1550508393399730,525036669,401023430,13408382,13419193,147.26901,3.1415925,4294967.5,3751316.0,99.99,99.99,100,92,0.0,0.0,0.0,0.0,0.0,0,0,0,0
1454427318,1550508393599730,526470204,395614802,13459376,13470950,146.761,3.1415925,4294967.5,3751313.8,99.99,99.99,100,92,0.0,0.0,0.0,0.0,0.0,0,0,0,0
1454630365,1550508393799730,526463060,395631520,13459121,13470692,146.776,3.1415925,4294967.5,3751314.5,99.99,99.99,100,92,0.0,0.0,0.0,0.0,0.0,0,0,0,0
1454828318,1550508393999731,526455916,395648236,13458865,13470435,146.792,3.1415925,4294967.5,3751315.0,99.99,99.99,100,92,0.0,0.0,0.0,0.0,0.0,0,0,0,0
1455029310,1550508394199730,526448771,395664952,13458609,13470177,146.807,3.1415925,4294967.5,3751316.0,99.99,99.99,100,92,0.0,0.0,0.0,0.0,0.0,0,0,0,0
1455228977,1550508394399730,526441625,395681667,13458354,13469919,146.82301,3.1415925,4294967.5,3751316.8,99.99,99.99,100,93,0.0,0.0,0.0,0.0,0.0,0,0,0,0
1455428382,1550508394599730,526434479,395698381,13458098,13469661,146.83801,3.1415925,4294967.5,3751317.0,99.99,99.99,100,93,0.0,0.0,0.0,0.0,0.0,0,0,0,0
1455629199,1550508394799730,526427333,395715095,13457842,13469403,146.85301,3.1415925,4294967.5,3751317.8,99.99,99.99,100,93,0.0,0.0,0.0,0.0,0.0,0,0,0,0
1455827378,1550508394999778,527987143,389684818,13513311,13525644,146.285,3.1415925,4294967.5,3751315.8,99.99,99.99,100,93,0.0,0.0,0.0,0.0,0.0,0,0,0,0
1456027383,1550508395199857,532215192,372485532,13663241,13677668,144.634,3.1415925,4294967.5,3751308.8,99.99,99.99,100,93,0.0,0.0,0.0,0.0,0.0,0,0,0,0
1456227512,1550508395399938,535836808,356575530,13791142,13807378,143.108,3.1415925,4294967.5,3751302.0,99.99,99.99,100,95,0.0,0.0,0.0,0.0,0.0,0,0,0,0
1456427320,1550508395599977,537344851,349568250,13844248,13861245,142.446,3.1415925,4294967.5,3751300.0,99.99,99.99,100,95,0.0,0.0,0.0,0.0,0.0,0,0,0,0
1456628318,1550508395800128,542457449,323819203,14023580,14043211,139.99501,3.1415925,4294967.5,3751290.0,99.99,99.99,100,95,0.0,0.0,0.0,0.0,0.0,0,0,0,0
1456828317,1550508396000081,540997768,331510962,13972494,13991364,140.742,3.1415925,4294967.5,3751293.8,99.99,99.99,100,95,0.0,0.0,0.0,0.0,0.0,0,0,0,0
1457029316,1550508396200151,543129139,320140744,14047051,14067040,139.67601,3.1415925,4294967.5,3751290.0,99.99,99.99,100,95,0.0,0.0,0.0,0.0,0.0,0,0,0,0
1457228400,1550508396400151,543703475,316945291,14067105,14087401,139.389,3.1415925,4294967.5,3751289.2,99.99,99.99,100,92,0.0,0.0,0.0,0.0,0.0,0,0,0,0
1457827320,1550508397000287,546673210,299477192,14170554,14192464,137.804,3.1415925,4294967.5,3751284.2,99.99,99.99,100,92,0.0,0.0,0.0,0.0,0.0,0,0,0,0
1458027320,1550508397200352,548157683,290039724,14222325,14244842,136.95401,3.1415925,4294967.5,3751280.8,99.99,99.99,100,92,0.0,0.0,0.0,0.0,0.0,0,0,0,0
1458227320,1550508397400416,549479837,281148084,14268339,14291414,136.16501,3.1415925,4294967.5,3751278.5,99.99,99.99,100,91,0.0,0.0,0.0,0.0,0.0,0,0,0,0
1458427299,1550508397600416,549475020,281167787,14268170,14291245,136.182,3.1415925,4294967.5,3751279.2,99.99,99.99,100,91,0.0,0.0,0.0,0.0,0.0,0,0,0,0
1458628317,1550508397803872,550655379,272780185,14309170,14332758,135.45001,3.1415925,4294967.5,3751276.5,99.99,99.99,100,91,0.0,0.0,0.0,0.0,0.0,0,0,0,0
1458824460,1550508397999873,550650754,272800003,14309008,14332595,135.466,3.1415925,4294967.5,3751277.2,99.99,99.99,100,91,0.0,0.0,0.0,0.0,0.0,0,0,0,0
1459025290,1550508398196415,549460583,281226819,14267665,14290736,136.231,3.1415925,4294967.5,3751280.5,99.99,99.99,100,91,0.0,0.0,0.0,0.0,0.0,0,0,0,0
1459224303,1550508398396415,549455848,281246173,14267499,14290570,136.248,3.1415925,4294967.5,3751281.2,99.99,99.99,100,94,0.0,0.0,0.0,0.0,0.0,0,0,0,0
1459429291,1550508398600415,549450933,281266260,14267327,14290397,136.265,3.1415925,4294967.5,3751281.5,99.99,99.99,100,94,0.0,0.0,0.0,0.0,0.0,0,0,0,0
1459628461,1550508398800351,548117625,290195742,14220920,14243430,137.08601,3.1415925,4294967.5,3751285.8,99.99,99.99,100,94,0.0,0.0,0.0,0.0,0.0,0,0,0,0
1459827376,1550508399000415,549441295,281305638,14266990,14290058,136.298,3.1415925,4294967.5,3751282.8,99.99,99.99,100,94,0.0,0.0,0.0,0.0,0.0,0,0,0,0
1460027319,1550508399203539,556386401,222752755,14506948,14533432,131.39401,3.1415925,4294967.5,3751263.5,99.99,99.99,100,94,0.0,0.0,0.0,0.0,0.0,0,0,0,0
1460223318,1550508399399539,556901748,217041963,14524599,14551404,130.97101,3.1415925,4294967.5,3751262.2,99.99,99.99,100,93,0.0,0.0,0.0,0.0,0.0,0,0,0,0
1460423296,1550508399599539,556898326,217062828,14524481,14551285,130.988,3.1415925,4294967.5,3751263.0,99.99,99.99,100,93,0.0,0.0,0.0,0.0,0.0,0,0,0,0
1460623302,1550508399799539,556375771,222814996,14506580,14533062,131.444,3.1415925,4294967.5,3751265.2,99.99,99.99,100,93,0.0,0.0,0.0,0.0,0.0,0,0,0,0
1460825295,1550508399999591,555561881,231219273,14478645,14504654,132.119,3.1415925,4294967.5,3751268.5,99.99,99.99,100,93,0.0,0.0,0.0,0.0,0.0,0,0,0,0
1461024494,1550508400196272,546269778,301745774,14156493,14178213,138.248,3.1415925,4294967.5,3751294.2,99.99,99.99,100,93,0.0,0.0,0.0,0.0,0.0,0,0,0,0
1461225310,1550508400396342,547888478,291579289,14212927,14235351,137.33,3.1415925,4294967.5,3751290.8,99.99,99.99,100,93,0.0,0.0,0.0,0.0,0.0,0,0,0,0
1461429318,1550508400600410,549318674,282040919,14262717,14285741,136.483,3.1415925,4294967.5,3751288.0,99.99,99.99,100,93,0.0,0.0,0.0,0.0,0.0,0,0,0,0
1461629332,1550508400800410,549313834,282060600,14262548,14285571,136.5,3.1415925,4294967.5,3751288.8,99.99,99.99,100,93,0.0,0.0,0.0,0.0,0.0,0,0,0,0
1461827296,1550508401000410,549308995,282080272,14262379,14285401,136.516,3.1415925,4294967.5,3751289.0,99.99,99.99,100,93,0.0,0.0,0.0,0.0,0.0,0,0,0,0
1462026323,1550508401200475,550576464,273117919,14306412,14329984,135.73401,3.1415925,4294967.5,3751286.5,99.99,99.99,100,93,0.0,0.0,0.0,0.0,0.0,0,0,0,0
1462227317,1550508401400475,550571815,273137786,14306250,14329821,135.751,3.1415925,4294967.5,3751287.0,99.99,99.99,100,94,0.0,0.0,0.0,0.0,0.0,0,0,0,0
1462427365,1550508401600475,550567166,273157646,14306087,14329657,135.768,3.1415925,4294967.5,3751287.8,99.99,99.99,100,94,0.0,0.0,0.0,0.0,0.0,0,0,0,0
1462628294,1550508401803813,551693052,264725136,14345126,14369202,135.04501,3.1415925,4294967.5,3751285.0,99.99,99.99,100,94,0.0,0.0,0.0,0.0,0.0,0,0,0,0
1462824295,1550508401996414,549368930,281600883,14264457,14287510,136.54701,3.1415925,4294967.5,3751291.5,99.99,99.99,100,94,0.0,0.0,0.0,0.0,0.0,0,0,0,0
1463024346,1550508402196475,550553311,273216819,14305603,14329170,135.817,3.1415925,4294967.5,3751289.2,99.99,99.99,100,94,0.0,0.0,0.0,0.0,0.0,0,0,0,0
1463229189,1550508402400475,550548566,273237080,14305437,14329003,135.834,3.1415925,4294967.5,3751289.8,99.99,99.99,100,96,0.0,0.0,0.0,0.0,0.0,0,0,0,0
1463625323,1550508402799716,553415554,250721634,14404694,14429592,133.92601,3.1415925,4294967.5,3751282.8,99.99,99.99,100,96,0.0,0.0,0.0,0.0,0.0,0,0,0,0
1463823299,1550508402999527,556586318,220245680,14513775,14540406,131.49301,3.1415925,4294967.5,3751273.2,99.99,99.99,100,96,0.0,0.0,0.0,0.0,0.0,0,0,0,0
1464023296,1550508403199526,556582824,220266473,14513654,14540284,131.51001,3.1415925,4294967.5,3751274.0,99.99,99.99,100,96,0.0,0.0,0.0,0.0,0.0,0,0,0,0
1464223322,1550508403399572,555838967,228135530,14488141,14514328,132.136,3.1415925,4294967.5,3751277.2,99.99,99.99,100,95,0.0,0.0,0.0,0.0,0.0,0,0,0,0
1464423326,1550508403599607,555280155,233700498,14468940,14494813,132.59201,3.1415925,4294967.5,3751279.2,99.99,99.99,100,95,0.0,0.0,0.0,0.0,0.0,0,0,0,0
1464623319,1550508403796416,549399237,281270200,14265501,14288577,136.651,3.1415925,4294967.5,3751297.0,99.99,99.99,100,95,0.0,0.0,0.0,0.0,0.0,0,0,0,0
1464823075,1550508403996475,550511427,273395513,14304140,14327698,135.96701,3.1415925,4294967.5,3751294.8,99.99,99.99,100,95,0.0,0.0,0.0,0.0,0.0,0,0,0,0
1465029313,1550508404203815,551639393,264965454,14343253,14367318,135.246,3.1415925,4294967.5,3751292.0,99.99,99.99,100,95,0.0,0.0,0.0,0.0,0.0,0,0,0,0
1465225319,1550508404399815,551634932,264985411,14343098,14367162,135.26201,3.1415925,4294967.5,3751292.5,99.99,99.99,100,90,0.0,0.0,0.0,0.0,0.0,0,0,0,0
1465424344,1550508404599698,553719123,247972667,14415162,14440221,133.83301,3.1415925,4294967.5,3751287.2,99.99,99.99,100,90,0.0,0.0,0.0,0.0,0.0,0,0,0,0
1465625324,1550508404799698,553715018,247993001,14415019,14440077,133.849,3.1415925,4294967.5,3751288.0,99.99,99.99,100,90,0.0,0.0,0.0,0.0,0.0,0,0,0,0
1465824414,1550508404999590,555559505,230827257,14478533,14504571,132.47,3.1415925,4294967.5,3751282.2,99.99,99.99,100,90,0.0,0.0,0.0,0.0,0.0,0,0,0,0
1466025911,1550508405199589,555555775,230847888,14478403,14504440,132.487,3.1415925,4294967.5,3751282.8,99.99,99.99,100,90,0.0,0.0,0.0,0.0,0.0,0,0,0,0
1466223317,1550508405399547,556233578,223849567,14501669,14528101,131.955,3.1415925,4294967.5,3751281.0,99.99,99.99,100,91,0.0,0.0,0.0,0.0,0.0,0,0,0,0
1466423299,1550508405599488,557153126,213579109,14533157,14560166,131.18901,3.1415925,4294967.5,3751278.8,99.99,99.99,100,91,0.0,0.0,0.0,0.0,0.0,0,0,0,0
1466624363,1550508405799429,558038300,202586358,14563369,14590995,130.40001,3.1415925,4294967.5,3751275.8,99.99,99.99,100,91,0.0,0.0,0.0,0.0,0.0,0,0,0,0
1466825316,1550508406000429,558035178,202607521,14563261,14590886,130.417,3.1415925,4294967.5,3751276.2,99.99,99.99,100,91,0.0,0.0,0.0,0.0,0.0,0,0,0,0
1467024403,1550508406200429,558032069,202628585,14563154,14590778,130.434,3.1415925,4294967.5,3751277.0,99.99,99.99,100,91,0.0,0.0,0.0,0.0,0.0,0,0,0,0
1467226313,1550508406400369,558868930,190844031,14590820,14619890,129.627,3.1415925,4294967.5,3751274.0,99.99,99.99,100,97,0.0,0.0,0.0,0.0,0.0,0,0,0,0
1467426457,1550508406600403,558406354,197526084,14575682,14603803,130.104,3.1415925,4294967.5,3751276.5,99.99,99.99,100,97,0.0,0.0,0.0,0.0,0.0,0,0,0,0
1467623320,1550508406800440,557868849,204690716,14557587,14585096,130.62901,3.1415925,4294967.5,3751279.2,99.99,99.99,100,97,0.0,0.0,0.0,0.0,0.0,0,0,0,0
1467827310,1550508407000482,557243048,212389850,14536222,14563299,131.20801,3.1415925,4294967.5,3751282.2,99.99,99.99,100,97,0.0,0.0,0.0,0.0,0.0,0,0,0,0
1468025334,1550508407200340,559254121,184705307,14603321,14633279,129.278,3.1415925,4294967.5,3751274.5,99.99,99.99,100,97,0.0,0.0,0.0,0.0,0.0,0,0,0,0
1468226356,1550508407400268,560110485,169012317,14630743,14663020,128.298,3.1415925,4294967.5,3751270.0,99.99,99.99,100,97,0.0,0.0,0.0,0.0,0.0,0,0,0,0
1468424393,1550508407600268,560108130,169033760,14630664,14662938,128.315,3.1415925,4294967.5,3751270.8,99.99,99.99,100,97,0.0,0.0,0.0,0.0,0.0,0,0,0,0
1468624322,1550508407800268,560105773,169055211,14630585,14662857,128.332,3.1415925,4294967.5,3751271.2,99.99,99.99,100,97,0.0,0.0,0.0,0.0,0.0,0,0,0,0
1468825322,1550508408000340,559243283,184790423,14602956,14632903,129.34601,3.1415925,4294967.5,3751277.0,99.99,99.99,100,97,0.0,0.0,0.0,0.0,0.0,0,0,0,0
1469025314,1550508408200412,558270227,199238967,14571184,14599066,130.348,3.1415925,4294967.5,3751281.8,99.99,99.99,100,97,0.0,0.0,0.0,0.0,0.0,0,0,0,0
1469225294,1550508408400455,557646155,207355927,14549980,14577342,130.946,3.1415925,4294967.5,3751285.2,99.99,99.99,100,93,0.0,0.0,0.0,0.0,0.0,0,0,0,0
1469425314,1550508408600584,555635813,229761020,14481132,14507235,132.66101,3.1415925,4294967.5,3751292.8,99.99,99.99,100,93,0.0,0.0,0.0,0.0,0.0,0,0,0,0
1469623319,1550508408799584,555286771,233208676,14469135,14495044,132.949,3.1415925,4294967.5,3751294.8,99.99,99.99,100,93,0.0,0.0,0.0,0.0,0.0,0,0,0,0
1469823296,1550508408999678,554062035,244614654,14426964,14452223,133.888,3.1415925,4294967.5,3751299.2,99.99,99.99,100,93,0.0,0.0,0.0,0.0,0.0,0,0,0,0
1470025771,1550508409199816,551603587,264881538,14341985,14366062,135.612,3.1415925,4294967.5,3751307.0,99.99,99.99,100,93,0.0,0.0,0.0,0.0,0.0,0,0,0,0
1470223321,1550508409399816,551599104,264901570,14341828,14365904,135.62901,3.1415925,4294967.5,3751308.0,99.99,99.99,100,95,0.0,0.0,0.0,0.0,0.0,0,0,0,0
1470424320,1550508409596471,550380706,273951441,14299571,14323103,136.432,3.1415925,4294967.5,3751311.8,99.99,99.99,100,95,0.0,0.0,0.0,0.0,0.0,0,0,0,0
1470628331,1550508409796471,550376109,273970943,14299410,14322941,136.449,3.1415925,4294967.5,3751312.0,99.99,99.99,100,95,0.0,0.0,0.0,0.0,0.0,0,0,0,0
1470829315,1550508410000471,550371340,273991172,14299243,14322774,136.466,3.1415925,4294967.5,3751312.8,99.99,99.99,100,95,0.0,0.0,0.0,0.0,0.0,0,0,0,0
1471029310,1550508410200471,550366663,274011003,14299080,14322609,136.483,3.1415925,4294967.5,3751313.0,99.99,99.99,100,95,0.0,0.0,0.0,0.0,0.0,0,0,0,0
1471228384,1550508410400405,549080843,283004129,14254391,14277368,137.294,3.1415925,4294967.5,3751317.5,99.99,99.99,100,93,0.0,0.0,0.0,0.0,0.0,0,0,0,0
1471428348,1550508410600405,549075975,283023762,14254221,14277196,137.311,3.1415925,4294967.5,3751318.2,99.99,99.99,100,93,0.0,0.0,0.0,0.0,0.0,0,0,0,0
1471627320,1550508410800405,549071105,283043402,14254050,14277025,137.328,3.1415925,4294967.5,3751318.8,99.99,99.99,100,93,0.0,0.0,0.0,0.0,0.0,0,0,0,0
1471827324,1550508411000470,550347952,274090316,14298426,14321951,136.54901,3.1415925,4294967.5,3751315.5,99.99,99.99,100,93,0.0,0.0,0.0,0.0,0.0,0,0,0,0
1472027321,1550508411200470,550343271,274110151,14298262,14321787,136.56601,3.1415925,4294967.5,3751316.2,99.99,99.99,100,93,0.0,0.0,0.0,0.0,0.0,0,0,0,0
1472227323,1550508411400470,550338590,274129979,14298099,14321622,136.582,3.1415925,4294967.5,3751317.0,99.99,99.99,100,92,0.0,0.0,0.0,0.0,0.0,0,0,0,0
1472428320,1550508411600470,550333909,274149806,14297935,14321458,136.599,3.1415925,4294967.5,3751317.5,99.99,99.99,100,92,0.0,0.0,0.0,0.0,0.0,0,0,0,0
1472628317,1550508411800470,550329228,274169632,14297771,14321293,136.615,3.1415925,4294967.5,3751318.2,99.99,99.99,100,92,0.0,0.0,0.0,0.0,0.0,0,0,0,0
1472829402,1550508412003822,551464349,265745848,14337144,14361174,135.89601,3.1415925,4294967.5,3751315.5,99.99,99.99,100,92,0.0,0.0,0.0,0.0,0.0,0,0,0,0
1473024347,1550508412199822,551459862,265765780,14336988,14361016,135.912,3.1415925,4294967.5,3751316.2,99.99,99.99,100,92,0.0,0.0,0.0,0.0,0.0,0,0,0,0
1473224399,1550508412399822,551455360,265785777,14336831,14360858,135.929,3.1415925,4294967.5,3751317.0,99.99,99.99,100,95,0.0,0.0,0.0,0.0,0.0,0,0,0,0
1473425320,1550508412596470,550310509,274248866,14297117,14320635,136.681,3.1415925,4294967.5,3751320.5,99.99,99.99,100,95,0.0,0.0,0.0,0.0,0.0,0,0,0,0
1473623320,1550508412796470,550305903,274268357,14296956,14320473,136.69801,3.1415925,4294967.5,3751321.2,99.99,99.99,100,95,0.0,0.0,0.0,0.0,0.0,0,0,0,0
1473827332,1550508413000408,549102288,282682396,14255123,14278123,137.45801,3.1415925,4294967.5,3751325.0,99.99,99.99,100,95,0.0,0.0,0.0,0.0,0.0,0,0,0,0
1474027320,1550508413200344,547755304,291597773,14208216,14230654,138.27301,3.1415925,4294967.5,3751329.2,99.99,99.99,100,95,0.0,0.0,0.0,0.0,0.0,0,0,0,0
1474227321,1550508413400344,547750250,291617214,14208039,14230476,138.29001,3.1415925,4294967.5,3751329.5,99.99,99.99,100,97,0.0,0.0,0.0,0.0,0.0,0,0,0,0
1474428317,1550508413600290,546517810,299368595,14165040,14186975,139.009,3.1415925,4294967.5,3751333.0,99.99,99.99,100,97,0.0,0.0,0.0,0.0,0.0,0,0,0,0
1474628343,1550508413800290,546512591,299387859,14164856,14186791,139.026,3.1415925,4294967.5,3751333.5,99.99,99.99,100,97,0.0,0.0,0.0,0.0,0.0,0,0,0,0
1474828405,1550508414000181,543714510,315801787,14067369,14087792,140.556,3.1415925,4294967.5,3751341.2,99.99,99.99,100,97,0.0,0.0,0.0,0.0,0.0,0,0,0,0
1475028659,1550508414200181,543708949,315820655,14067173,14087595,140.57301,3.1415925,4294967.5,3751341.5,99.99,99.99,100,97,0.0,0.0,0.0,0.0,0.0,0,0,0,0
1475427321,1550508414600019,538676969,342080766,13890953,13908756,143.07701,3.1415925,4294967.5,3751354.0,99.99,99.99,101,93,0.0,0.0,0.0,0.0,0.0,0,0,0,0
1475627380,1550508414800019,538670867,342098962,13890737,13908538,143.093,3.1415925,4294967.5,3751354.5,99.99,99.99,101,93,0.0,0.0,0.0,0.0,0.0,0,0,0,0
1475827317,1550508415000019,537462523,347902217,13848256,13865445,143.66,3.1415925,4294967.5,3751357.5,99.99,99.99,101,93,0.0,0.0,0.0,0.0,0.0,0,0,0,0
1476027321,1550508415199986,537456299,347920265,13848035,13865222,143.67601,3.1415925,4294967.5,3751358.5,99.99,99.99,101,93,0.0,0.0,0.0,0.0,0.0,0,0,0,0
1476228418,1550508415399986,537450076,347938310,13847815,13865000,143.692,3.1415925,4294967.5,3751359.0,99.99,99.99,100,95,0.0,0.0,0.0,0.0,0.0,0,0,0,0
1476428294,1550508415599986,537443851,347956357,13847595,13864778,143.70801,3.1415925,4294967.5,3751359.5,99.99,99.99,100,95,0.0,0.0,0.0,0.0,0.0,0,0,0,0
1476629311,1550508415799986,537437625,347974404,13847374,13864556,143.72401,3.1415925,4294967.5,3751360.2,99.99,99.99,100,95,0.0,0.0,0.0,0.0,0.0,0,0,0,0
1476828493,1550508415999987,537431399,347992449,13847154,13864334,143.73901,3.1415925,4294967.5,3751360.8,99.99,99.99,100,95,0.0,0.0,0.0,0.0,0.0,0,0,0,0
1477028345,1550508416199986,537425172,348010494,13846934,13864112,143.755,3.1415925,4294967.5,3751361.5,99.99,99.99,100,95,0.0,0.0,0.0,0.0,0.0,0,0,0,0
1477226380,1550508416399901,534004632,363602890,13726356,13741818,145.26001,3.1415925,4294967.5,3751369.0,99.99,99.99,100,91,0.0,0.0,0.0,0.0,0.0,0,0,0,0
1477429531,1550508416599901,533998094,363620496,13726124,13741584,145.27501,3.1415925,4294967.5,3751369.8,99.99,99.99,100,91,0.0,0.0,0.0,0.0,0.0,0,0,0,0
