timestamp,magnetometer_ga[0],magnetometer_ga[1],magnetometer_ga[2]
1399004268,0.013733937,-0.19292891,0.3524641
1399030928,0.010655797,-0.19292891,0.34330782
1399052260,0.010655797,-0.19292891,0.34330782
1399075040,0.013733937,-0.19292891,0.3402557
1401271104,0.0044995146,-0.19590275,0.34330782
1402188516,0.007577656,-0.19887656,0.33720362
1402212490,0.010655797,-0.19887656,0.34330782
1402237136,0.007577656,-0.19887656,0.33720362
1402260829,0.007577656,-0.19887656,0.3402557
1402284930,0.0044995146,-0.19887656,0.34330782
1402308890,0.007577656,-0.19887656,0.33415154
1402335948,0.007577656,-0.19887656,0.33720362
1402356694,0.0044995146,-0.19590275,0.33720362
1402405161,0.0044995146,-0.19887656,0.34330782
1402429311,0.0044995146,-0.19887656,0.3402557
1402452704,0.007577656,-0.19887656,0.33415154
1402474246,0.010655797,-0.19887656,0.3402557
1402498312,0.010655797,-0.19887656,0.33415154
1402522253,0.010655797,-0.19887656,0.33415154
1402546118,0.0044995146,-0.19887656,0.33720362
1402569431,0.007577656,-0.19887656,0.33720362
1402593382,0.0044995146,-0.19887656,0.33720362
1402617479,0.0044995146,-0.19590275,0.34330782
1402641623,0.007577656,-0.19887656,0.33720362
1402665217,0.007577656,-0.19590275,0.34330782
1402687273,0.0044995146,-0.19590275,0.3402557
1402710688,0.007577656,-0.19590275,0.33720362
1402735260,0.0044995146,-0.19590275,0.3402557
1402757357,0.007577656,-0.19590275,0.34330782
1402802244,0.0044995146,-0.19590275,0.3463599
1402825358,0.007577656,-0.19590275,0.33720362
1402848931,0.0044995146,-0.19590275,0.3402557
1402871264,0.0044995146,-0.19292891,0.34330782
1402895257,0.0044995146,-0.19292891,0.34330782
1402919274,0.0014213738,-0.19292891,0.3463599
1402949207,0.0044995146,-0.19590275,0.34330782
1402971291,0.007577656,-0.19292891,0.34330782
1403017188,0.0014213738,-0.19590275,0.34330782
1403041304,0.0044995146,-0.19292891,0.34330782
1403065266,0.010655797,-0.19292891,0.3402557
1403085297,0.013733937,-0.19292891,0.3402557
1403109901,0.007577656,-0.19590275,0.33720362
1403134101,0.0044995146,-0.19292891,0.34330782
1403158968,0.0044995146,-0.19292891,0.34330782
1403179340,0.007577656,-0.19292891,0.34330782
1403225318,0.010655797,-0.19590275,0.34330782
1403249366,0.007577656,-0.19590275,0.3402557
1403272936,0.0044995146,-0.19590275,0.349412
1403294291,0.0044995146,-0.19292891,0.34330782
1403318100,0.010655797,-0.19590275,0.33109942
1403343564,0.007577656,-0.19292891,0.3402557
1403369529,0.007577656,-0.19887656,0.3402557
1403391471,0.007577656,-0.19590275,0.33720362
1403414990,0.007577656,-0.19590275,0.34330782
1403439249,0.007577656,-0.19590275,0.34330782
1403462397,0.0014213738,-0.19590275,0.3463599
1403486450,0.0044995146,-0.19590275,0.3402557
1403510492,0.0014213738,-0.19590275,0.3402557
1403535033,0.007577656,-0.19590275,0.34330782
1403559202,0.007577656,-0.19590275,0.33720362
1403587225,0.007577656,-0.19590275,0.3402557
1403611356,0.0044995146,-0.19590275,0.34330782
1403635038,0.0044995146,-0.19590275,0.3402557
1403657765,0.007577656,-0.19590275,0.3402557
1403682712,0.007577656,-0.19590275,0.33720362
1403706146,0.007577656,-0.19590275,0.33720362
1403731025,0.010655797,-0.19590275,0.3402557
1403755014,0.007577656,-0.19590275,0.33415154
1403783353,0.0044995146,-0.19590275,0.34330782
1403806967,0.010655797,-0.19590275,0.33720362
1403828260,0.007577656,-0.19590275,0.33720362
1403851264,0.0044995146,-0.19590275,0.34330782
1403874961,0.0044995146,-0.19590275,0.3402557
1403901172,0.007577656,-0.19590275,0.3402557
1403924296,0.0044995146,-0.19292891,0.33720362
1403947847,0.010655797,-0.19590275,0.33720362
1403972032,0.010655797,-0.19590275,0.3402557
1403995493,0.007577656,-0.19590275,0.33415154
1404019836,0.019890219,-0.19590275,0.3402557
1404044149,0.010655797,-0.19590275,0.34330782
1404068134,0.007577656,-0.19590275,0.34330782
1404097058,0.010655797,-0.19590275,0.33720362
1404119861,0.010655797,-0.19590275,0.3402557
1404144132,0.013733937,-0.19590275,0.33720362
1404167510,0.010655797,-0.19590275,0.34330782
1404191510,0.010655797,-0.19292891,0.33720362
1404215916,0.010655797,-0.19590275,0.3402557
1404239524,0.010655797,-0.19590275,0.33720362
1404264144,0.007577656,-0.19590275,0.34330782
1404285338,0.016812079,-0.19590275,0.33720362
1404308672,0.013733937,-0.19590275,0.34330782
1404332647,0.013733937,-0.19887656,0.33720362
1404356280,0.013733937,-0.19590275,0.33720362
1404380896,0.013733937,-0.19590275,0.33720362
1404430340,0.013733937,-0.19590275,0.33720362
1404452663,0.016812079,-0.19590275,0.33720362
1404476639,0.013733937,-0.19590275,0.33415154
1404501200,0.010655797,-0.19590275,0.34330782
1404524640,0.010655797,-0.19590275,0.33720362
1404548275,0.016812079,-0.19590275,0.34330782
1404571714,0.013733937,-0.19590275,0.3402557
1404594198,0.019890219,-0.19590275,0.33720362
1404640706,0.019890219,-0.19590275,0.3402557
1404663991,0.016812079,-0.19590275,0.3402557
1404686259,0.019890219,-0.19590275,0.33415154
1404710259,0.022968361,-0.19590275,0.33415154
1404733315,0.019890219,-0.19590275,0.3402557
1404756285,0.019890219,-0.19590275,0.33415154
1404779253,0.016812079,-0.19590275,0.33415154
1404802923,0.016812079,-0.19590275,0.34330782
1404826939,0.016812079,-0.19887656,0.33720362
1404851265,0.016812079,-0.19590275,0.33720362
1404875260,0.019890219,-0.19887656,0.33415154
1404899272,0.016812079,-0.19887656,0.33415154
1404923257,0.019890219,-0.19590275,0.33720362
1404946388,0.016812079,-0.19887656,0.3402557
1404969745,0.019890219,-0.19590275,0.33415154
1404993331,0.016812079,-0.19887656,0.33720362
1405044510,0.013733937,-0.19887656,0.33720362
1405068279,0.016812079,-0.19590275,0.33415154
1405091257,0.010655797,-0.19590275,0.3402557
1405114253,0.013733937,-0.19590275,0.33720362
1405137198,0.016812079,-0.19590275,0.3402557
1405159260,0.016812079,-0.19887656,0.3555162
1405183264,0.013733937,-0.19590275,0.3463599
1405207257,0.016812079,-0.19590275,0.33720362
1405229344,0.013733937,-0.19590275,0.3463599
1405253585,0.019890219,-0.19590275,0.34330782
1405276928,0.013733937,-0.19590275,0.34330782
1405299276,0.016812079,-0.19590275,0.34330782
1405322230,0.019890219,-0.19292891,0.33720362
1405346334,0.016812079,-0.19292891,0.33720362
1405367345,0.019890219,-0.19590275,0.34330782
1405393206,0.016812079,-0.19590275,0.34330782
1405417681,0.016812079,-0.19292891,0.3463599
1405442040,0.013733937,-0.19590275,0.34330782
1405465595,0.013733937,-0.19292891,0.34330782
1405487257,0.019890219,-0.19590275,0.3402557
1405511343,0.019890219,-0.19292891,0.3402557
1405533437,0.016812079,-0.19292891,0.3402557
1405557344,0.019890219,-0.19590275,0.3402557
1405578245,0.019890219,-0.19590275,0.33109942
1405602940,0.013733937,-0.19590275,0.34330782
1405652273,0.013733937,-0.19590275,0.33720362
1405676261,0.013733937,-0.19590275,0.34330782
1405699137,0.013733937,-0.19590275,0.33720362
1405723221,0.016812079,-0.19590275,0.3402557
1405746981,0.010655797,-0.19590275,0.3463599
1405774685,0.016812079,-0.19887656,0.34330782
1405796272,0.013733937,-0.19590275,0.34330782
1405822700,0.007577656,-0.19887656,0.33720362
1405844339,0.010655797,-0.19590275,0.34330782
1405870050,0.010655797,-0.19887656,0.3402557
1405892273,0.013733937,-0.19590275,0.33415154
1405914680,0.010655797,-0.19590275,0.3402557
1405938124,0.010655797,-0.19590275,0.3402557
1405963219,0.013733937,-0.19590275,0.33720362
1405987494,0.013733937,-0.19590275,0.34330782
1406011143,0.010655797,-0.19590275,0.33720362
1406035137,0.007577656,-0.19590275,0.3402557
1406059769,0.007577656,-0.19590275,0.3402557
1406087690,0.010655797,-0.19590275,0.3402557
1406109265,0.007577656,-0.19590275,0.34330782
1406132136,0.007577656,-0.19590275,0.34330782
1406155887,0.010655797,-0.19590275,0.32804734
1406180634,0.010655797,-0.19590275,0.3402557
1406203752,0.010655797,-0.19590275,0.33415154
1406228138,0.010655797,-0.19590275,0.33720362
1406252016,0.007577656,-0.19292891,0.34330782
1406275148,0.007577656,-0.19590275,0.3402557
1406299762,0.0044995146,-0.19292891,0.3463599
1406322885,0.007577656,-0.19590275,0.3402557
1406346935,0.010655797,-0.19590275,0.33720362
1406368491,0.0044995146,-0.19590275,0.34330782
1406391732,0.007577656,-0.19292891,0.34330782
1406415884,0.007577656,-0.19590275,0.33720362
1406465416,0.007577656,-0.19590275,0.34330782
1406492637,0.0044995146,-0.19292891,0.34330782
1406516148,0.010655797,-0.19292891,0.33720362
1406538260,0.007577656,-0.19590275,0.33720362
1406562264,0.010655797,-0.19292891,0.3402557
1406585259,0.010655797,-0.19590275,0.34330782
1406608297,0.007577656,-0.19292891,0.349412
1406632633,0.007577656,-0.19590275,0.3402557
1406656739,0.013733937,-0.19292891,0.33720362
1406680627,0.013733937,-0.19590275,0.3402557
1406703837,0.007577656,-0.19590275,0.33720362
1406727724,0.007577656,-0.19292891,0.33720362
1406748914,0.0044995146,-0.19292891,0.34330782
1406772519,0.016812079,-0.19292891,0.34330782
1406796012,0.007577656,-0.19292891,0.33720362
1406820721,0.007577656,-0.19292891,0.349412
1406864612,0.007577656,-0.19292891,0.3463599
1406888578,0.010655797,-0.19292891,0.3402557
1406912851,0.010655797,-0.19292891,0.3402557
1406936534,0.010655797,-0.19292891,0.3463599
1406959773,0.010655797,-0.19292891,0.34330782
1406983710,0.013733937,-0.19292891,0.33415154
1407013556,0.010655797,-0.19292891,0.3402557
1407037102,0.010655797,-0.19292891,0.3463599
1407058258,0.010655797,-0.19292891,0.34330782
1407079265,0.013733937,-0.19292891,0.3402557
1407104299,0.010655797,-0.19292891,0.3463599
1407128619,0.013733937,-0.19292891,0.33720362
1407152540,0.010655797,-0.19590275,0.34330782
1407175271,0.010655797,-0.19292891,0.34330782
1407198650,0.010655797,-0.19292891,0.34330782
1407222259,0.010655797,-0.19292891,0.34330782
1407245539,0.010655797,-0.19292891,0.34330782
1407269234,0.010655797,-0.19292891,0.34330782
1407291257,0.007577656,-0.18995509,0.349412
1407315280,0.013733937,-0.19292891,0.33415154
1407338270,0.013733937,-0.19292891,0.33720362
1407359260,0.010655797,-0.18995509,0.3402557
1407384291,0.0044995146,-0.19292891,0.3463599
1407406359,0.007577656,-0.19292891,0.3402557
1407430000,0.010655797,-0.19292891,0.33720362
1407453581,0.0044995146,-0.18995509,0.34330782
1407477641,0.007577656,-0.18995509,0.34330782
1407499270,0.007577656,-0.19292891,0.3463599
1407522162,0.007577656,-0.19292891,0.34330782
1407545887,0.010655797,-0.19292891,0.34330782
1407570528,0.013733937,-0.19292891,0.34330782
1407594236,0.010655797,-0.19292891,0.3402557
1407621648,0.007577656,-0.19292891,0.3402557
1407646516,0.0044995146,-0.19292891,0.3463599
1407670523,0.010655797,-0.19292891,0.3402557
1407695012,0.010655797,-0.19292891,0.33720362
1407717536,0.013733937,-0.19292891,0.33720362
1407742503,0.013733937,-0.19292891,0.3402557
1407766427,0.010655797,-0.19292891,0.3402557
1407790689,0.010655797,-0.19590275,0.3463599
1407814802,0.007577656,-0.19590275,0.349412
1407842152,0.010655797,-0.19292891,0.3402557
1407863262,0.010655797,-0.19590275,0.33720362
1407884272,0.013733937,-0.19590275,0.3402557
1407908263,0.007577656,-0.19292891,0.349412
1407931125,0.007577656,-0.19292891,0.33720362
1407958255,0.010655797,-0.19292891,0.34330782
1407980260,0.010655797,-0.19590275,0.34330782
1408006909,0.013733937,-0.19590275,0.33720362
1408028306,0.010655797,-0.19887656,0.3402557
1408051856,0.013733937,-0.19887656,0.33720362
1408075755,0.010655797,-0.19590275,0.33720362
1408099226,0.013733937,-0.19887656,0.33720362
1408123024,0.016812079,-0.19590275,0.33109942
1408146146,0.013733937,-0.19590275,0.3402557
1408171038,0.016812079,-0.19590275,0.33415154
1408195041,0.016812079,-0.19590275,0.33109942
1408217750,0.016812079,-0.19887656,0.33720362
1408243020,0.016812079,-0.19887656,0.33415154
1408271312,0.013733937,-0.19887656,0.3402557
1408294448,0.013733937,-0.19590275,0.33720362
1408319571,0.013733937,-0.19590275,0.33720362
1408342952,0.010655797,-0.19887656,0.34330782
1408364652,0.016812079,-0.19590275,0.33720362
1408388147,0.010655797,-0.19590275,0.3402557
1408411700,0.013733937,-0.19887656,0.33720362
1408435508,0.016812079,-0.19590275,0.3402557
1408460006,0.016812079,-0.19887656,0.33109942
1408484126,0.013733937,-0.19590275,0.33720362
1408507921,0.016812079,-0.19590275,0.33720362
1408532139,0.016812079,-0.19590275,0.34330782
1408556132,0.013733937,-0.19590275,0.3402557
1408581273,0.013733937,-0.19590275,0.3402557
1408605257,0.013733937,-0.19590275,0.3402557
1408627682,0.010655797,-0.19590275,0.3402557
1408651831,0.013733937,-0.19590275,0.33720362
1408676634,0.019890219,-0.19887656,0.33720362
1408699835,0.016812079,-0.2018504,0.33415154
1408723683,0.016812079,-0.2018504,0.33720362
1408749609,0.016812079,-0.20482424,0.33109942
1408772402,0.013733937,-0.2018504,0.33720362
1408797522,0.016812079,-0.20482424,0.33415154
1408820639,0.016812079,-0.20482424,0.32804734
1408844119,0.013733937,-0.20482424,0.33415154
1408866257,0.013733937,-0.20482424,0.33720362
1408895687,0.016812079,-0.20482424,0.33415154
1408919699,0.016812079,-0.20482424,0.33415154
1408942265,0.013733937,-0.20482424,0.33720362
1408964449,0.010655797,-0.20482424,0.33720362
1408988962,0.016812079,-0.20482424,0.33720362
1409012686,0.016812079,-0.2018504,0.33109942
1409035975,0.019890219,-0.20482424,0.33415154
1409058257,0.013733937,-0.20482424,0.33720362
1409082257,0.013733937,-0.2018504,0.33720362
1409106257,0.010655797,-0.2018504,0.33720362
1409129262,0.010655797,-0.2018504,0.33720362
1409151589,0.013733937,-0.2018504,0.33720362
1409174270,0.016812079,-0.19887656,0.33109942
1409197720,0.013733937,-0.2018504,0.33415154
1409221275,0.013733937,-0.2018504,0.33415154
1409243271,0.013733937,-0.2018504,0.33109942
1409267270,0.013733937,-0.19887656,0.33720362
1409290156,0.013733937,-0.19887656,0.3402557
1409312942,0.010655797,-0.19887656,0.3402557
1409336319,0.013733937,-0.19590275,0.33415154
1409359260,0.010655797,-0.19887656,0.3402557
1409383341,0.010655797,-0.19590275,0.33720362
1409407267,0.013733937,-0.19590275,0.33720362
1409431270,0.013733937,-0.19887656,0.3402557
1409455257,0.016812079,-0.19590275,0.33720362
1409480540,0.019890219,-0.19887656,0.33109942
1409509108,0.019890219,-0.19590275,0.33415154
1409531283,0.010655797,-0.19590275,0.3402557
1409553259,0.010655797,-0.19590275,0.34330782
1409576289,0.013733937,-0.19590275,0.34330782
1409600506,0.010655797,-0.19292891,0.33109942
1409623257,0.016812079,-0.19887656,0.33415154
1409646260,0.010655797,-0.19887656,0.3402557
1409669336,0.016812079,-0.19590275,0.33415154
1409693426,0.013733937,-0.19887656,0.33415154
1409715292,0.016812079,-0.19887656,0.3402557
1409737563,0.016812079,-0.19887656,0.33720362
1409761599,0.019890219,-0.19887656,0.33415154
1409783253,0.019890219,-0.19887656,0.34330782
1409805339,0.016812079,-0.19887656,0.33720362
1409829305,0.016812079,-0.19590275,0.33415154
1409852944,0.013733937,-0.19887656,0.3402557
1409877279,0.016812079,-0.19887656,0.33720362
1409901542,0.016812079,-0.19887656,0.33720362
1409925488,0.019890219,-0.19887656,0.3402557
1409949350,0.016812079,-0.19887656,0.33720362
1409970399,0.019890219,-0.19887656,0.33415154
1410014412,0.016812079,-0.19887656,0.3402557
1410038219,0.019890219,-0.19887656,0.33415154
1410061323,0.013733937,-0.19590275,0.33720362
1410085336,0.016812079,-0.19887656,0.33720362
1410107787,0.016812079,-0.19887656,0.33720362
1410131783,0.013733937,-0.19887656,0.3402557
1410154928,0.016812079,-0.19590275,0.33720362
1410179114,0.016812079,-0.19887656,0.34330782
1410202727,0.019890219,-0.19887656,0.33415154
1410227345,0.019890219,-0.19887656,0.33720362
1410251319,0.019890219,-0.19887656,0.34330782
1410274482,0.022968361,-0.19887656,0.33720362
1410299385,0.022968361,-0.19887656,0.33109942
1410323341,0.026046501,-0.19887656,0.33109942
1410350087,0.022968361,-0.19887656,0.33720362
1410370462,0.016812079,-0.19887656,0.33720362
1410394008,0.016812079,-0.19887656,0.33720362
1410418809,0.013733937,-0.19887656,0.3402557
1410444482,0.016812079,-0.19887656,0.33720362
1410470154,0.013733937,-0.19887656,0.33720362
1410494319,0.016812079,-0.2018504,0.33720362
1410516137,0.016812079,-0.19887656,0.33415154
1410539230,0.010655797,-0.2018504,0.3402557
1410562828,0.026046501,-0.19887656,0.33109942
1410587024,0.022968361,-0.19887656,0.33720362
1410608146,0.026046501,-0.19887656,0.33109942
1410631918,0.022968361,-0.19887656,0.33720362
1410656018,0.026046501,-0.19887656,0.33109942
1410679854,0.022968361,-0.19887656,0.33720362
1410703841,0.022968361,-0.19887656,0.33720362
1410727827,0.022968361,-0.2018504,0.33720362
1410753718,0.022968361,-0.19887656,0.33415154
1410779203,0.026046501,-0.19887656,0.33720362
1410799855,0.019890219,-0.19887656,0.33720362
1410823293,0.019890219,-0.19887656,0.33720362
1410847745,0.019890219,-0.19887656,0.33720362
1410871513,0.019890219,-0.19887656,0.33720362
1410896144,0.019890219,-0.19590275,0.3402557
1410920124,0.022968361,-0.19590275,0.33720362
1410944669,0.016812079,-0.19590275,0.33720362
1410970146,0.019890219,-0.19590275,0.3402557
1410992632,0.022968361,-0.19887656,0.33720362
1411016129,0.022968361,-0.19887656,0.33415154
1411037194,0.016812079,-0.19590275,0.33415154
1411061455,0.019890219,-0.19590275,0.3402557
1411085610,0.022968361,-0.19887656,0.33720362
1411108502,0.019890219,-0.19887656,0.3402557
1411132412,0.016812079,-0.19887656,0.3402557
1411156701,0.022968361,-0.19590275,0.33109942
1411181620,0.016812079,-0.19590275,0.33720362
1411204933,0.022968361,-0.19292891,0.32804734
1411228603,0.013733937,-0.19590275,0.3402557
1411252549,0.019890219,-0.19590275,0.33720362
1411280306,0.019890219,-0.19887656,0.349412
1411303748,0.019890219,-0.19590275,0.3402557
1411325257,0.013733937,-0.19590275,0.33720362
1411348586,0.016812079,-0.19590275,0.3402557
1411372336,0.016812079,-0.19590275,0.3402557
1411393306,0.016812079,-0.19590275,0.33720362
1411416576,0.019890219,-0.19590275,0.3402557
1411440779,0.016812079,-0.19590275,0.3402557
1411465330,0.019890219,-0.19590275,0.33720362
1411490147,0.022968361,-0.19590275,0.33109942
1411537355,0.022968361,-0.19590275,0.33720362
1411561384,0.019890219,-0.19590275,0.3402557
1411585355,0.026046501,-0.19590275,0.33720362
1411609365,0.026046501,-0.19590275,0.33415154
1411633447,0.022968361,-0.19590275,0.33720362
1411657456,0.022968361,-0.19590275,0.33415154
1411709351,0.026046501,-0.19590275,0.33720362
1411733661,0.022968361,-0.19590275,0.33720362
1411757395,0.026046501,-0.19292891,0.34330782
1411781358,0.022968361,-0.19590275,0.33720362
1411804826,0.026046501,-0.19590275,0.33109942
1411829557,0.022968361,-0.19590275,0.3402557
1411851260,0.019890219,-0.19590275,0.33415154
1411875271,0.026046501,-0.19887656,0.33415154
1411902797,0.026046501,-0.19590275,0.33720362
1411926903,0.026046501,-0.19292891,0.33415154
1411951040,0.029124642,-0.19292891,0.3402557
1411973255,0.026046501,-0.19590275,0.33720362
1411997246,0.026046501,-0.19590275,0.3402557
1412021589,0.026046501,-0.19590275,0.3402557
1412045636,0.026046501,-0.19887656,0.3402557
1412067311,0.026046501,-0.19590275,0.33415154
1412089890,0.029124642,-0.19887656,0.33720362
1412114156,0.029124642,-0.19887656,0.33415154
1412138156,0.029124642,-0.19590275,0.33720362
1412162112,0.029124642,-0.19887656,0.33109942
1412186156,0.026046501,-0.19887656,0.33415154
1412213789,0.026046501,-0.19887656,0.33720362
1412237597,0.022968361,-0.19887656,0.3402557
1412259257,0.026046501,-0.19887656,0.33415154
1412281315,0.026046501,-0.19887656,0.33415154
1412305544,0.026046501,-0.19590275,0.33720362
1412326723,0.026046501,-0.19887656,0.33720362
1412350438,0.029124642,-0.19887656,0.33415154
1412372272,0.032202784,-0.19887656,0.33415154
1412396260,0.032202784,-0.19887656,0.33415154
1412418795,0.029124642,-0.19887656,0.33109942
1412443212,0.032202784,-0.19887656,0.33720362
1412467123,0.032202784,-0.19887656,0.33720362
1412491209,0.029124642,-0.19590275,0.33109942
1412539025,0.022968361,-0.19887656,0.33720362
1412563223,0.026046501,-0.19887656,0.3402557
1412587117,0.026046501,-0.19887656,0.33720362
1412616014,0.026046501,-0.19887656,0.33720362
1412639332,0.026046501,-0.19887656,0.33720362
1412663338,0.026046501,-0.19887656,0.3402557
1412687335,0.026046501,-0.19887656,0.33720362
1412710481,0.026046501,-0.19887656,0.3402557
1412734895,0.026046501,-0.19887656,0.33415154
1412758580,0.026046501,-0.19887656,0.33415154
1412783506,0.026046501,-0.19887656,0.33109942
1412807374,0.022968361,-0.19887656,0.33720362
1412836295,0.026046501,-0.19887656,0.33720362
1412860557,0.032202784,-0.19887656,0.33109942
1412883598,0.029124642,-0.19887656,0.33109942
1412905301,0.022968361,-0.19887656,0.33415154
1412931274,0.022968361,-0.19887656,0.3402557
1412955695,0.022968361,-0.19590275,0.33720362
1412977259,0.022968361,-0.19590275,0.3402557
1413000298,0.026046501,-0.19887656,0.33415154
1413023825,0.026046501,-0.19887656,0.33109942
1413048129,0.026046501,-0.19590275,0.33415154
1413071923,0.029124642,-0.19590275,0.33415154
1413095837,0.026046501,-0.19887656,0.33109942
1413120140,0.029124642,-0.19887656,0.32499522
1413145258,0.029124642,-0.19887656,0.33109942
1413169259,0.026046501,-0.19887656,0.33720362
1413190251,0.022968361,-0.19887656,0.3402557
1413213517,0.022968361,-0.19887656,0.33109942
1413241234,0.026046501,-0.19887656,0.33415154
1413264640,0.029124642,-0.19887656,0.33109942
1413288817,0.019890219,-0.19887656,0.33720362
1413312960,0.019890219,-0.19590275,0.33720362
1413336928,0.026046501,-0.19887656,0.33720362
1413360617,0.026046501,-0.19887656,0.33109942
1413384376,0.019890219,-0.19887656,0.33720362
1413408639,0.022968361,-0.19590275,0.33109942
1413432523,0.019890219,-0.19590275,0.33720362
1413461207,0.022968361,-0.19590275,0.33109942
1413484530,0.019890219,-0.19887656,0.33415154
1413508318,0.019890219,-0.19887656,0.33720362
1413557208,0.022968361,-0.19590275,0.33109942
1413580864,0.019890219,-0.19590275,0.33415154
1413604007,0.022968361,-0.19887656,0.33109942
1413626265,0.026046501,-0.19887656,0.33109942
1413650260,0.016812079,-0.19590275,0.33415154
1413673446,0.022968361,-0.19590275,0.33720362
1413697209,0.026046501,-0.19590275,0.33720362
1413721394,0.026046501,-0.19590275,0.33720362
1413745442,0.026046501,-0.19590275,0.33109942
1413795257,0.022968361,-0.19590275,0.33109942
1413819253,0.026046501,-0.19590275,0.33415154
1413843343,0.022968361,-0.19590275,0.33415154
1413865394,0.026046501,-0.19590275,0.33415154
1413888544,0.019890219,-0.19887656,0.33720362
1413910282,0.019890219,-0.19590275,0.33415154
1413931260,0.019890219,-0.19590275,0.33415154
1413953440,0.019890219,-0.19887656,0.33720362
1413979264,0.019890219,-0.19887656,0.33720362
1414003265,0.019890219,-0.19887656,0.33720362
1414024958,0.026046501,-0.2018504,0.33109942
1414049504,0.019890219,-0.19887656,0.33415154
1414074135,0.022968361,-0.2018504,0.33415154
1414097789,0.019890219,-0.2018504,0.33109942
1414122231,0.022968361,-0.2018504,0.32499522
1414146236,0.019890219,-0.2018504,0.33109942
1414170157,0.019890219,-0.19887656,0.32804734
1414194106,0.019890219,-0.2018504,0.32804734
1414218154,0.019890219,-0.2018504,0.33109942
1414242151,0.016812079,-0.2018504,0.33109942
1414265887,0.016812079,-0.2018504,0.32804734
1414294517,0.016812079,-0.2018504,0.33415154
1414317554,0.019890219,-0.19887656,0.33109942
1414341631,0.019890219,-0.2018504,0.33109942
1414365656,0.016812079,-0.19887656,0.33109942
1414389396,0.019890219,-0.2018504,0.33720362
1414413358,0.019890219,-0.19887656,0.33109942
1414437586,0.019890219,-0.2018504,0.33415154
1414461682,0.013733937,-0.2018504,0.33720362
1414490197,0.019890219,-0.19887656,0.32499522
1414513308,0.016812079,-0.19887656,0.33109942
1414535278,0.013733937,-0.19887656,0.33720362
1414557998,0.016812079,-0.19887656,0.33109942
1414578434,0.016812079,-0.19887656,0.33720362
1414606255,0.016812079,-0.19887656,0.32804734
1414627256,0.019890219,-0.2018504,0.33415154
1414650034,0.019890219,-0.19887656,0.33415154
1414675665,0.019890219,-0.19887656,0.33720362
1414699305,0.019890219,-0.2018504,0.33109942
1414722938,0.019890219,-0.19887656,0.33415154
1414746882,0.022968361,-0.2018504,0.33109942
1414770456,0.016812079,-0.19887656,0.33415154
1414794740,0.016812079,-0.2018504,0.33109942
1414818426,0.019890219,-0.19887656,0.32499522
1414840271,0.016812079,-0.19887656,0.33720362
1414864259,0.022968361,-0.19887656,0.32804734
1414888261,0.013733937,-0.19887656,0.33109942
1414912270,0.019890219,-0.19887656,0.33109942
1414938382,0.016812079,-0.2018504,0.33415154
1414960284,0.016812079,-0.19887656,0.33109942
1414983205,0.019890219,-0.19887656,0.32804734
1415011847,0.010655797,-0.19887656,0.33109942
1415035952,0.013733937,-0.19887656,0.33415154
1415059953,0.013733937,-0.19887656,0.33109942
1415083509,0.019890219,-0.19887656,0.32804734
1415107237,0.019890219,-0.19887656,0.33109942
1415132148,0.016812079,-0.19887656,0.33109942
1415156019,0.019890219,-0.19887656,0.33109942
1415179717,0.013733937,-0.19887656,0.33109942
1415204804,0.016812079,-0.19887656,0.33109942
1415231836,0.013733937,-0.19887656,0.33415154
1415255523,0.016812079,-0.19887656,0.33109942
1415279871,0.013733937,-0.19590275,0.33415154
1415304146,0.016812079,-0.19887656,0.33109942
1415326799,0.013733937,-0.19590275,0.33720362
1415351836,0.019890219,-0.19887656,0.32804734
1415376102,0.019890219,-0.19887656,0.33109942
1415400311,0.019890219,-0.19590275,0.33109942
1415425725,0.013733937,-0.19590275,0.33109942
1415448838,0.019890219,-0.19887656,0.32804734
1415472134,0.016812079,-0.19590275,0.33415154
1415494256,0.019890219,-0.19590275,0.32804734
1415519683,0.019890219,-0.19590275,0.33109942
1415543730,0.019890219,-0.19590275,0.33109942
1415565119,0.019890219,-0.19590275,0.33109942
1415588924,0.016812079,-0.19590275,0.33415154
1415613422,0.016812079,-0.19292891,0.33720362
1415636941,0.016812079,-0.19292891,0.33109942
1415661446,0.019890219,-0.19292891,0.33109942
1415685328,0.013733937,-0.18995509,0.33720362
1415709640,0.013733937,-0.18995509,0.33109942
1415737206,0.016812079,-0.18995509,0.33109942
1415760561,0.013733937,-0.18995509,0.33415154
1415784635,0.013733937,-0.19292891,0.33109942
1415809450,0.013733937,-0.19292891,0.33415154
1415833207,0.016812079,-0.19292891,0.33415154
1415857357,0.016812079,-0.18995509,0.3402557
1415880756,0.016812079,-0.19292891,0.33109942
1415904506,0.016812079,-0.19292891,0.3402557
1415927257,0.016812079,-0.19292891,0.33720362
1415952720,0.016812079,-0.19292891,0.33415154
1415975256,0.019890219,-0.19292891,0.33415154
1416000505,0.016812079,-0.19292891,0.33109942
1416023294,0.016812079,-0.18995509,0.33415154
1416050244,0.022968361,-0.19292891,0.33109942
1416073403,0.019890219,-0.19292891,0.33109942
1416096479,0.016812079,-0.19292891,0.33415154
1416119256,0.022968361,-0.19292891,0.33109942
1416143260,0.022968361,-0.19590275,0.32804734
1416165596,0.022968361,-0.19292891,0.32804734
1416189201,0.019890219,-0.19292891,0.33109942
1416212693,0.016812079,-0.19292891,0.33109942
1416235363,0.016812079,-0.19292891,0.33109942
1416258255,0.026046501,-0.19292891,0.33109942
1416282094,0.019890219,-0.19590275,0.33109942
1416306426,0.019890219,-0.19590275,0.33109942
1416330518,0.019890219,-0.19590275,0.32804734
1416378137,0.016812079,-0.19590275,0.33109942
1416402266,0.019890219,-0.19590275,0.32499522
1416426201,0.016812079,-0.19292891,0.33415154
1416451124,0.019890219,-0.19590275,0.33109942
1416478128,0.022968361,-0.19590275,0.32499522
1416502513,0.019890219,-0.19292891,0.32804734
1416527178,0.016812079,-0.19590275,0.33109942
1416549962,0.016812079,-0.19292891,0.32499522
1416574793,0.019890219,-0.19292891,0.33109942
1416598362,0.022968361,-0.19590275,0.32499522
1416622439,0.019890219,-0.19590275,0.32499522
1416646976,0.019890219,-0.19292891,0.33109942
1416675043,0.026046501,-0.19292891,0.33415154
1416697875,0.019890219,-0.19590275,0.33109942
1416722360,0.019890219,-0.19292891,0.32499522
1416748125,0.019890219,-0.19590275,0.33109942
1416771331,0.019890219,-0.19292891,0.32804734
1416794206,0.022968361,-0.19590275,0.32804734
1416818493,0.019890219,-0.19590275,0.32499522
1416840254,0.019890219,-0.19590275,0.33109942
1416862930,0.019890219,-0.19292891,0.33109942
1416887040,0.019890219,-0.19590275,0.33415154
1416910120,0.019890219,-0.19292891,0.32804734
1416934687,0.022968361,-0.19590275,0.32804734
1416958681,0.016812079,-0.19292891,0.33109942
1416988530,0.019890219,-0.19292891,0.33109942
1417012117,0.019890219,-0.19292891,0.33109942
1417035230,0.026046501,-0.19292891,0.32499522
1417059315,0.022968361,-0.19292891,0.32804734
1417081262,0.013733937,-0.19292891,0.33109942
1417103837,0.019890219,-0.19292891,0.32804734
1417128300,0.019890219,-0.19292891,0.32499522
1417152135,0.022968361,-0.19590275,0.32804734
1417175852,0.019890219,-0.19292891,0.32804734
1417199490,0.026046501,-0.19590275,0.32194313
1417223841,0.019890219,-0.19292891,0.33109942
1417247149,0.016812079,-0.19292891,0.33109942
1417270780,0.022968361,-0.19590275,0.32804734
1417292101,0.022968361,-0.19292891,0.32804734
1417316135,0.019890219,-0.18995509,0.32499522
1417340162,0.019890219,-0.19292891,0.32804734
1417364413,0.026046501,-0.19292891,0.32499522
1417388102,0.022968361,-0.19292891,0.33109942
1417416129,0.022968361,-0.19292891,0.33109942
1417440144,0.019890219,-0.19292891,0.32804734
1417463168,0.026046501,-0.19292891,0.32194313
1417486897,0.019890219,-0.19292891,0.33109942
1417511392,0.022968361,-0.19292891,0.32804734
1417536013,0.022968361,-0.19292891,0.33109942
1417557269,0.019890219,-0.19292891,0.33109942
1417583739,0.022968361,-0.19292891,0.32804734
1417609859,0.022968361,-0.19590275,0.32804734
1417631715,0.019890219,-0.19292891,0.32804734
1417652956,0.022968361,-0.19292891,0.33415154
1417674207,0.026046501,-0.19292891,0.32499522
1417697256,0.016812079,-0.18995509,0.33109942
1417724286,0.022968361,-0.19292891,0.33415154
1417746258,0.016812079,-0.18995509,0.33415154
1417768648,0.019890219,-0.18698125,0.33109942
1417793196,0.022968361,-0.18698125,0.33720362
1417819989,0.026046501,-0.18698125,0.32499522
1417841313,0.019890219,-0.18103358,0.33720362
1417865132,0.026046501,-0.18103358,0.33720362
1417888381,0.022968361,-0.17805974,0.3402557
1417913199,0.022968361,-0.17508593,0.3402557
1417936651,0.026046501,-0.17508593,0.3402557
1417960638,0.026046501,-0.17508593,0.33415154
1417985146,0.022968361,-0.17508593,0.33720362
1418008621,0.022968361,-0.17211209,0.34330782
1418037271,0.022968361,-0.17508593,0.33720362
1418059270,0.019890219,-0.17211209,0.3402557
1418082260,0.022968361,-0.17211209,0.3402557
1418104505,0.019890219,-0.17508593,0.3402557
1418129584,0.022968361,-0.17508593,0.3402557
1418150344,0.022968361,-0.17508593,0.3402557
1418172830,0.022968361,-0.17508593,0.3402557
1418195270,0.029124642,-0.17508593,0.33109942
1418219265,0.022968361,-0.17508593,0.33720362
1418244808,0.022968361,-0.17805974,0.34330782
1418267305,0.026046501,-0.17508593,0.33720362
1418291271,0.022968361,-0.17508593,0.3402557
1418313262,0.026046501,-0.17508593,0.33720362
1418337384,0.026046501,-0.17805974,0.33109942
1418360534,0.022968361,-0.17805974,0.33720362
1418384526,0.026046501,-0.17508593,0.33720362
1418406313,0.029124642,-0.17805974,0.33415154
1418427264,0.026046501,-0.17805974,0.32804734
1418453610,0.026046501,-0.18103358,0.33415154
1418477590,0.019890219,-0.17805974,0.33720362
1418501662,0.022968361,-0.17805974,0.33109942
1418525187,0.029124642,-0.18103358,0.33109942
1418547044,0.026046501,-0.17805974,0.33720362
1418570234,0.026046501,-0.17805974,0.33720362
1418594422,0.019890219,-0.17805974,0.33720362
1418618117,0.016812079,-0.17805974,0.33720362
1418642313,0.022968361,-0.17805974,0.33720362
1418666145,0.026046501,-0.17805974,0.33720362
1418690263,0.026046501,-0.18103358,0.33720362
1418714133,0.019890219,-0.17805974,0.3402557
1418737335,0.022968361,-0.17805974,0.33415154
1418765336,0.016812079,-0.18103358,0.33720362
1418789618,0.026046501,-0.18103358,0.33720362
1418813353,0.026046501,-0.18103358,0.33109942
1418835308,0.022968361,-0.18103358,0.33415154
1418858795,0.026046501,-0.18103358,0.33109942
1418882251,0.022968361,-0.18103358,0.33415154
1418906952,0.022968361,-0.18103358,0.33720362
1418929787,0.022968361,-0.18103358,0.33720362
1418955015,0.029124642,-0.18103358,0.33720362
1418999744,0.022968361,-0.18103358,0.33109942
1419022086,0.022968361,-0.1840074,0.33720362
1419046432,0.022968361,-0.1840074,0.33109942
1419071353,0.022968361,-0.1840074,0.33415154
1419095717,0.022968361,-0.1840074,0.33415154
1419118934,0.022968361,-0.18698125,0.33720362
1419143264,0.026046501,-0.1840074,0.32499522
1419166224,0.022968361,-0.18698125,0.33109942
1419190800,0.026046501,-0.18698125,0.32804734
1419214507,0.026046501,-0.18698125,0.33109942
1419238460,0.019890219,-0.18698125,0.33415154
1419262252,0.026046501,-0.18698125,0.32499522
1419287329,0.022968361,-0.18698125,0.33109942
1419310497,0.026046501,-0.18698125,0.32804734
1419335904,0.035280924,-0.18995509,0.33109942
1419357293,0.022968361,-0.18698125,0.33109942
1419380403,0.019890219,-0.18698125,0.33415154
1419404135,0.022968361,-0.18995509,0.32499522
1419428014,0.019890219,-0.18995509,0.32804734
1419452020,0.022968361,-0.18995509,0.32804734
1419475480,0.022968361,-0.18995509,0.33109942
1419498792,0.022968361,-0.19292891,0.32499522
1419524137,0.019890219,-0.18995509,0.32499522
1419547733,0.022968361,-0.19292891,0.32499522
1419572138,0.019890219,-0.19292891,0.32499522
1419600640,0.019890219,-0.19292891,0.32499522
1419623851,0.019890219,-0.19292891,0.32499522
1419647084,0.019890219,-0.19292891,0.32804734
1419669257,0.016812079,-0.18995509,0.32804734
1419692560,0.016812079,-0.19292891,0.32499522
1419716711,0.016812079,-0.19292891,0.32499522
1419740025,0.016812079,-0.19292891,0.32499522
1419762261,0.016812079,-0.19292891,0.32499522
1419786257,0.019890219,-0.19292891,0.32499522
1419810273,0.016812079,-0.19590275,0.32499522
1419836029,0.016812079,-0.19590275,0.32499522
1419856550,0.013733937,-0.19590275,0.33415154
1419881308,0.016812079,-0.19292891,0.32804734
1419904649,0.019890219,-0.19590275,0.32194313
1419927794,0.013733937,-0.19590275,0.32804734
1419951709,0.013733937,-0.19292891,0.32804734
1419974270,0.019890219,-0.19292891,0.31889102
1419996899,0.019890219,-0.19292891,0.32804734
1420020935,0.013733937,-0.19292891,0.32804734
1420044990,0.016812079,-0.19590275,0.32804734
1420068814,0.013733937,-0.19590275,0.32499522
1420090270,0.019890219,-0.19590275,0.32499522
1420114259,0.022968361,-0.19590275,0.32194313
1420138265,0.019890219,-0.19590275,0.32804734
1420162258,0.016812079,-0.19590275,0.32499522
1420186258,0.019890219,-0.19590275,0.32499522
1420213192,0.019890219,-0.19590275,0.32499522
1420235255,0.019890219,-0.19590275,0.32499522
1420257261,0.019890219,-0.19590275,0.32499522
1420279253,0.019890219,-0.19590275,0.32499522
1420303271,0.019890219,-0.19590275,0.32804734
1420329387,0.016812079,-0.19590275,0.32499522
1420353382,0.013733937,-0.19590275,0.32804734
1420377195,0.016812079,-0.19590275,0.32499522
1420401460,0.019890219,-0.19590275,0.32499522
1420425220,0.022968361,-0.19590275,0.32194313
1420448542,0.022968361,-0.19887656,0.32804734
1420471260,0.019890219,-0.19887656,0.32804734
1420495253,0.019890219,-0.19590275,0.32194313
1420523908,0.022968361,-0.19590275,0.32194313
1420547272,0.019890219,-0.19590275,0.32804734
1420573657,0.022968361,-0.19590275,0.32804734
1420595259,0.022968361,-0.19590275,0.32499522
1420617495,0.026046501,-0.19887656,0.32194313
1420641366,0.019890219,-0.19590275,0.32499522
1420665305,0.019890219,-0.19590275,0.32499522
1420689380,0.022968361,-0.19887656,0.32499522
1420713315,0.019890219,-0.19590275,0.32499522
1420741291,0.022968361,-0.19887656,0.32499522
1420762272,0.022968361,-0.19887656,0.32499522
1420783268,0.026046501,-0.19590275,0.32499522
1420834177,0.019890219,-0.19590275,0.33109942
1420855271,0.019890219,-0.19590275,0.32499522
1420875253,0.022968361,-0.19590275,0.32499522
1420897878,0.019890219,-0.19590275,0.32499522
1420922221,0.019890219,-0.19590275,0.33109942
1420950781,0.019890219,-0.19590275,0.32804734
1420974955,0.026046501,-0.19887656,0.32499522
1420998927,0.026046501,-0.19590275,0.32194313
1421020646,0.026046501,-0.19590275,0.31889102
1421045612,0.022968361,-0.19590275,0.33109942
1421068273,0.019890219,-0.19590275,0.32804734
1421091334,0.026046501,-0.19590275,0.32194313
1421116127,0.019890219,-0.19292891,0.32499522
1421138926,0.026046501,-0.19292891,0.31889102
1421164022,0.022968361,-0.19590275,0.33109942
1421186449,0.019890219,-0.19292891,0.33720362
1421234741,0.019890219,-0.19292891,0.33415154
1421258483,0.029124642,-0.19590275,0.32499522
1421282832,0.026046501,-0.19292891,0.32804734
1421306483,0.026046501,-0.19292891,0.32499522
1421330441,0.022968361,-0.19292891,0.32499522
1421356266,0.026046501,-0.19292891,0.33415154
1421382118,0.026046501,-0.18995509,0.33109942
1421406114,0.029124642,-0.18995509,0.33109942
1421426767,0.022968361,-0.18995509,0.32804734
1421450956,0.029124642,-0.18995509,0.32804734
1421475108,0.026046501,-0.19292891,0.33109942
1421497175,0.026046501,-0.18995509,0.33109942
1421521259,0.029124642,-0.18995509,0.33109942
1421545269,0.026046501,-0.18995509,0.33109942
1421575230,0.029124642,-0.18995509,0.33109942
1421595259,0.029124642,-0.18995509,0.33109942
1421617259,0.026046501,-0.18995509,0.33720362
1421643264,0.029124642,-0.18995509,0.33109942
1421667870,0.029124642,-0.18995509,0.32499522
1421692050,0.029124642,-0.18995509,0.32804734
1421715251,0.029124642,-0.18995509,0.32804734
1421740338,0.029124642,-0.18995509,0.32804734
1421761301,0.032202784,-0.18995509,0.32499522
1421785260,0.029124642,-0.18995509,0.33109942
1421809260,0.026046501,-0.18995509,0.33109942
1421831902,0.029124642,-0.18995509,0.32804734
1421855801,0.029124642,-0.18698125,0.33109942
1421879484,0.022968361,-0.18995509,0.33415154
1421902253,0.029124642,-0.18995509,0.33415154
1421924589,0.026046501,-0.18995509,0.33109942
1421948826,0.029124642,-0.18995509,0.33415154
1421972517,0.026046501,-0.18698125,0.33109942
1421996918,0.029124642,-0.18698125,0.33109942
1422021426,0.026046501,-0.18698125,0.33109942
1422045319,0.029124642,-0.18698125,0.33720362
1422068661,0.035280924,-0.18698125,0.33109942
1422092700,0.032202784,-0.18698125,0.33109942
1422116540,0.035280924,-0.18698125,0.33109942
1422139605,0.03835907,-0.18995509,0.33109942
1422160645,0.03835907,-0.18698125,0.32804734
1422185502,0.035280924,-0.18698125,0.33109942
1422208641,0.035280924,-0.18995509,0.33109942
1422232621,0.035280924,-0.18698125,0.33415154
1422256657,0.035280924,-0.18995509,0.33109942
1422280284,0.03835907,-0.18995509,0.31889102
1422305206,0.035280924,-0.18995509,0.33109942
1422328149,0.041437205,-0.18995509,0.32194313
1422352655,0.035280924,-0.18995509,0.33109942
1422375253,0.032202784,-0.18995509,0.32499522
1422397761,0.035280924,-0.18995509,0.32499522
1422421539,0.035280924,-0.18995509,0.33415154
1422445329,0.035280924,-0.18995509,0.32804734
1422469233,0.03835907,-0.19292891,0.32499522
1422490261,0.035280924,-0.18995509,0.32499522
1422513378,0.032202784,-0.18995509,0.33415154
1422537508,0.029124642,-0.18995509,0.32804734
1422560699,0.035280924,-0.19292891,0.32499522
1422584280,0.035280924,-0.18995509,0.32804734
1422607295,0.029124642,-0.18995509,0.33109942
1422632562,0.029124642,-0.18995509,0.32499522
1422655261,0.032202784,-0.18995509,0.33109942
1422679257,0.032202784,-0.18995509,0.32499522
1422705622,0.035280924,-0.19292891,0.32499522
1422729491,0.029124642,-0.18995509,0.33109942
1422753446,0.026046501,-0.18698125,0.33109942
1422776966,0.029124642,-0.18698125,0.33109942
1422799258,0.029124642,-0.18698125,0.32804734
1422822531,0.029124642,-0.18995509,0.32499522
1422846948,0.022968361,-0.18995509,0.33415154
1422870587,0.022968361,-0.18995509,0.32804734
1422892651,0.029124642,-0.18995509,0.33415154
1422917679,0.026046501,-0.18995509,0.32804734
1422941609,0.026046501,-0.18995509,0.32804734
1422965637,0.026046501,-0.18698125,0.33109942
1422990440,0.026046501,-0.18995509,0.33415154
1423011270,0.026046501,-0.18995509,0.32804734
1423033284,0.026046501,-0.18995509,0.32804734
1423057379,0.026046501,-0.18995509,0.33109942
1423081515,0.026046501,-0.18698125,0.33109942
1423105307,0.026046501,-0.18995509,0.32804734
1423133873,0.029124642,-0.18698125,0.33109942
1423155261,0.026046501,-0.18995509,0.32804734
1423176912,0.026046501,-0.18698125,0.32804734
1423201281,0.029124642,-0.18995509,0.33109942
1423250096,0.029124642,-0.18995509,0.32804734
1423274096,0.029124642,-0.18995509,0.32499522
1423297765,0.026046501,-0.18698125,0.33109942
1423322314,0.029124642,-0.18995509,0.33109942
1423344261,0.026046501,-0.18995509,0.33720362
1423367315,0.026046501,-0.18995509,0.33109942
1423390440,0.029124642,-0.18698125,0.32499522
1423414402,0.029124642,-0.18995509,0.32804734
1423438475,0.022968361,-0.18995509,0.32499522
1423462773,0.022968361,-0.18698125,0.33109942
1423484260,0.022968361,-0.18698125,0.33109942
1423511177,0.022968361,-0.18698125,0.33109942
1423532263,0.026046501,-0.18698125,0.32804734
1423558335,0.026046501,-0.18995509,0.32804734
1423582440,0.029124642,-0.18698125,0.33109942
1423604271,0.026046501,-0.18698125,0.33415154
1423656391,0.022968361,-0.18995509,0.33720362
1423679492,0.029124642,-0.18995509,0.32499522
1423702802,0.026046501,-0.18995509,0.33415154
1423723922,0.026046501,-0.18995509,0.33109942
1423748638,0.019890219,-0.18698125,0.33415154
1423771901,0.022968361,-0.18698125,0.33109942
1423795486,0.019890219,-0.18698125,0.33415154
1423819837,0.022968361,-0.18698125,0.32804734
1423843204,0.026046501,-0.18995509,0.33109942
1423867869,0.026046501,-0.18698125,0.33109942
1423890884,0.026046501,-0.18698125,0.32499522
1423916017,0.026046501,-0.18995509,0.33109942
1423940013,0.026046501,-0.18995509,0.33109942
1423967244,0.022968361,-0.18995509,0.32804734
1423987391,0.026046501,-0.18995509,0.32804734
1424012122,0.026046501,-0.18698125,0.32499522
1424061646,0.026046501,-0.18995509,0.32499522
1424084821,0.022968361,-0.18698125,0.32804734
1424108926,0.022968361,-0.18995509,0.33109942
1424133761,0.019890219,-0.18995509,0.33109942
1424156928,0.026046501,-0.18995509,0.32499522
1424180690,0.022968361,-0.18995509,0.33109942
1424202257,0.029124642,-0.18995509,0.32499522
1424226258,0.022968361,-0.18995509,0.32804734
1424249258,0.022968361,-0.18995509,0.33109942
1424272638,0.026046501,-0.18995509,0.32804734
1424296114,0.019890219,-0.18995509,0.33109942
1424319698,0.022968361,-0.18995509,0.32804734
1424341630,0.022968361,-0.18995509,0.32804734
1424369429,0.026046501,-0.18995509,0.32804734
1424392280,0.019890219,-0.18995509,0.33415154
1424416421,0.026046501,-0.19292891,0.32804734
1424440643,0.022968361,-0.19292891,0.32804734
1424465201,0.022968361,-0.18995509,0.33109942
1424487941,0.022968361,-0.19292891,0.32499522
1424511553,0.022968361,-0.19292891,0.32499522
1424533549,0.026046501,-0.19292891,0.32499522
1424557005,0.022968361,-0.19292891,0.33109942
1424579263,0.019890219,-0.18995509,0.33109942
1424603271,0.022968361,-0.18995509,0.33109942
1424627259,0.022968361,-0.19292891,0.32804734
1424649426,0.019890219,-0.19292891,0.32804734
1424673445,0.022968361,-0.19292891,0.32499522
1424696413,0.026046501,-0.19292891,0.32499522
1424718295,0.019890219,-0.18995509,0.32499522
1424740952,0.019890219,-0.19292891,0.33109942
1424762339,0.022968361,-0.19292891,0.33109942
1424784518,0.026046501,-0.18995509,0.31889102
1424807253,0.022968361,-0.19590275,0.33109942
1424831257,0.022968361,-0.19292891,0.32499522
1424855257,0.022968361,-0.18995509,0.32194313
1424879258,0.026046501,-0.19292891,0.32499522
1424902152,0.022968361,-0.19292891,0.33109942
1424926079,0.019890219,-0.18995509,0.33415154
1424950354,0.026046501,-0.19292891,0.32804734
1424973686,0.022968361,-0.19292891,0.32194313
1425000968,0.022968361,-0.19292891,0.32499522
1425025290,0.022968361,-0.19292891,0.32804734
1425049382,0.022968361,-0.19590275,0.32804734
1425073280,0.022968361,-0.19292891,0.33109942
1425094793,0.022968361,-0.19292891,0.33109942
1425117918,0.026046501,-0.19292891,0.33109942
1425139284,0.022968361,-0.19292891,0.33109942
1425161280,0.022968361,-0.18995509,0.33109942
1425182253,0.022968361,-0.19292891,0.32499522
1425209296,0.022968361,-0.19292891,0.32499522
1425229317,0.022968361,-0.19292891,0.33109942
1425250269,0.019890219,-0.18995509,0.32499522
1425274249,0.016812079,-0.18995509,0.33109942
1425302408,0.019890219,-0.18995509,0.33109942
1425326587,0.019890219,-0.19292891,0.33109942
1425350791,0.022968361,-0.18995509,0.33109942
1425374912,0.022968361,-0.19292891,0.33109942
1425398921,0.019890219,-0.19292891,0.32499522
1425422458,0.019890219,-0.19292891,0.32804734
1425471300,0.019890219,-0.19292891,0.33109942
1425495359,0.022968361,-0.18995509,0.32499522
1425523252,0.019890219,-0.19292891,0.32804734
1425547036,0.026046501,-0.18995509,0.33109942
1425570723,0.026046501,-0.19292891,0.32499522
1425594590,0.022968361,-0.19292891,0.33415154
1425619037,0.026046501,-0.19292891,0.33109942
1425666924,0.019890219,-0.19292891,0.33109942
1425692117,0.022968361,-0.19292891,0.32804734
1425719583,0.019890219,-0.18995509,0.33109942
1425743820,0.026046501,-0.19292891,0.32499522
1425768138,0.022968361,-0.19292891,0.32804734
1425791098,0.022968361,-0.19292891,0.32804734
1425813270,0.019890219,-0.19292891,0.33415154
1425835836,0.022968361,-0.19292891,0.32804734
1425883936,0.019890219,-0.19292891,0.32804734
1425908141,0.016812079,-0.19292891,0.33109942
1425930792,0.019890219,-0.19292891,0.32804734
1425954957,0.022968361,-0.19292891,0.32804734
1425975717,0.026046501,-0.19292891,0.32804734
1425999845,0.026046501,-0.19292891,0.32804734
1426024941,0.022968361,-0.19292891,0.33109942
1426072143,0.026046501,-0.19590275,0.32499522
1426095240,0.029124642,-0.19292891,0.32804734
1426117168,0.026046501,-0.19292891,0.32499522
1426143970,0.026046501,-0.19590275,0.32804734
1426165258,0.019890219,-0.19292891,0.33109942
1426187389,0.022968361,-0.19292891,0.33720362
1426211780,0.022968361,-0.19292891,0.33109942
1426237461,0.022968361,-0.19292891,0.32804734
1426260161,0.019890219,-0.19292891,0.33109942
1426284641,0.022968361,-0.19292891,0.33720362
1426308632,0.022968361,-0.19292891,0.33109942
1426332142,0.019890219,-0.19292891,0.33109942
1426356647,0.026046501,-0.19292891,0.32499522
1426379593,0.022968361,-0.19292891,0.33415154
1426402270,0.022968361,-0.18995509,0.33109942
1426425205,0.026046501,-0.19292891,0.33109942
1426449244,0.022968361,-0.19292891,0.33109942
1426472855,0.022968361,-0.19292891,0.32499522
1426497211,0.022968361,-0.19292891,0.32499522
1426520528,0.022968361,-0.19590275,0.33109942
1426549439,0.019890219,-0.19292891,0.33109942
1426573228,0.026046501,-0.19590275,0.33415154
1426596311,0.022968361,-0.19292891,0.33109942
1426620540,0.022968361,-0.19590275,0.33109942
1426644852,0.022968361,-0.19590275,0.32499522
1426667128,0.029124642,-0.19292891,0.33109942
1426691258,0.026046501,-0.19292891,0.33415154
1426715351,0.029124642,-0.19590275,0.33109942
1426739260,0.022968361,-0.19292891,0.33720362
1426763259,0.022968361,-0.19292891,0.33109942
1426788523,0.026046501,-0.19292891,0.32804734
1426811261,0.029124642,-0.19590275,0.32499522
1426834931,0.022968361,-0.19292891,0.32804734
1426885665,0.022968361,-0.19292891,0.33109942
1426909655,0.022968361,-0.18995509,0.33415154
1426933446,0.019890219,-0.18995509,0.33109942
1426957490,0.026046501,-0.19292891,0.33720362
1426981443,0.022968361,-0.19292891,0.33415154
1427005208,0.022968361,-0.19292891,0.33415154
1427028539,0.016812079,-0.18995509,0.33720362
1427053265,0.016812079,-0.18995509,0.33415154
1427081602,0.019890219,-0.18995509,0.33720362
1427105587,0.026046501,-0.19292891,0.33720362
1427129613,0.022968361,-0.18995509,0.33415154
1427151347,0.019890219,-0.18995509,0.3402557
1427177498,0.022968361,-0.18995509,0.33720362
1427201622,0.026046501,-0.18995509,0.32804734
1427225563,0.022968361,-0.18995509,0.33415154
1427249724,0.019890219,-0.18995509,0.33415154
1427278191,0.019890219,-0.18995509,0.33720362
1427301287,0.022968361,-0.19292891,0.33720362
1427324915,0.022968361,-0.18995509,0.33720362
1427347257,0.026046501,-0.18995509,0.33109942
1427367268,0.022968361,-0.18995509,0.33720362
1427394195,0.026046501,-0.18995509,0.33415154
1427417618,0.029124642,-0.18995509,0.33109942
1427441673,0.026046501,-0.18995509,0.33720362
1427465402,0.022968361,-0.18995509,0.33720362
1427489605,0.022968361,-0.18995509,0.33415154
1427512260,0.029124642,-0.18995509,0.33720362
1427538383,0.029124642,-0.18995509,0.33415154
1427562676,0.022968361,-0.18995509,0.33415154
1427590970,0.022968361,-0.18995509,0.33415154
1427613726,0.026046501,-0.18995509,0.33415154
1427635264,0.026046501,-0.18995509,0.33109942
1427656260,0.029124642,-0.18995509,0.33109942
1427682416,0.022968361,-0.18995509,0.33720362
1427706414,0.026046501,-0.19292891,0.32804734
1427728254,0.026046501,-0.19292891,0.33415154
1427751259,0.022968361,-0.19292891,0.33720362
1427774140,0.022968361,-0.18995509,0.33415154
1427798791,0.026046501,-0.19292891,0.33415154
1427822261,0.026046501,-0.18995509,0.33720362
1427843689,0.026046501,-0.19292891,0.33720362
1427865253,0.029124642,-0.19292891,0.33415154
1427888260,0.022968361,-0.19590275,0.32499522
1427911285,0.035280924,-0.18995509,0.33109942
1427934904,0.03835907,-0.18995509,0.33109942
1427956284,0.035280924,-0.19292891,0.33109942
1427981303,0.03835907,-0.18995509,0.33720362
1428004727,0.03835907,-0.18995509,0.33109942
1428027968,0.041437205,-0.19292891,0.33415154
1428051084,0.03835907,-0.19292891,0.33415154
1428095769,0.041437205,-0.19292891,0.33109942
1428120012,0.03835907,-0.19292891,0.33109942
1428143755,0.03835907,-0.19292891,0.32804734
1428167878,0.03835907,-0.19292891,0.33720362
1428191926,0.041437205,-0.18995509,0.33109942
1428215755,0.03835907,-0.19292891,0.33415154
1428239822,0.035280924,-0.18995509,0.33415154
1428263483,0.032202784,-0.19292891,0.3402557
1428287749,0.032202784,-0.18995509,0.33415154
1428315899,0.032202784,-0.18995509,0.33415154
1428337338,0.032202784,-0.18995509,0.33415154
1428360410,0.029124642,-0.18995509,0.33720362
1428383730,0.035280924,-0.18995509,0.33109942
1428404778,0.035280924,-0.18995509,0.33109942
1428429358,0.029124642,-0.18995509,0.33720362
1428452934,0.029124642,-0.18995509,0.33415154
1428496932,0.032202784,-0.18995509,0.32804734
1428521444,0.029124642,-0.18698125,0.33415154
1428544618,0.026046501,-0.18995509,0.33415154
1428567650,0.026046501,-0.18995509,0.33720362
1428590257,0.019890219,-0.18995509,0.3402557
1428614280,0.022968361,-0.18995509,0.33720362
1428636401,0.026046501,-0.18995509,0.33109942
1428661201,0.029124642,-0.18995509,0.33109942
1428708308,0.022968361,-0.18995509,0.33720362
1428731256,0.026046501,-0.18995509,0.3402557
1428755266,0.029124642,-0.19292891,0.32804734
1428779271,0.019890219,-0.18995509,0.33415154
1428803272,0.026046501,-0.18995509,0.33720362
1428833161,0.022968361,-0.18995509,0.33415154
1428855258,0.026046501,-0.19292891,0.33415154
1428877256,0.022968361,-0.18995509,0.33720362
1428898259,0.026046501,-0.19292891,0.33109942
1428920477,0.029124642,-0.18995509,0.33109942
1428968290,0.022968361,-0.19292891,0.33109942
1428992533,0.022968361,-0.18995509,0.33109942
1429015272,0.026046501,-0.19292891,0.33415154
1429041379,0.026046501,-0.19292891,0.32804734
1429064389,0.022968361,-0.19292891,0.33720362
1429086253,0.022968361,-0.19292891,0.33109942
1429131272,0.029124642,-0.19292891,0.33720362
1429156448,0.022968361,-0.18995509,0.33109942
1429179257,0.032202784,-0.19292891,0.33109942
1429201305,0.026046501,-0.18995509,0.33109942
1429224927,0.029124642,-0.18995509,0.33109942
1429249532,0.029124642,-0.18995509,0.32804734
1429272913,0.029124642,-0.18995509,0.33109942
1429293442,0.029124642,-0.18995509,0.33720362
1429317592,0.032202784,-0.19292891,0.33109942
1429341574,0.032202784,-0.18995509,0.33109942
1429365986,0.029124642,-0.19292891,0.33109942
1429413648,0.029124642,-0.18995509,0.33720362
1429438307,0.029124642,-0.19292891,0.33720362
1429461900,0.026046501,-0.18995509,0.33720362
1429485405,0.032202784,-0.18995509,0.33415154
1429509597,0.032202784,-0.19292891,0.33109942
1429533704,0.032202784,-0.19292891,0.32804734
1429561633,0.032202784,-0.19292891,0.33415154
1429583340,0.026046501,-0.18995509,0.34330782
1429605998,0.032202784,-0.18995509,0.33720362
1429628259,0.032202784,-0.18995509,0.32499522
1429650170,0.032202784,-0.18995509,0.33415154
1429678684,0.029124642,-0.19292891,0.33415154
1429700263,0.032202784,-0.18995509,0.32804734
1429726969,0.032202784,-0.19292891,0.33109942
1429748260,0.029124642,-0.19292891,0.33109942
1429774173,0.026046501,-0.18995509,0.33415154
1429796253,0.026046501,-0.18995509,0.33720362
1429818154,0.022968361,-0.18995509,0.33415154
1429839598,0.019890219,-0.18698125,0.33415154
1429863363,0.016812079,-0.18995509,0.3402557
1429887329,0.022968361,-0.18995509,0.33415154
1429910421,0.016812079,-0.18995509,0.33415154
1429934687,0.010655797,-0.18995509,0.33415154
1429959592,0.022968361,-0.18995509,0.3402557
1429983809,0.013733937,-0.18995509,0.33109942
1430006435,0.019890219,-0.18995509,0.33109942
1430030448,0.019890219,-0.19292891,0.32804734
1430055153,0.007577656,-0.18995509,0.3402557
1430076294,0.013733937,-0.19292891,0.33109942
1430100488,0.007577656,-0.18995509,0.33109942
1430124132,0.007577656,-0.19292891,0.33720362
1430147493,0.013733937,-0.18995509,0.33109942
1430171937,0.013733937,-0.19292891,0.33415154
1430198531,0.010655797,-0.19292891,0.33415154
1430220555,0.007577656,-0.18995509,0.33109942
1430243510,0.016812079,-0.19292891,0.33109942
1430268313,0.016812079,-0.19292891,0.33109942
1430291848,0.013733937,-0.19292891,0.33109942
1430316400,0.016812079,-0.19590275,0.32804734
1430339510,0.013733937,-0.19590275,0.33109942
1430363795,0.019890219,-0.19590275,0.33109942
1430387499,0.019890219,-0.19590275,0.33109942
1430411522,0.022968361,-0.19590275,0.32804734
1430435991,0.022968361,-0.19590275,0.32499522
1430460125,0.029124642,-0.19590275,0.32499522
1430483983,0.026046501,-0.19887656,0.32499522
1430506257,0.026046501,-0.19590275,0.33109942
1430530258,0.022968361,-0.19590275,0.32499522
1430554257,0.026046501,-0.19590275,0.32499522
1430576289,0.029124642,-0.19887656,0.32804734
1430601475,0.026046501,-0.19887656,0.32499522
1430624154,0.022968361,-0.19590275,0.33109942
1430648836,0.029124642,-0.19590275,0.32499522
1430672849,0.029124642,-0.19590275,0.32194313
1430696515,0.029124642,-0.19887656,0.32499522
1430720646,0.022968361,-0.19590275,0.32499522
1430744124,0.032202784,-0.19590275,0.32804734
1430767348,0.019890219,-0.19590275,0.33415154
1430789344,0.022968361,-0.19292891,0.32804734
1430813353,0.026046501,-0.19292891,0.33109942
1430836939,0.026046501,-0.19292891,0.33109942
1430859971,0.019890219,-0.18995509,0.33109942
1430882264,0.022968361,-0.19292891,0.33720362
1430906260,0.022968361,-0.19292891,0.33109942
1430929423,0.019890219,-0.18995509,0.33109942
1430953409,0.022968361,-0.18995509,0.32804734
1430975272,0.022968361,-0.18995509,0.33415154
1430999268,0.022968361,-0.18995509,0.33415154
1431023256,0.026046501,-0.18995509,0.33415154
1431047257,0.022968361,-0.18995509,0.33415154
1431071275,0.019890219,-0.18698125,0.33415154
1431094495,0.019890219,-0.18995509,0.33720362
1431121385,0.016812079,-0.18995509,0.33415154
1431143271,0.019890219,-0.18995509,0.33415154
1431167260,0.022968361,-0.18995509,0.33109942
1431192289,0.019890219,-0.18995509,0.33109942
1431212835,0.022968361,-0.18995509,0.33109942
1431237364,0.022968361,-0.18995509,0.32804734
1431260861,0.022968361,-0.18995509,0.33109942
1431283260,0.019890219,-0.18995509,0.33415154
1431307317,0.026046501,-0.19292891,0.32804734
1431354334,0.022968361,-0.18698125,0.33415154
1431377352,0.022968361,-0.18995509,0.33109942
1431401715,0.019890219,-0.18698125,0.33720362
1431425911,0.019890219,-0.18698125,0.3402557
1431450303,0.016812079,-0.18698125,0.33720362
1431473442,0.019890219,-0.18698125,0.33720362
1431497601,0.022968361,-0.18698125,0.33109942
1431521201,0.026046501,-0.18698125,0.33109942
1431549515,0.022968361,-0.18698125,0.33109942
1431571262,0.022968361,-0.18698125,0.33720362
1431593396,0.019890219,-0.18698125,0.33415154
1431615257,0.019890219,-0.18698125,0.33720362
1431642517,0.019890219,-0.18698125,0.33415154
1431663390,0.022968361,-0.18698125,0.33720362
1431690027,0.026046501,-0.18698125,0.33415154
1431713186,0.026046501,-0.18698125,0.33109942
1431737580,0.026046501,-0.18995509,0.33109942
1431759315,0.026046501,-0.18698125,0.32804734
1431782916,0.026046501,-0.18698125,0.33720362
1431807489,0.026046501,-0.18698125,0.33109942
1431830921,0.026046501,-0.18995509,0.33720362
1431855333,0.029124642,-0.18995509,0.33109942
1431879324,0.029124642,-0.18698125,0.33109942
1431903227,0.026046501,-0.18995509,0.33415154
1431927545,0.032202784,-0.18995509,0.33109942
1431955833,0.026046501,-0.18995509,0.33109942
1431979123,0.029124642,-0.18995509,0.33109942
1432003030,0.032202784,-0.18995509,0.33109942
1432027041,0.032202784,-0.18995509,0.33109942
1432051128,0.032202784,-0.18698125,0.32499522
1432075130,0.032202784,-0.18995509,0.32804734
1432099033,0.026046501,-0.18995509,0.33109942
1432123221,0.029124642,-0.18995509,0.33109942
1432147316,0.032202784,-0.18995509,0.32804734
1432175357,0.035280924,-0.19292891,0.33109942
1432199093,0.035280924,-0.19292891,0.32804734
1432223326,0.029124642,-0.19292891,0.33720362
1432247598,0.029124642,-0.19590275,0.32194313
1432271597,0.026046501,-0.18698125,0.33415154
1432296138,0.022968361,-0.18698125,0.33415154
1432320135,0.029124642,-0.18698125,0.33720362
1432345181,0.026046501,-0.1840074,0.33720362
1432372655,0.026046501,-0.1840074,0.33415154
1432395752,0.022968361,-0.18103358,0.34330782
1432418965,0.026046501,-0.18103358,0.33415154
1432442893,0.022968361,-0.17805974,0.34330782
1432464018,0.019890219,-0.17508593,0.34330782
1432488094,0.022968361,-0.17508593,0.34330782
1432512291,0.026046501,-0.17508593,0.34330782
1432536141,0.022968361,-0.17211209,0.34330782
1432560163,0.019890219,-0.17211209,0.3463599
1432584939,0.022968361,-0.17508593,0.34330782
1432608820,0.022968361,-0.17211209,0.34330782
1432632152,0.022968361,-0.17211209,0.34330782
1432656647,0.022968361,-0.17508593,0.349412
1432685361,0.026046501,-0.17211209,0.34330782
1432709377,0.026046501,-0.17211209,0.349412
1432733377,0.019890219,-0.16913825,0.34330782
1432756930,0.022968361,-0.16913825,0.349412
1432780510,0.022968361,-0.17211209,0.34330782
1432803796,0.019890219,-0.17508593,0.34330782
1432826259,0.022968361,-0.17508593,0.34330782
1432849086,0.019890219,-0.17508593,0.3402557
1432872860,0.019890219,-0.17508593,0.3463599
1432896549,0.022968361,-0.17805974,0.33720362
1432920176,0.022968361,-0.17805974,0.34330782
1432942257,0.019890219,-0.17805974,0.33720362
1432965359,0.019890219,-0.17805974,0.34330782
1432989213,0.026046501,-0.17805974,0.33720362
1433012832,0.019890219,-0.17805974,0.33720362
1433036906,0.019890219,-0.18103358,0.3402557
1433059283,0.016812079,-0.17805974,0.3402557
1433083270,0.016812079,-0.18103358,0.33720362
1433106272,0.019890219,-0.18103358,0.34330782
1433128552,0.022968361,-0.1840074,0.33109942
1433151260,0.019890219,-0.1840074,0.33720362
1433175260,0.022968361,-0.1840074,0.33415154
1433204617,0.022968361,-0.1840074,0.33109942
1433227269,0.019890219,-0.1840074,0.34330782
1433251273,0.016812079,-0.1840074,0.33720362
1433272537,0.016812079,-0.1840074,0.33720362
1433295256,0.019890219,-0.1840074,0.33720362
1433321397,0.016812079,-0.18698125,0.3402557
1433344489,0.016812079,-0.1840074,0.33720362
1433367257,0.019890219,-0.18698125,0.33720362
1433391306,0.019890219,-0.18698125,0.33415154
1433415268,0.019890219,-0.18698125,0.32194313
1433440506,0.019890219,-0.18698125,0.33415154
1433463272,0.019890219,-0.1840074,0.33720362
1433486129,0.019890219,-0.1840074,0.33720362
1433514786,0.013733937,-0.18995509,0.33415154
1433538252,0.019890219,-0.18698125,0.33720362
1433562161,0.019890219,-0.18698125,0.33720362
1433586149,0.019890219,-0.18698125,0.3402557
1433608945,0.022968361,-0.18698125,0.33109942
1433633333,0.019890219,-0.18698125,0.3402557
1433657443,0.019890219,-0.18995509,0.33109942
1433681282,0.019890219,-0.18698125,0.33720362
1433705381,0.022968361,-0.18698125,0.33720362
1433729508,0.019890219,-0.18698125,0.33720362
1433753498,0.022968361,-0.19292891,0.32804734
1433777297,0.019890219,-0.19292891,0.33109942
1433798886,0.019890219,-0.19292891,0.33109942
1433826240,0.019890219,-0.19590275,0.32499522
1433848934,0.016812079,-0.18995509,0.33720362
1433871271,0.013733937,-0.18995509,0.33415154
1433894260,0.022968361,-0.18995509,0.32804734
1433915256,0.019890219,-0.19292891,0.33109942
1433942165,0.019890219,-0.19292891,0.33415154
1433963255,0.019890219,-0.19292891,0.33109942
