timestamp,ref_timestamp,ref_lat,ref_lon,x,y,z,delta_xy[0],delta_xy[1],delta_z,vx,vy,vz,z_deriv,delta_vxy[0],delta_vxy[1],delta_vz,ax,ay,az,yaw,ref_alt,dist_bottom,dist_bottom_rate,eph,epv,evh,evv,vxy_max,vz_max,hagl_min,hagl_max,xy_valid,z_valid,v_xy_valid,v_z_valid,xy_reset_counter,z_reset_counter,vxy_reset_counter,vz_reset_counter,xy_global,z_global,dist_bottom_valid
1399093552,0,0.0,0.0,0.010654281,0.1156867,-1.3110232,0.02383122,0.010340691,0.0,-0.0069400095,-0.00836,-0.0073493053,-0.004588739,0.05572702,-0.0678173,0.0,0.2815942,-0.8405918,1.404262,-0.07179629,0.0,1.4080127,0.0073493053,0.05008883,0.047389492,0.11309792,0.06694507,inf,inf,0.3,3.75,1,1,1,1,77,0,75,75,0,0,1
1401293429,0,0.0,0.0,-0.0020349901,0.1542272,-1.3442975,0.020823196,0.007518366,0.0,0.013277713,0.013427511,0.0013437553,-0.007652928,0.007006135,-0.05014183,0.0,-0.69447565,0.31495866,-0.14506018,-0.0117621925,0.0,1.4470005,-0.0013437553,0.050912123,0.04866301,0.121843874,0.06788975,inf,inf,0.3,3.75,1,1,1,1,79,0,77,77,0,0,1
1402279176,0,0.0,0.0,-0.00695725,0.17427757,-1.3491899,0.020823196,0.007518366,0.0,0.006444428,0.002933973,0.004515179,-0.003148226,0.007006135,-0.05014183,0.0,-0.099774376,-0.29250595,0.586061,-0.016760668,0.0,1.4532175,-0.004515179,0.047680374,0.045472536,0.091635756,0.06618505,inf,inf,0.3,3.75,1,1,1,1,79,0,77,77,0,0,1
1402483184,0,0.0,0.0,-0.004574368,0.17561142,-1.3506635,0.020823196,0.007518366,0.0,0.01239249,-0.012282543,0.002571909,-0.005300884,0.007006135,-0.05014183,0.0,0.79276276,0.3927406,-0.40901735,-0.01558095,0.0,1.4548641,-0.002571909,0.046300355,0.045518696,0.09034503,0.066136606,inf,inf,0.3,3.75,1,1,1,1,79,0,77,77,0,0,1
1402584035,0,0.0,0.0,-0.0018214107,0.17137747,-1.3514025,0.020823196,0.007518366,0.0,0.017589498,-0.026001083,0.009196543,0.0011352319,0.007006135,-0.05014183,0.0,1.4294227,-0.19337091,2.8498394,-0.013329823,0.0,1.4564908,-0.009196543,0.046460643,0.04515554,0.09028633,0.0658161,inf,inf,0.3,3.75,1,1,1,1,79,0,77,77,0,0,1
1402684014,0,0.0,0.0,0.0006771386,0.16557238,-1.3522378,0.020823196,0.007518366,0.0,0.015555806,-0.03299404,0.0037523601,-0.004673507,0.007006135,-0.05014183,0.0,-0.58324206,-0.75171393,-0.77389556,-0.010770787,0.0,1.458692,-0.0037523601,0.047134075,0.04519489,0.09075217,0.0658252,inf,inf,0.3,3.75,1,1,1,1,79,0,77,77,0,0,1
1402888009,0,0.0,0.0,0.0010733489,0.1552389,-1.3539817,0.020823196,0.007518366,0.0,0.00981923,-0.030346578,0.0064878184,-0.0027034176,0.007006135,-0.05014183,0.0,0.006977035,0.14961445,-0.000530917,-0.009465913,0.0,1.4643319,-0.0064878184,0.045444332,0.044817034,0.08845345,0.065464295,inf,inf,0.3,3.75,1,1,1,1,79,0,77,77,0,0,1
1403088625,0,0.0,0.0,0.003090297,0.14754713,-1.3563617,0.020823196,0.007518366,0.0,0.006436099,-0.016766658,0.0072648283,-0.0032446864,0.007006135,-0.05014183,0.0,0.08990398,0.10410293,-0.26287237,-0.011406688,0.0,1.4598691,-0.0072648283,0.04640957,0.04443717,0.08903055,0.065120086,inf,inf,0.3,3.75,1,1,1,1,79,0,77,77,0,0,1
1403292616,0,0.0,0.0,0.009579515,0.1462646,-1.3577539,0.020823196,0.007518366,0.0,0.010449831,-0.0014326355,0.0068424367,-0.003973328,0.007006135,-0.05014183,0.0,-0.793581,0.72366065,-1.2002066,-0.013955804,0.0,1.460443,-0.0068424367,0.050466668,0.04444914,0.09195113,0.065115824,inf,inf,0.3,3.75,1,1,1,1,79,0,77,77,0,0,1
1403392772,0,0.0,0.0,0.012813403,0.14602527,-1.3580984,0.020823196,0.007518366,0.0,0.012215004,0.002528945,0.00862839,-0.00207925,0.007006135,-0.05014183,0.0,0.31802076,0.40105823,-0.15812159,-0.014738568,0.0,1.4624373,-0.00862839,0.049362693,0.044072375,0.0896714,0.06480438,inf,inf,0.3,3.75,1,1,1,1,79,0,77,77,0,0,1
1403497582,0,0.0,0.0,0.01609866,0.14518155,-1.3586361,0.020823196,0.007518366,0.0,0.007133537,0.0037823825,0.004923346,-0.005731021,0.007006135,-0.05014183,0.0,-1.1148256,1.0327258,-1.1548196,-0.015659275,0.0,1.4610742,-0.004923346,0.049104225,0.044063367,0.08892615,0.06479007,inf,inf,0.3,3.75,1,1,1,1,79,0,77,77,0,0,1
1403597616,0,0.0,0.0,0.019172536,0.1450855,-1.3587428,0.020823196,0.007518366,0.0,0.0063763354,0.0058010053,0.008059771,-0.0023567006,0.007006135,-0.05014183,0.0,0.13243833,0.2721828,-0.67702216,-0.016717449,0.0,1.4627573,-0.008059771,0.04905153,0.04408486,0.08858376,0.06481957,inf,inf,0.3,3.75,1,1,1,1,79,0,77,77,0,0,1
1403697603,0,0.0,0.0,0.021413682,0.14452654,-1.3590034,0.020823196,0.007518366,0.0,0.0043204776,0.0047745034,0.009317813,-0.0009485185,0.007006135,-0.05014183,0.0,0.6891386,-0.4001968,1.1510705,-0.018453486,0.0,1.463018,-0.009317813,0.048603736,0.048693262,0.087927155,0.06827459,inf,inf,0.3,3.75,1,1,1,1,79,0,77,77,0,0,1
1403902387,0,0.0,0.0,0.01949259,0.14177454,-1.3595008,0.020823196,0.007518366,0.0,-0.006211495,0.0061553246,0.0105627775,0.0005374948,0.007006135,-0.05014183,0.0,0.6856027,0.19566141,0.28690782,-0.02265138,0.0,1.4640399,-0.0105627775,0.046572845,0.048667718,0.0860064,0.06824677,inf,inf,0.3,3.75,1,1,1,1,79,0,77,77,0,0,1
1404002382,0,0.0,0.0,0.014334847,0.14082757,-1.3600955,0.020823196,0.007518366,0.0,-0.016546998,0.006134129,0.0059617194,-0.0043994724,0.007006135,-0.05014183,0.0,-1.0097823,-0.25167963,-0.11996186,-0.024540637,0.0,1.4676962,-0.0059617194,0.046591964,0.048297122,0.08592049,0.06800259,inf,inf,0.3,3.75,1,1,1,1,79,0,77,77,0,0,1
1404106222,0,0.0,0.0,0.007369683,0.14033134,-1.3609015,0.020823196,0.007518366,0.0,-0.021046318,0.008690838,0.007499603,-0.0031924583,0.007006135,-0.05014183,0.0,-0.39739382,0.33111337,-0.15605685,-0.025912182,0.0,1.466925,-0.007499603,0.047040787,0.048281636,0.08612216,0.06798557,inf,inf,0.3,3.75,1,1,1,1,79,0,77,77,0,0,1
1404307211,0,0.0,0.0,-0.007050981,0.13836966,-1.3625379,0.020823196,0.007518366,0.0,-0.02419696,0.010968759,0.010631508,-0.0008673716,0.007006135,-0.05014183,0.0,0.15678394,0.41612104,-0.24041878,-0.028183416,0.0,1.4668393,-0.010631508,0.04525394,0.047861606,0.08435153,0.067677885,inf,inf,0.3,3.75,1,1,1,1,79,0,77,77,0,0,1
1404511237,0,0.0,0.0,-0.01934332,0.13987605,-1.3631703,0.020823196,0.007518366,0.0,-0.01958792,0.0144203985,0.008825406,-0.0026525073,0.007006135,-0.05014183,0.0,0.01539048,0.5910303,-0.48467088,-0.031519767,0.0,1.4690242,-0.008825406,0.046471298,0.047879443,0.085142925,0.06770226,inf,inf,0.3,3.75,1,1,1,1,79,0,77,77,0,0,1
1404611181,0,0.0,0.0,-0.023685047,0.14293642,-1.363709,0.020823196,0.007518366,0.0,-0.013821103,0.019166745,0.006738823,-0.005000883,0.007006135,-0.05014183,0.0,-0.074408464,0.99355626,-2.3274403,-0.032210294,0.0,1.4707247,-0.006738823,0.046561237,0.047473166,0.0848145,0.06740387,inf,inf,0.3,3.75,1,1,1,1,79,0,77,77,0,0,1
1404715236,0,0.0,0.0,-0.026247073,0.14736702,-1.3643963,0.020823196,0.007518366,0.0,-0.0044162017,0.015178017,0.010306417,-0.0017710702,0.007006135,-0.05014183,0.0,-0.14054418,-0.2340292,0.40737778,-0.033193942,0.0,1.4711742,-0.010306417,0.04475129,0.047464367,0.082948565,0.06739324,inf,inf,0.3,3.75,1,1,1,1,79,0,77,77,0,0,1
1404915970,0,0.0,0.0,-0.027590558,0.15458761,-1.3657509,0.020823196,0.007518366,0.0,0.012034113,0.010837597,0.011661822,-0.0010324924,0.007006135,-0.05014183,0.0,0.06360274,0.5311821,0.521843,-0.034085486,0.0,1.4733895,-0.011661822,0.045602586,0.04709905,0.08345252,0.06714083,inf,inf,0.3,3.75,1,1,1,1,79,0,77,77,0,0,1
1405120012,0,0.0,0.0,-0.032564986,0.1530864,-1.3669825,0.020823196,0.007518366,0.0,0.01496195,-0.008456603,0.016885705,0.0035253235,0.007006135,-0.05014183,0.0,0.19668363,0.02909652,1.11006,-0.03272524,0.0,1.4721463,-0.016885705,0.046737757,0.04707733,0.08395144,0.06711188,inf,inf,0.3,3.75,1,1,1,1,79,0,77,77,0,0,1
1405324803,0,0.0,0.0,-0.04122175,0.14959121,-1.3680416,0.020823196,0.007518366,0.0,0.017409923,-0.017187025,0.010080183,-0.0036321734,0.007006135,-0.05014183,0.0,-0.48778278,0.11136887,-1.2559165,-0.03047739,0.0,1.4746554,-0.010080183,0.04507899,0.046674438,0.08220421,0.06680608,inf,inf,0.3,3.75,1,1,1,1,79,0,77,77,0,0,1
1405524864,0,0.0,0.0,-0.047542,0.1516121,-1.3691336,0.020823196,0.007518366,0.0,0.02898187,-0.008153079,0.013725367,-5.208468e-05,0.007006135,-0.05014183,0.0,0.5380112,0.52012295,0.8004149,-0.030712128,0.0,1.4739885,-0.013725367,0.046604663,0.046304345,0.08536562,0.06653747,inf,inf,0.3,3.75,1,1,1,1,79,0,77,77,0,0,1
1405729897,0,0.0,0.0,-0.044519514,0.1572659,-1.3692113,0.020823196,0.007518366,0.0,0.04224357,-0.006051093,0.0095934775,-0.0034891893,0.007006135,-0.05014183,0.0,-0.64641225,1.0238702,-1.6968193,-0.026353275,0.0,1.4699292,-0.0095934775,0.045459077,0.046289295,0.08418208,0.06651692,inf,inf,0.3,3.75,1,1,1,1,79,0,77,77,0,0,1
1405933422,0,0.0,0.0,-0.030884832,0.15982448,-1.3682162,0.020823196,0.007518366,0.0,0.056647234,-0.012901933,0.016454795,0.0047843982,0.007006135,-0.05014183,0.0,-0.23195322,0.19854948,0.56249636,-0.020750215,0.0,1.4723389,-0.016454795,0.051571056,0.04610727,0.088933714,0.06632149,inf,inf,0.3,3.75,1,1,1,1,79,0,77,77,0,0,1
1406033580,0,0.0,0.0,-0.023046436,0.15855004,-1.3675995,0.020823196,0.007518366,0.0,0.06030852,-0.019595247,0.013443755,0.0022475468,0.007006135,-0.05014183,0.0,0.63548464,0.032882232,-0.035977054,-0.018502058,0.0,1.4704239,-0.013443755,0.050316073,0.045755,0.08684883,0.066080466,inf,inf,0.3,3.75,1,1,1,1,79,0,77,77,0,0,1
1406134266,0,0.0,0.0,-0.013866147,0.15542766,-1.3671068,0.020823196,0.007518366,0.0,0.059381947,-0.023143994,0.011177906,0.0005119592,0.007006135,-0.05014183,0.0,0.7646519,0.50581986,0.07769738,-0.017053049,0.0,1.469921,-0.011177906,0.047143612,0.04577971,0.08389618,0.066116676,inf,inf,0.3,3.75,1,1,1,1,79,0,77,77,0,0,1
1406338253,0,0.0,0.0,0.0020196345,0.14786854,-1.3662179,0.020823196,0.007518366,0.0,0.046909615,-0.024080705,0.013504562,0.0033262034,0.007006135,-0.05014183,0.0,0.20436858,0.6078558,0.3440724,-0.01610393,0.0,1.4756502,-0.013504562,0.046894085,0.045464974,0.083911836,0.065904975,inf,inf,0.3,3.75,1,1,1,1,79,0,77,77,0,0,1
1406438383,0,0.0,0.0,0.0059792898,0.14457147,-1.3664273,0.020823196,0.007518366,0.0,0.030357782,-0.021812594,0.0047039036,-0.0056547187,0.007006135,-0.05014183,0.0,-1.1560311,0.22676088,-2.1973073,-0.01681355,0.0,1.4697412,-0.0047039036,0.047266107,0.04547514,0.08470318,0.06591154,inf,inf,0.3,3.75,1,1,1,1,79,0,77,77,0,0,1
1406539497,0,0.0,0.0,0.007454657,0.14107296,-1.3663623,0.020823196,0.007518366,0.0,0.0180782,-0.020058027,0.010897397,0.00063121534,0.007006135,-0.05014183,0.0,-0.9112316,-0.5325352,-0.07856271,-0.017493637,0.0,1.4693425,-0.010897397,0.050496455,0.045483395,0.08786779,0.06591469,inf,inf,0.3,3.75,1,1,1,1,79,0,77,77,0,0,1
1406743177,0,0.0,0.0,0.0078311935,0.13236909,-1.3653553,0.020823196,0.007518366,0.0,0.0015087116,-0.01596766,0.0070595173,-0.0021953685,0.007006135,-0.05014183,0.0,-0.89569646,0.34444714,-1.5351889,-0.017502766,0.0,1.4651582,-0.0070595173,0.048459925,0.04492622,0.08499182,0.06541058,inf,inf,0.3,3.75,1,1,1,1,79,0,77,77,0,0,1
1406947268,0,0.0,0.0,0.0103628505,0.12212507,-1.3642889,0.020823196,0.007518366,0.0,-0.0009842633,-0.011094004,0.007905798,-0.00042119657,0.007006135,-0.05014183,0.0,-0.8223591,-0.11817709,-0.71441376,-0.018891381,0.0,1.4660974,-0.007905798,0.048434015,0.044860173,0.085502945,0.06534011,inf,inf,0.3,3.75,1,1,1,1,79,0,77,77,0,0,1
1407048006,0,0.0,0.0,0.013800991,0.11868731,-1.3639582,0.020823196,0.007518366,0.0,-0.0006158353,-0.0016774088,0.008181598,0.00012917211,0.007006135,-0.05014183,0.0,-0.5960382,1.3105601,-1.113607,-0.019711977,0.0,1.4706814,-0.008181598,0.048219714,0.044464897,0.08552114,0.065030955,inf,inf,0.3,3.75,1,1,1,1,79,0,77,77,0,0,1
1407152018,0,0.0,0.0,0.018606601,0.11618149,-1.3639,0.020823196,0.007518366,0.0,0.00039636774,-0.0018099124,0.010075132,0.0018869475,0.007006135,-0.05014183,0.0,-0.3626398,-0.482456,0.27399874,-0.019551888,0.0,1.4677626,-0.010075132,0.0460055,0.044473045,0.08389103,0.065061875,inf,inf,0.3,3.75,1,1,1,1,79,0,77,77,0,0,1
1407351817,0,0.0,0.0,0.023362862,0.11624369,-1.363434,0.020823196,0.007518366,0.0,-0.0052725505,0.012205024,0.010752148,0.0030495424,0.007006135,-0.05014183,0.0,0.5415807,0.090406336,0.2448763,-0.018216413,0.0,1.4620289,-0.010752148,0.046470206,0.044066135,0.08433177,0.064749576,inf,inf,0.3,3.75,1,1,1,1,79,0,77,77,0,0,1
1407452783,0,0.0,0.0,0.023752948,0.116503954,-1.362945,0.020823196,0.007518366,0.0,-0.011068911,0.018379051,0.010263722,0.003079229,0.007006135,-0.05014183,0.0,0.7705997,0.32714692,0.37238365,-0.017167768,0.0,1.4733528,-0.010263722,0.047089316,0.044123027,0.085026406,0.06484829,inf,inf,0.3,3.75,1,1,1,1,79,0,77,77,0,0,1
1407556622,0,0.0,0.0,0.024079692,0.116891906,-1.3630012,0.020823196,0.007518366,0.0,-0.014106981,0.019913446,0.013720152,0.0062083136,0.007006135,-0.05014183,0.0,0.7624018,-0.5307464,1.4851904,-0.016777337,0.0,1.4625487,-0.013720152,0.045289997,0.04421122,0.08349439,0.064970076,inf,inf,0.3,3.75,1,1,1,1,79,0,77,77,0,0,1
1407760786,0,0.0,0.0,0.025012001,0.11832981,-1.3619192,0.020823196,0.007518366,0.0,-0.019479131,0.02527133,0.013078965,0.0063655977,0.007006135,-0.05014183,0.0,0.292047,-0.5939622,1.9279548,-0.017194629,0.0,1.4614667,-0.013078965,0.04663896,0.054348662,0.08586628,0.07202927,inf,inf,0.3,3.75,1,1,1,1,79,0,77,77,0,0,1
1407860820,0,0.0,0.0,0.023888072,0.1202276,-1.3611171,0.020823196,0.007518366,0.0,-0.020149525,0.02567532,0.011392765,0.005252221,0.007006135,-0.05014183,0.0,0.4385288,-0.94673145,1.6055105,-0.016879825,0.0,1.4615979,-0.011392765,0.04790657,0.0516599,0.08797233,0.06893907,inf,inf,0.3,3.75,1,1,1,1,79,0,77,77,0,0,1
1407961461,0,0.0,0.0,-0.002557928,0.12756225,-1.3605163,-0.029491186,0.005157687,0.0,-0.021217389,0.03795669,0.012724128,0.0070809834,0.004795011,0.012871807,0.0,-1.0811131,0.6133912,-0.7388098,-0.016374726,0.0,1.4609971,-0.012724128,0.10071578,0.05677505,0.30005756,0.072259255,inf,inf,0.3,3.75,1,1,1,1,80,0,78,78,0,0,1
1408065641,0,0.0,0.0,0.003455082,0.12720105,-1.3601477,-0.029491186,0.005157687,0.0,-0.017340556,0.025870452,0.0102043925,0.0046085445,0.004795011,0.012871807,0.0,0.50921845,-0.8773004,2.3248394,-0.016504418,0.0,1.4636364,-0.0102043925,0.06642683,0.054562937,0.23028493,0.07046328,inf,inf,0.3,3.75,1,1,1,1,80,0,78,78,0,0,1
1408165487,0,0.0,0.0,-2.129611e-05,0.12731548,-1.3593988,-0.029491186,0.005157687,0.0,-0.01649694,0.01737122,0.0099581005,0.0046659834,0.004795011,0.012871807,0.0,0.21411414,0.31083733,0.3534664,-0.017183404,0.0,1.4598612,-0.0099581005,0.06035701,0.0528773,0.19019654,0.06934644,inf,inf,0.3,3.75,1,1,1,1,80,0,78,78,0,0,1
1408265576,0,0.0,0.0,-0.002296251,0.12832947,-1.3589765,-0.029491186,0.005157687,0.0,-0.017528238,0.011944549,0.005057281,-0.00022502721,0.004795011,0.012871807,0.0,0.3917552,-0.11655371,-0.31349373,-0.018603988,0.0,1.4619553,-0.005057281,0.056801442,0.05121803,0.16133238,0.068421975,inf,inf,0.3,3.75,1,1,1,1,80,0,78,78,0,0,1
1408366405,0,0.0,0.0,-0.0034315335,0.13038208,-1.3586239,-0.029491186,0.005157687,0.0,-0.014845435,0.007420196,0.0029498737,-0.0021164983,0.004795011,0.012871807,0.0,0.34904388,0.023881013,-0.51167905,-0.020297213,0.0,1.4616027,-0.0029498737,0.057648677,0.0566421,0.15514372,0.0720292,inf,inf,0.3,3.75,1,1,1,1,80,0,78,78,0,0,1
1408470385,0,0.0,0.0,0.0018169031,0.1339287,-1.3587168,0.0067369984,0.0025008172,0.0,-0.008606723,-0.0053703194,0.006242586,0.0011112294,0.0026964117,-0.0137446495,0.0,0.72925353,-0.24434654,0.08996382,-0.021351624,0.0,1.4645314,-0.006242586,0.100107536,0.054295164,0.23234384,0.07029182,inf,inf,0.3,3.75,1,1,1,1,81,0,79,79,0,0,1
1408570445,0,0.0,0.0,-0.0018566652,0.13051516,-1.3599503,0.0067369984,0.0025008172,0.0,-0.00864387,-0.005392327,0.010373134,0.0044275024,0.0026964117,-0.0137446495,0.0,0.3296978,-0.3951316,1.0330806,-0.021912763,0.0,1.4712191,-0.010373134,0.07203112,0.052133817,0.19184192,0.06895012,inf,inf,0.3,3.75,1,1,1,1,81,0,79,79,0,0,1
1408674675,0,0.0,0.0,-0.0038165257,0.12910342,-1.3608519,0.0067369984,0.0025008172,0.0,-0.0054444578,-0.009136134,0.0091014365,0.0019694322,0.0026964117,-0.0137446495,0.0,0.8863868,-0.5100689,0.0634016,-0.02260973,0.0,1.464571,-0.0091014365,0.061701708,0.050846066,0.16706325,0.06835082,inf,inf,0.3,3.75,1,1,1,1,81,0,79,79,0,0,1
1408775048,0,0.0,0.0,-0.0065678256,0.12563044,-1.361172,0.0067369984,0.0025008172,0.0,-0.006682297,-0.024264218,0.0075506885,7.873168e-05,0.0026964117,-0.0137446495,0.0,0.58318,-0.5975649,1.2390982,-0.022338485,0.0,1.4606869,-0.0075506885,0.057167504,0.04990001,0.14944226,0.06804289,inf,inf,0.3,3.75,1,1,1,1,81,0,79,79,0,0,1
1408875183,0,0.0,0.0,-0.009884513,0.12004712,-1.3613695,0.0067369984,0.0025008172,0.0,-0.013214915,-0.0467139,0.008532332,0.001029955,0.0026964117,-0.0137446495,0.0,-1.0363497,-0.9545405,0.42576766,-0.021254255,0.0,1.4624611,-0.008532332,0.054780282,0.049057923,0.13423206,0.06776441,inf,inf,0.3,3.75,1,1,1,1,81,0,79,79,0,0,1
1408979178,0,0.0,0.0,-0.010905964,0.11306638,-1.361242,0.0067369984,0.0025008172,0.0,-0.008109711,-0.0706016,0.007089794,-0.00011934253,0.0026964117,-0.0137446495,0.0,0.261557,-0.2719323,0.45762947,-0.019925259,0.0,1.4609638,-0.007089794,0.05039973,0.0485186,0.1199808,0.06767665,inf,inf,0.3,3.75,1,1,1,1,81,0,79,79,0,0,1
1409083380,0,0.0,0.0,-0.010859772,0.10413923,-1.360693,0.0067369984,0.0025008172,0.0,-0.003781813,-0.0931902,0.006642028,3.7081194e-05,0.0026964117,-0.0137446495,0.0,0.76854205,-0.32462656,-0.5341042,-0.018942785,0.0,1.4593855,-0.006642028,0.050424006,0.04813619,0.11203996,0.06766305,inf,inf,0.3,3.75,1,1,1,1,81,0,79,79,0,0,1
1409183039,0,0.0,0.0,-0.009460802,0.09421927,-1.3609121,0.0067369984,0.0025008172,0.0,-0.0011906803,-0.10672445,0.004352945,-0.0024507288,0.0026964117,-0.0137446495,0.0,-0.44349876,0.14805478,-0.5372661,-0.018462885,0.0,1.4701492,-0.004352945,0.049855094,0.047486357,0.104620956,0.067401215,inf,inf,0.3,3.75,1,1,1,1,81,0,79,79,0,0,1
1409284004,0,0.0,0.0,-0.009823824,0.08354013,-1.3613713,0.0067369984,0.0025008172,0.0,-0.0031114798,-0.115721904,0.0040671155,-0.002948411,0.0026964117,-0.0137446495,0.0,-1.631195,-0.4032953,-1.085076,-0.018435251,0.0,1.4645612,-0.0040671155,0.050091162,0.04731053,0.09975746,0.06743598,inf,inf,0.3,3.75,1,1,1,1,81,0,79,79,0,0,1
1409387997,0,0.0,0.0,-0.012781644,0.07177788,-1.3612626,0.0067369984,0.0025008172,0.0,-0.004655232,-0.118287295,0.010237886,0.0033286132,0.0026964117,-0.0137446495,0.0,-0.6922838,-0.09612875,0.12745889,-0.020327395,0.0,1.4644525,-0.010237886,0.04834708,0.052641008,0.09685219,0.071124956,inf,inf,0.3,3.75,1,1,1,1,81,0,79,79,0,0,1
1409587987,0,0.0,0.0,-0.020606762,0.04608334,-1.3611307,-0.017516667,-0.0009480044,0.0,0.021387922,-0.12667368,0.009850916,0.0049350644,0.045698855,-0.021948218,0.0,0.47922418,0.9704527,-1.0469184,-0.028799722,0.0,1.4656366,-0.009850916,0.082789145,0.049795426,0.20607659,0.06849567,inf,inf,0.3,3.75,1,1,1,1,82,0,80,80,0,0,1
1409692822,0,0.0,0.0,-0.02009285,0.03537354,-1.3606354,-0.017516667,-0.0009480044,0.0,0.023172742,-0.12854208,0.008757765,0.00352016,0.045698855,-0.021948218,0.0,0.4065871,-1.0010912,1.6786184,-0.034600932,0.0,1.4604182,-0.008757765,0.06681701,0.048974574,0.17665122,0.06788643,inf,inf,0.3,3.75,1,1,1,1,82,0,80,80,0,0,1
1409792825,0,0.0,0.0,-0.018171819,0.026492504,-1.3601301,-0.017516667,-0.0009480044,0.0,0.024938311,-0.12772991,0.00815253,0.0027831239,0.045698855,-0.021948218,0.0,-0.7740148,-0.30490386,-0.2955478,-0.03955811,0.0,1.4613447,-0.00815253,0.060075343,0.04818764,0.15744272,0.06735379,inf,inf,0.3,3.75,1,1,1,1,82,0,80,80,0,0,1
1409892769,0,0.0,0.0,-0.013810637,0.016505819,-1.359556,-0.017516667,-0.0009480044,0.0,0.029767228,-0.12821132,0.005892962,0.00059881184,0.045698855,-0.021948218,0.0,-0.55277216,-0.4937205,0.21853663,-0.043207474,0.0,1.4596767,-0.005892962,0.053793505,0.047357425,0.15087254,0.06687895,inf,inf,0.3,3.75,1,1,1,1,82,0,80,80,0,0,1
1410096814,0,0.0,0.0,-0.006835529,-0.008198224,-1.3589221,-0.017516667,-0.0009480044,0.0,0.023150638,-0.12940863,0.0041799345,-0.0011078188,0.045698855,-0.021948218,0.0,0.18714543,0.878596,-0.33021256,-0.0487387,0.0,1.4592435,-0.0041799345,0.052653093,0.0467813,0.12306006,0.066734046,inf,inf,0.3,3.75,1,1,1,1,82,0,80,80,0,0,1
1410197614,0,0.0,0.0,-0.0068140626,-0.022613246,-1.3585174,-0.017516667,-0.0009480044,0.0,0.013435553,-0.13459429,0.0033626335,-0.0016783706,0.045698855,-0.021948218,0.0,-0.7438151,-0.19378008,-0.7823029,-0.051054254,0.0,1.4588388,-0.0033626335,0.052039977,0.051577985,0.11415722,0.0701219,inf,inf,0.3,3.75,1,1,1,1,82,0,80,80,0,0,1
1410301619,0,0.0,0.0,-0.009701263,-0.037587196,-1.3578475,-0.017516667,-0.0009480044,0.0,0.0073988703,-0.13904843,0.005555392,0.0010847241,0.045698855,-0.021948218,0.0,-0.20029956,-0.7072844,0.24503043,-0.05311469,0.0,1.4550484,-0.005555392,0.050045177,0.05020784,0.10834972,0.06870129,inf,inf,0.3,3.75,1,1,1,1,82,0,80,80,0,0,1
1410401618,0,0.0,0.0,-0.011888696,-0.047908895,-1.3576559,-0.014315713,0.0049874093,0.0,0.07099022,-0.13268612,0.017708598,0.016051218,0.1065445,0.01945202,0.0,0.980247,0.11884247,1.1007947,-0.054685783,0.0,1.4548569,-0.017708598,0.082627974,0.055692986,0.23861349,0.07230002,inf,inf,0.3,3.75,1,1,1,1,83,0,81,81,0,0,1
1410502385,0,0.0,0.0,-0.010906393,-0.06396627,-1.3554958,-0.014315713,0.0049874093,0.0,0.04927551,-0.13925429,0.010494564,0.009471233,0.1065445,0.01945202,0.0,0.38317677,-0.8220471,-0.3652527,-0.055067364,0.0,1.4542245,-0.010494564,0.067738265,0.052627698,0.2351247,0.06948001,inf,inf,0.3,3.75,1,1,1,1,83,0,81,81,0,0,1
1410606439,0,0.0,0.0,-0.029516585,-0.07849165,-1.354374,-0.018722076,0.0012440793,0.0,-0.03358328,-0.13733499,0.009718714,0.011582185,-0.107561216,0.008632615,0.0,-0.9587212,-0.8816212,-1.9192779,-0.053734664,0.0,1.4552363,-0.009718714,0.082839526,0.0506934,0.22893365,0.067931496,inf,inf,0.3,3.75,1,1,1,1,84,0,82,82,0,0,1
1410706441,0,0.0,0.0,-0.040258516,-0.096541286,-1.3535393,-0.018722076,0.0012440793,0.0,-0.019879363,-0.14470097,0.006793386,0.00873369,-0.107561216,0.008632615,0.0,0.07790663,0.1599091,0.827466,-0.050786205,0.0,1.4547985,-0.006793386,0.06734269,0.04927438,0.18687133,0.06704802,inf,inf,0.3,3.75,1,1,1,1,84,0,82,82,0,0,1
1410806386,0,0.0,0.0,-0.053395804,-0.11478527,-1.3522679,-0.018722076,0.0012440793,0.0,-0.02518477,-0.15310436,0.0035263288,0.0043181777,-0.107561216,0.008632615,0.0,-0.6546222,-0.49277887,-0.8039661,-0.047127347,0.0,1.4546237,-0.0035263288,0.060679905,0.047809,0.16540843,0.0662347,inf,inf,0.3,3.75,1,1,1,1,84,0,82,82,0,0,1
1410911223,0,0.0,0.0,-0.06492065,-0.13192219,-1.3514507,-0.018722076,0.0012440793,0.0,-0.02614401,-0.15044346,0.003340872,0.0027578757,-0.107561216,0.008632615,0.0,0.23015787,-0.24494988,-0.9489123,-0.044498026,0.0,1.4612757,-0.003340872,0.05359392,0.0469976,0.14337538,0.06596453,inf,inf,0.3,3.75,1,1,1,1,84,0,82,82,0,0,1
1411111232,0,0.0,0.0,-0.08165594,-0.1622871,-1.3514103,-0.018722076,0.0012440793,0.0,-0.02710197,-0.14725026,0.0048101246,0.0016486724,-0.107561216,0.008632615,0.0,0.5727169,-0.42563078,0.10946961,-0.04306371,0.0,1.4562231,-0.0048101246,0.0534611,0.049940687,0.12671557,0.06796282,inf,inf,0.3,3.75,1,1,1,1,84,0,82,82,0,0,1
1411215197,0,0.0,0.0,-0.09732526,-0.17442636,-1.3516902,-0.018854782,0.00830625,0.0,0.006965688,-0.17339042,0.007234345,0.0034604012,0.05057098,-0.041034654,0.0,-0.27583662,0.20570771,0.33215705,-0.04208507,0.0,1.4560121,-0.007234345,0.082032494,0.048632357,0.22915776,0.067068644,inf,inf,0.3,3.75,1,1,1,1,85,0,83,83,0,0,1
1411315295,0,0.0,0.0,-0.102424406,-0.19109061,-1.3516831,-0.018854782,0.00830625,0.0,-0.0058286944,-0.17209665,0.0083523365,0.0037950857,0.05057098,-0.041034654,0.0,-0.26920125,-0.12161944,0.6420511,-0.04330845,0.0,1.4547576,-0.0083523365,0.06575917,0.047646888,0.19266318,0.06653957,inf,inf,0.3,3.75,1,1,1,1,85,0,83,83,0,0,1
1411415183,0,0.0,0.0,-0.113384165,-0.20622317,-1.3523332,-0.018854782,0.00830625,0.0,-0.015133131,-0.1714596,0.0028307326,-0.0025484478,0.05057098,-0.041034654,0.0,-0.43340024,0.029275622,-0.11418183,-0.045892805,0.0,1.458194,-0.0028307326,0.05871646,0.046538975,0.1692519,0.06595426,inf,inf,0.3,3.75,1,1,1,1,85,0,83,83,0,0,1
1411520011,0,0.0,0.0,-0.123393275,-0.2223743,-1.3533937,-0.018854782,0.00830625,0.0,-0.015645284,-0.1693994,-0.00072643487,-0.0069658104,0.05057098,-0.041034654,0.0,0.31828564,0.3006332,-0.65969396,-0.048956092,0.0,1.4555128,0.00072643487,0.055982698,0.045993134,0.15187484,0.06580438,inf,inf,0.3,3.75,1,1,1,1,85,0,83,83,0,0,1
1411619820,0,0.0,0.0,-0.13140783,-0.23785302,-1.3542478,-0.018854782,0.00830625,0.0,-0.013475177,-0.16920424,0.0030709356,-0.0035387338,0.05057098,-0.041034654,0.0,0.60423106,0.58213747,0.8469173,-0.051961068,0.0,1.4545056,-0.0030709356,0.055141807,0.04562389,0.13888714,0.06578117,inf,inf,0.3,3.75,1,1,1,1,85,0,83,83,0,0,1
1411720405,0,0.0,0.0,-0.13645802,-0.25292537,-1.3546851,-0.018854782,0.00830625,0.0,-0.007881848,-0.16618726,0.0037707624,-0.002810323,0.05057098,-0.041034654,0.0,1.3496052,-0.30683488,0.10556025,-0.05484474,0.0,1.4549428,-0.0037707624,0.053924277,0.050245486,0.12621115,0.06919323,inf,inf,0.3,3.75,1,1,1,1,85,0,83,83,0,0,1
1411823982,0,0.0,0.0,-0.13993512,-0.26768392,-1.3550458,-0.018854782,0.00830625,0.0,-0.0066547655,-0.15986148,-0.0008489718,-0.0072956127,0.05057098,-0.041034654,0.0,-1.0539587,-0.37042138,-1.3983753,-0.058087893,0.0,1.4605186,0.0008489718,0.05155041,0.048791334,0.1193321,0.06770984,inf,inf,0.3,3.75,1,1,1,1,85,0,83,83,0,0,1
1411924794,0,0.0,0.0,-0.15362439,-0.2863607,-1.3555971,-0.0119764805,-0.0046396255,0.0,-0.030567348,-0.16144161,0.010173444,0.0036205533,-0.03883071,-0.012657285,0.0,0.07520569,0.16286549,0.26696354,-0.06093633,0.0,1.4600065,-0.010173444,0.100536995,0.04766985,0.26009238,0.06674999,inf,inf,0.3,3.75,1,1,1,1,86,0,84,84,0,0,1
1412024830,0,0.0,0.0,-0.1566152,-0.29769,-1.3562223,-0.0119764805,-0.0046396255,0.0,-0.019943811,-0.1527512,0.0032506965,-0.0036462264,-0.03883071,-0.012657285,0.0,0.03086366,0.01395514,0.92772096,-0.063142054,0.0,1.4626381,-0.0032506965,0.07323528,0.046543933,0.2119568,0.066005185,inf,inf,0.3,3.75,1,1,1,1,86,0,84,84,0,0,1
1412128827,0,0.0,0.0,-0.16253677,-0.30911675,-1.3576638,-0.0119764805,-0.0046396255,0.0,-0.014784256,-0.1447657,0.0056633474,-0.0020614814,-0.03883071,-0.012657285,0.0,0.44131368,1.1323152,0.5518495,-0.06522775,0.0,1.4644904,-0.0056633474,0.058137555,0.045942638,0.18089193,0.06569986,inf,inf,0.3,3.75,1,1,1,1,86,0,84,84,0,0,1
1412228667,0,0.0,0.0,-0.16795255,-0.32029834,-1.3591342,-0.0119764805,-0.0046396255,0.0,-0.015300824,-0.1435551,0.0028983844,-0.0056745484,-0.03883071,-0.012657285,0.0,-0.45807466,-0.76746213,0.2219621,-0.06696791,0.0,1.4634624,-0.0028983844,0.05517818,0.04548911,0.15758963,0.06552657,inf,inf,0.3,3.75,1,1,1,1,86,0,84,84,0,0,1
1412329590,0,0.0,0.0,-0.17198363,-0.3328146,-1.3602628,-0.0119764805,-0.0046396255,0.0,-0.015914934,-0.14413828,0.005368623,-0.0037423687,-0.03883071,-0.012657285,0.0,-0.24704045,-1.0290684,0.63737565,-0.06810665,0.0,1.4665229,-0.005368623,0.053435538,0.044790406,0.14158481,0.06514514,inf,inf,0.3,3.75,1,1,1,1,86,0,84,84,0,0,1
1412433688,0,0.0,0.0,-0.17433901,-0.347151,-1.3613905,-0.0119764805,-0.0046396255,0.0,-0.011455261,-0.14420559,0.0066966964,-0.0030581923,-0.03883071,-0.012657285,0.0,-0.13578108,-0.29850003,-0.11687111,-0.06836948,0.0,1.4651017,-0.0066966964,0.052879725,0.044545356,0.12800276,0.06510281,inf,inf,0.3,3.75,1,1,1,1,86,0,84,84,0,0,1
1412533624,0,0.0,0.0,-0.17549461,-0.3623661,-1.3624654,-0.0119764805,-0.0046396255,0.0,-0.010383851,-0.14609957,0.0025115693,-0.0075756093,-0.03883071,-0.012657285,0.0,-1.2581208,-0.19630389,-0.643784,-0.06776346,0.0,1.4672495,-0.0025115693,0.053044766,0.044401135,0.11916213,0.06512729,inf,inf,0.3,3.75,1,1,1,1,86,0,84,84,0,0,1
1412633583,0,0.0,0.0,-0.17581823,-0.3779234,-1.3633105,-0.0119764805,-0.0046396255,0.0,-0.0053361664,-0.1473956,0.0072889477,-0.0030500358,-0.03883071,-0.012657285,0.0,-1.2114971,0.6521908,-0.5827164,-0.06622804,0.0,1.4680946,-0.0072889477,0.052387204,0.048973847,0.11119949,0.06855799,inf,inf,0.3,3.75,1,1,1,1,86,0,84,84,0,0,1
1412737605,0,0.0,0.0,-0.17464487,-0.39441988,-1.3639388,-0.0119764805,-0.0046396255,0.0,-0.00033924868,-0.14947884,0.00851732,-0.0019539078,-0.03883071,-0.012657285,0.0,0.5121962,0.28157577,-0.8275053,-0.06427279,0.0,1.4677982,-0.00851732,0.049142215,0.04885508,0.10209646,0.06854394,inf,inf,0.3,3.75,1,1,1,1,86,0,84,84,0,0,1
1412838228,0,0.0,0.0,-0.17268991,-0.410896,-1.3646616,-0.0119764805,-0.0046396255,0.0,0.0007982659,-0.15310624,0.004818333,-0.0058490084,-0.03883071,-0.012657285,0.0,-1.2547215,0.9629908,-1.2356648,-0.062377173,0.0,1.4698542,-0.004818333,0.04912723,0.048777897,0.097977504,0.06853317,inf,inf,0.3,3.75,1,1,1,1,86,0,84,84,0,0,1
1412938421,0,0.0,0.0,-0.1713503,-0.4267046,-1.3647747,-0.0119764805,-0.0046396255,0.0,0.001044994,-0.15688814,0.009602013,-0.00079734344,-0.03883071,-0.012657285,0.0,-0.48919562,-0.13051452,-0.35968986,-0.06053954,0.0,1.4699674,-0.009602013,0.050061855,0.05408178,0.09886159,0.071993016,inf,inf,0.3,3.75,1,1,1,1,86,0,84,84,0,0,1
1413042406,0,0.0,0.0,-0.17381035,-0.43526676,-1.3649963,-0.0014781654,0.010265291,0.0,-0.015213958,-0.1742949,0.015515034,0.0045098816,-0.024394635,-0.023416549,0.0,0.48874065,0.8589589,-0.19170612,-0.058326084,0.0,1.4734796,-0.015515034,0.08189098,0.052752018,0.23610005,0.07060561,inf,inf,0.3,3.75,1,1,1,1,87,0,85,85,0,0,1
1413146691,0,0.0,0.0,-0.17612918,-0.4559948,-1.3643976,-0.0014781654,0.010265291,0.0,-0.010024014,-0.17173201,0.0154562695,0.0040907334,-0.024394635,-0.023416549,0.0,-0.6117927,0.07872671,0.47754487,-0.055703606,0.0,1.468485,-0.0154562695,0.06562472,0.05170861,0.19351803,0.069681115,inf,inf,0.3,3.75,1,1,1,1,87,0,85,85,0,0,1
1413247177,0,0.0,0.0,-0.17625478,-0.4728882,-1.3649116,-0.0014781654,0.010265291,0.0,-0.0018345756,-0.17138848,0.009051349,-0.0022750997,-0.024394635,-0.023416549,0.0,0.7966982,0.07539465,0.4179812,-0.052084967,0.0,1.4685804,-0.009051349,0.05844553,0.05048756,0.16680688,0.06880039,inf,inf,0.3,3.75,1,1,1,1,87,0,85,85,0,0,1
1413347380,0,0.0,0.0,-0.17522752,-0.4903135,-1.3651792,-0.0014781654,0.010265291,0.0,0.0017330643,-0.16779518,0.010249978,-0.0008067891,-0.024394635,-0.023416549,0.0,0.7789126,0.23457298,-0.4299924,-0.048156567,0.0,1.4674352,-0.010249978,0.055572785,0.049901556,0.14840867,0.06847294,inf,inf,0.3,3.75,1,1,1,1,87,0,85,85,0,0,1
1413451221,0,0.0,0.0,-0.17330751,-0.5097889,-1.3650688,-0.0014781654,0.010265291,0.0,-0.0011541084,-0.17565382,0.01390093,0.003294829,-0.024394635,-0.023416549,0.0,0.11886633,-1.1216443,1.2775751,-0.044194747,0.0,1.4666412,-0.01390093,0.054585926,0.04941429,0.13597432,0.06824092,inf,inf,0.3,3.75,1,1,1,1,87,0,85,85,0,0,1
1413551537,0,0.0,0.0,-0.17048928,-0.5308708,-1.3647605,-0.0014781654,0.010265291,0.0,-0.0026721926,-0.17990555,0.010891865,0.0009027411,-0.024394635,-0.023416549,0.0,-1.1302599,-0.7116271,-0.2633003,-0.040639997,0.0,1.4663329,-0.010891865,0.055103943,0.054408576,0.13284333,0.0715766,inf,inf,0.3,3.75,1,1,1,1,87,0,85,85,0,0,1
1413651984,0,0.0,0.0,-0.14590004,-0.5686061,-1.3647401,0.026095882,-0.01740861,0.0,-0.04043524,-0.20794687,0.012276194,0.0020042795,-0.052597195,-0.024665564,0.0,0.48768747,-0.09616621,1.157413,-0.03827883,0.0,1.4717141,-0.012276194,0.1000797,0.052692987,0.24986641,0.070015185,inf,inf,0.3,3.75,1,1,1,1,88,0,86,86,0,0,1
1413756304,0,0.0,0.0,-0.15726699,-0.5856337,-1.3642303,0.026095882,-0.01740861,0.0,-0.018542483,-0.19642808,0.008534324,-0.0023280536,-0.052597195,-0.024665564,0.0,0.06191429,0.73398817,-0.9035167,-0.03660254,0.0,1.4674765,-0.008534324,0.072578475,0.051386252,0.20063132,0.06902644,inf,inf,0.3,3.75,1,1,1,1,88,0,86,86,0,0,1
1413855970,0,0.0,0.0,-0.15161511,-0.61220944,-1.3646685,0.026095882,-0.01740861,0.0,-0.008882026,-0.20406872,0.0075849704,-0.0028728023,-0.052597195,-0.024665564,0.0,0.009981822,0.056878384,1.1445794,-0.034590293,0.0,1.467469,-0.0075849704,0.062000304,0.050024547,0.16925848,0.06817541,inf,inf,0.3,3.75,1,1,1,1,88,0,86,86,0,0,1
1413956029,0,0.0,0.0,-0.14635056,-0.6373673,-1.3651779,0.026095882,-0.01740861,0.0,-0.007729467,-0.21051307,0.0038731347,-0.006388125,-0.052597195,-0.024665564,0.0,-0.8829728,-0.16408579,-1.2801743,-0.032169033,0.0,1.4699392,-0.0038731347,0.057391834,0.049268782,0.14855275,0.06781479,inf,inf,0.3,3.75,1,1,1,1,88,0,86,86,0,0,1
1414060178,0,0.0,0.0,-0.14078006,-0.66155344,-1.3656793,0.026095882,-0.01740861,0.0,-0.002235795,-0.21874602,0.0063282982,-0.003923097,-0.052597195,-0.024665564,0.0,-0.47670972,-1.0480819,0.061771296,-0.029556653,0.0,1.4707242,-0.0063282982,0.0515118,0.048703283,0.13076755,0.067622036,inf,inf,0.3,3.75,1,1,1,1,88,0,86,86,0,0,1
1414160819,0,0.0,0.0,-0.1352732,-0.6850996,-1.3658997,0.026095882,-0.01740861,0.0,0.007343677,-0.23084214,0.011258612,0.0012414851,-0.052597195,-0.024665564,0.0,0.57611775,-0.26613638,1.8588405,-0.026266228,0.0,1.4672904,-0.011258612,0.05038219,0.047900546,0.11975957,0.067250334,inf,inf,0.3,3.75,1,1,1,1,88,0,86,86,0,0,1
1414260649,0,0.0,0.0,-0.12946635,-0.70868295,-1.3660051,0.026095882,-0.01740861,0.0,0.009634956,-0.24246708,0.011719183,0.0020569845,-0.052597195,-0.024665564,0.0,0.5920952,-0.61806726,1.1958833,-0.02415205,0.0,1.4682189,-0.011719183,0.050220106,0.047639497,0.111505724,0.06727443,inf,inf,0.3,3.75,1,1,1,1,88,0,86,86,0,0,1
1414364770,0,0.0,0.0,-0.12506437,-0.7324492,-1.3660135,0.026095882,-0.01740861,0.0,0.008973297,-0.24655716,0.009056959,-0.00029158645,-0.052597195,-0.024665564,0.0,-0.0014870007,0.10568525,-0.11866918,-0.022486467,0.0,1.4690393,-0.009056959,0.05056976,0.047421914,0.106846765,0.067272276,inf,inf,0.3,3.75,1,1,1,1,88,0,86,86,0,0,1
1414464668,0,0.0,0.0,-0.12175835,-0.7551686,-1.3659567,0.026095882,-0.01740861,0.0,0.007875309,-0.25145963,0.009476966,0.00032201875,-0.052597195,-0.024665564,0.0,0.21954475,0.18426035,0.55827004,-0.021888027,0.0,1.4697423,-0.009476966,0.050400592,0.046888534,0.102947295,0.067000985,inf,inf,0.3,3.75,1,1,1,1,88,0,86,86,0,0,1
1414565575,0,0.0,0.0,-0.1188831,-0.778106,-1.3661656,0.026095882,-0.01740861,0.0,0.0069783814,-0.25704327,0.006733274,-0.0024290364,-0.052597195,-0.024665564,0.0,-0.20284645,0.5510613,-1.161672,-0.02149734,0.0,1.4718502,-0.006733274,0.047871713,0.04679093,0.097633325,0.06701787,inf,inf,0.3,3.75,1,1,1,1,88,0,86,86,0,0,1
1414669447,0,0.0,0.0,-0.11551685,-0.8011383,-1.366436,0.026095882,-0.01740861,0.0,0.0062145265,-0.25860888,0.0075257192,-0.0016841898,-0.052597195,-0.024665564,0.0,-0.6151591,0.32710412,-1.1875447,-0.020884357,0.0,1.4701939,-0.0075257192,0.0488578,0.046576917,0.09900505,0.0668808,inf,inf,0.3,3.75,1,1,1,1,88,0,86,86,0,0,1
1414769635,0,0.0,0.0,-0.1109894,-0.82279223,-1.3666244,0.026095882,-0.01740861,0.0,0.00953217,-0.26198193,0.009161851,0.0001644713,-0.052597195,-0.024665564,0.0,0.372666,-0.1438996,1.2484933,-0.019423936,0.0,1.467496,-0.009161851,0.049311686,0.04649527,0.097990595,0.06682537,inf,inf,0.3,3.75,1,1,1,1,88,0,86,86,0,0,1
1414869460,0,0.0,0.0,-0.10575883,-0.84384054,-1.3666219,0.026095882,-0.01740861,0.0,0.0076947804,-0.26464102,0.006333051,-0.002403982,-0.052597195,-0.024665564,0.0,-0.8556732,-0.53474027,-1.0256995,-0.017747039,0.0,1.4698681,-0.006333051,0.049152445,0.046053853,0.09666007,0.06649344,inf,inf,0.3,3.75,1,1,1,1,88,0,86,86,0,0,1
1414974264,0,0.0,0.0,-0.099129744,-0.866245,-1.3662859,0.026095882,-0.01740861,0.0,0.010650918,-0.26440835,0.0049632303,-0.0033892337,-0.052597195,-0.024665564,0.0,-0.048796754,0.14124158,-1.6186842,-0.016034363,0.0,1.4667176,-0.0049632303,0.046812292,0.046012666,0.093801804,0.06645607,inf,inf,0.3,3.75,1,1,1,1,88,0,86,86,0,0,1
1415074251,0,0.0,0.0,-0.09460952,-0.8885968,-1.3658203,0.026095882,-0.01740861,0.0,0.0091675315,-0.26836783,0.009782368,0.0020809541,-0.052597195,-0.024665564,0.0,0.92320955,0.49622893,0.90554726,-0.014274875,0.0,1.4649316,-0.009782368,0.047401533,0.04598176,0.0942623,0.066420294,inf,inf,0.3,3.75,1,1,1,1,88,0,86,86,0,0,1
1415174418,0,0.0,0.0,-0.09263647,-0.912742,-1.3651018,0.026095882,-0.01740861,0.0,0.0019218777,-0.27224702,0.00317313,-0.0038631167,-0.052597195,-0.024665564,0.0,-0.14868616,-0.05168732,-1.2056018,-0.012842597,0.0,1.4659473,-0.00317313,0.047449194,0.045611203,0.09401651,0.06613948,inf,inf,0.3,3.75,1,1,1,1,88,0,86,86,0,0,1
1415278385,0,0.0,0.0,-0.09208935,-0.93919927,-1.3645998,0.026095882,-0.01740861,0.0,-0.0040510832,-0.2761926,0.004231506,-0.002107581,-0.052597195,-0.024665564,0.0,-0.89331466,-0.20805594,-0.6712881,-0.012109963,0.0,1.464421,-0.004231506,0.048116393,0.045589622,0.09466405,0.06610104,inf,inf,0.3,3.75,1,1,1,1,88,0,86,86,0,0,1
1415379265,0,0.0,0.0,-0.09321401,-0.96708435,-1.3638403,0.026095882,-0.01740861,0.0,-0.005824687,-0.2793079,0.01112509,0.0053429147,-0.052597195,-0.024665564,0.0,-0.13954026,0.31216723,0.7127513,-0.012453761,0.0,1.4673307,-0.01112509,0.04889629,0.04557337,0.09549314,0.066066146,inf,inf,0.3,3.75,1,1,1,1,88,0,86,86,0,0,1
1415479179,0,0.0,0.0,-0.094511285,-0.99663913,-1.3634346,0.026095882,-0.01740861,0.0,-0.009493705,-0.28315774,0.0038461296,-0.0016045527,-0.052597195,-0.024665564,0.0,-0.35607454,-0.14694883,-0.06834796,-0.013514068,0.0,1.4669249,-0.0038461296,0.049093083,0.050335165,0.09537901,0.069468774,inf,inf,0.3,3.75,1,1,1,1,88,0,86,86,0,0,1
1415583259,0,0.0,0.0,-0.09607023,-1.0303962,-1.3631923,0.026095882,-0.01740861,0.0,-0.013191796,-0.28940833,0.002367538,-0.0028771977,-0.052597195,-0.024665564,0.0,-0.8228756,-0.5354397,-1.3132282,-0.01425948,0.0,1.4679768,-0.002367538,0.047877997,0.049252644,0.09578481,0.068146124,inf,inf,0.3,3.75,1,1,1,1,88,0,86,86,0,0,1
1415683184,0,0.0,0.0,-0.08922266,-1.0790402,-1.3637211,0.0069660544,-0.019006968,0.0,0.017040612,-0.31959942,0.014891356,0.009555136,0.04162552,-0.05958429,0.0,0.66889155,-0.036791503,1.7253566,-0.01360146,0.0,1.4711142,-0.014891356,0.08289807,0.048350003,0.24518347,0.06722894,inf,inf,0.3,3.75,1,1,1,1,89,0,87,87,0,0,1
1415784011,0,0.0,0.0,-0.08915615,-1.1156268,-1.3636768,0.0069660544,-0.019006968,0.0,0.00075197103,-0.30901396,0.0022458339,-0.0035869572,0.04162552,-0.05958429,0.0,-0.705653,-0.99446523,-0.9581698,-0.014017392,0.0,1.4668734,-0.0022458339,0.06706169,0.047248587,0.1982554,0.06634644,inf,inf,0.3,3.75,1,1,1,1,89,0,87,87,0,0,1
1415887979,0,0.0,0.0,-0.09138307,-1.1523951,-1.3641193,0.0069660544,-0.019006968,0.0,-0.010434623,-0.29713023,0.0031046215,-0.0031447778,0.04162552,-0.05958429,0.0,-0.18458845,-0.38803703,-1.0891781,-0.014425104,0.0,1.4667094,-0.0031046215,0.05629715,0.04668459,0.17251526,0.06597564,inf,inf,0.3,3.75,1,1,1,1,89,0,87,87,0,0,1
1415988019,0,0.0,0.0,-0.09555875,-1.1809238,-1.3646005,0.0069660544,-0.019006968,0.0,-0.016545778,-0.28141537,0.004284147,-0.0022959977,0.04162552,-0.05958429,0.0,0.8477138,0.60761565,0.63677496,-0.014655078,0.0,1.4691074,-0.004284147,0.054526214,0.046273842,0.15241638,0.0658004,inf,inf,0.3,3.75,1,1,1,1,89,0,87,87,0,0,1
1416088053,0,0.0,0.0,-0.10187949,-1.2048826,-1.365054,0.0069660544,-0.019006968,0.0,-0.029003179,-0.27272165,0.0039674123,-0.0028815013,0.04162552,-0.05958429,0.0,-1.025518,-0.28105104,-1.1810828,-0.014978335,0.0,1.4665267,-0.0039674123,0.053456534,0.045560762,0.1385613,0.065392576,inf,inf,0.3,3.75,1,1,1,1,89,0,87,87,0,0,1
1416191821,0,0.0,0.0,-0.11053731,-1.2260423,-1.3651961,0.0069660544,-0.019006968,0.0,-0.033182718,-0.26177743,0.005522353,-0.0013325987,0.04162552,-0.05958429,0.0,-0.40953714,-0.50865144,-0.5579074,-0.014935574,0.0,1.4669185,-0.005522353,0.05352731,0.045302644,0.12744038,0.06534264,inf,inf,0.3,3.75,1,1,1,1,89,0,87,87,0,0,1
1416392814,0,0.0,0.0,-0.1230095,-1.2651036,-1.365185,0.0069660544,-0.019006968,0.0,-0.027928967,-0.2550346,0.0036475102,-0.0029506513,0.04162552,-0.05958429,0.0,-0.16115566,-0.6215723,-0.16843253,-0.01482375,0.0,1.4704406,-0.0036475102,0.05282926,0.044611104,0.110191435,0.06505676,inf,inf,0.3,3.75,1,1,1,1,89,0,87,87,0,0,1
1416496827,0,0.0,0.0,-0.1254257,-1.2892329,-1.3654983,0.0069660544,-0.019006968,0.0,-0.023430951,-0.25491646,0.005588705,-0.0012845006,0.04162552,-0.05958429,0.0,-1.2323966,-0.45474488,-1.4943761,-0.01601373,0.0,1.47411,-0.005588705,0.04966834,0.044545673,0.10201141,0.065118894,inf,inf,0.3,3.75,1,1,1,1,89,0,87,87,0,0,1
1416596618,0,0.0,0.0,-0.12696365,-1.3135617,-1.3662202,0.0069660544,-0.019006968,0.0,-0.018486124,-0.25497225,0.009874499,0.0023381133,0.04162552,-0.05958429,0.0,0.2684212,0.09855759,0.45140824,-0.017328078,0.0,1.470518,-0.009874499,0.04976146,0.044476938,0.09894492,0.0651337,inf,inf,0.3,3.75,1,1,1,1,89,0,87,87,0,0,1
1416696614,0,0.0,0.0,-0.12884545,-1.3386327,-1.3668413,0.0069660544,-0.019006968,0.0,-0.02004354,-0.25443646,0.005540278,-0.0024113138,0.04162552,-0.05958429,0.0,-0.8739234,0.04369467,-0.96819174,-0.018081576,0.0,1.4742602,-0.005540278,0.049489878,0.044068728,0.09693707,0.06485488,inf,inf,0.3,3.75,1,1,1,1,89,0,87,87,0,0,1
1416801599,0,0.0,0.0,-0.12995502,-1.3638253,-1.3681189,0.0069660544,-0.019006968,0.0,-0.018157274,-0.25454006,0.004385266,-0.0043180645,0.04162552,-0.05958429,0.0,-0.49092934,-0.15751623,-0.6833418,-0.018580507,0.0,1.4727646,-0.004385266,0.04761343,0.044406183,0.094455846,0.06515372,inf,inf,0.3,3.75,1,1,1,1,89,0,87,87,0,0,1
1416905613,0,0.0,0.0,-0.13022554,-1.3880944,-1.368852,0.0069660544,-0.019006968,0.0,-0.014036484,-0.25483492,0.009919383,0.0008520057,0.04162552,-0.05958429,0.0,0.1069717,0.17423737,0.33121327,-0.018584507,0.0,1.4680449,-0.009919383,0.04798009,0.044203125,0.09428537,0.064939655,inf,inf,0.3,3.75,1,1,1,1,89,0,87,87,0,0,1
1417005421,0,0.0,0.0,-0.1312366,-1.4112803,-1.368729,0.0069660544,-0.019006968,0.0,-0.014536749,-0.2570979,0.011518525,0.0027269942,0.04162552,-0.05958429,0.0,0.7394606,-0.17350776,0.8396869,-0.018269895,0.0,1.4679219,-0.011518525,0.04783936,0.048813142,0.09338031,0.068379015,inf,inf,0.3,3.75,1,1,1,1,89,0,87,87,0,0,1
1417106388,0,0.0,0.0,-0.13321638,-1.4346639,-1.3681675,0.0069660544,-0.019006968,0.0,-0.016209716,-0.2553595,0.011316345,0.0031837507,0.04162552,-0.05958429,0.0,0.0024201006,-0.2352702,0.22472341,-0.01845237,0.0,1.466868,-0.011316345,0.048213813,0.048765738,0.09311485,0.06833465,inf,inf,0.3,3.75,1,1,1,1,89,0,87,87,0,0,1
1417210406,0,0.0,0.0,-0.13610339,-1.4597142,-1.3677993,0.0069660544,-0.019006968,0.0,-0.023226896,-0.2539965,0.009397403,0.0016806442,0.04162552,-0.05958429,0.0,-1.2622656,0.23987,-0.86888015,-0.018960617,0.0,1.4703742,-0.009397403,0.04881405,0.04876934,0.09358214,0.068348534,inf,inf,0.3,3.75,1,1,1,1,89,0,87,87,0,0,1
1417310386,0,0.0,0.0,-0.13999519,-1.4837236,-1.367614,0.0069660544,-0.019006968,0.0,-0.023319054,-0.25427097,0.0073039522,-0.0004813578,0.04162552,-0.05958429,0.0,-0.451191,-0.0028269864,-0.66483676,-0.020127356,0.0,1.473709,-0.0073039522,0.046215158,0.04833166,0.09093636,0.0680292,inf,inf,0.3,3.75,1,1,1,1,89,0,87,87,0,0,1
1417410441,0,0.0,0.0,-0.14455679,-1.5071266,-1.3678358,0.0069660544,-0.019006968,0.0,-0.024400072,-0.25260133,0.0075233895,-0.00034894046,0.04162552,-0.05958429,0.0,-1.093915,0.0597358,-0.9320667,-0.020907175,0.0,1.4722549,-0.0075233895,0.046749648,0.048303466,0.09118898,0.067999095,inf,inf,0.3,3.75,1,1,1,1,89,0,87,87,0,0,1
1417514476,0,0.0,0.0,-0.15082374,-1.5315132,-1.3675386,0.0069660544,-0.019006968,0.0,-0.022681352,-0.2520392,0.00896745,0.0013855562,0.04162552,-0.05958429,0.0,0.7187857,0.24283762,0.11242096,-0.021292092,0.0,1.4679838,-0.00896745,0.047324106,0.0482819,0.09136949,0.06797441,inf,inf,0.3,3.75,1,1,1,1,89,0,87,87,0,0,1
1417615113,0,0.0,0.0,-0.15739813,-1.5551248,-1.3678057,0.0069660544,-0.019006968,0.0,-0.027136248,-0.24975607,0.00952179,0.0016801096,0.04162552,-0.05958429,0.0,0.46808898,-0.08598777,0.60472226,-0.021398406,0.0,1.4749322,-0.00952179,0.04740337,0.04786751,0.09099922,0.0676706,inf,inf,0.3,3.75,1,1,1,1,89,0,87,87,0,0,1
1417715183,0,0.0,0.0,-0.16561821,-1.5773734,-1.368436,0.0069660544,-0.019006968,0.0,-0.030249503,-0.24256697,0.013716505,0.0051944307,0.04162552,-0.05958429,0.0,0.5812631,-0.0005468812,0.3907456,-0.020980868,0.0,1.4774108,-0.013716505,0.04563079,0.047894202,0.08926095,0.0677018,inf,inf,0.3,3.75,1,1,1,1,89,0,87,87,0,0,1
1417819239,0,0.0,0.0,-0.17418894,-1.5991062,-1.3680782,0.0069660544,-0.019006968,0.0,-0.031973522,-0.22480941,0.018962521,0.010431661,0.04162552,-0.05958429,0.0,0.75943434,0.42331252,0.96082306,-0.02129498,0.0,1.4681041,-0.018962521,0.04638779,0.047876198,0.08986242,0.0676766,inf,inf,0.3,3.75,1,1,1,1,89,0,87,87,0,0,1
1417919024,0,0.0,0.0,-0.18074793,-1.6185757,-1.3669231,0.0069660544,-0.019006968,0.0,-0.028941136,-0.19625746,0.017193824,0.009065628,0.04162552,-0.05958429,0.0,0.97084635,-0.03453619,0.5503703,-0.020638397,0.0,1.4660523,-0.017193824,0.046596963,0.047467202,0.08964905,0.06737123,inf,inf,0.3,3.75,1,1,1,1,89,0,87,87,0,0,1
1418019841,0,0.0,0.0,-0.18585515,-1.6356384,-1.3666732,0.0069660544,-0.019006968,0.0,-0.023224236,-0.1509025,0.010908154,0.0028906076,0.04162552,-0.05958429,0.0,1.0105039,0.46348527,1.039748,-0.02061657,0.0,1.4717276,-0.010908154,0.047484104,0.047455437,0.090527676,0.0673521,inf,inf,0.3,3.75,1,1,1,1,89,0,87,87,0,0,1
1418124024,0,0.0,0.0,-0.18839616,-1.6505433,-1.3664815,0.0069660544,-0.019006968,0.0,-0.016804738,-0.10641205,0.005520984,-0.0022346505,0.04162552,-0.05958429,0.0,-0.76790977,0.5804613,-1.2420938,-0.020055605,0.0,1.4675081,-0.005520984,0.04837828,0.04748463,0.09137159,0.06738366,inf,inf,0.3,3.75,1,1,1,1,89,0,87,87,0,0,1
1418223988,0,0.0,0.0,-0.18862115,-1.6622238,-1.3659023,0.0069660544,-0.019006968,0.0,-0.006890146,-0.07415427,0.003635035,-0.0034965097,0.04162552,-0.05958429,0.0,-0.8417163,0.6134898,-1.6579518,-0.018741352,0.0,1.4640082,-0.003635035,0.04876785,0.04715642,0.091531694,0.067174345,inf,inf,0.3,3.75,1,1,1,1,89,0,87,87,0,0,1
1418324016,0,0.0,0.0,-0.18804727,-1.672302,-1.364931,0.0069660544,-0.019006968,0.0,0.0024550324,-0.044929467,0.0031353948,-0.002859544,0.04162552,-0.05958429,0.0,-0.9189931,0.9947756,-1.4148904,-0.016958183,0.0,1.4604287,-0.0031353948,0.046806876,0.047212176,0.08919804,0.067226134,inf,inf,0.3,3.75,1,1,1,1,89,0,87,87,0,0,1
1418427828,0,0.0,0.0,-0.18920562,-1.6817465,-1.3638304,0.0069660544,-0.019006968,0.0,0.007840574,-0.020592622,0.008075952,0.003149497,0.04162552,-0.05958429,0.0,0.047444314,-0.075300716,1.3037126,-0.016107537,0.0,1.4628643,-0.008075952,0.047527157,0.047259595,0.089462414,0.06725948,inf,inf,0.3,3.75,1,1,1,1,89,0,87,87,0,0,1
1418528865,0,0.0,0.0,-0.1911528,-1.689802,-1.36284,0.0069660544,-0.019006968,0.0,0.011089844,-0.0014713276,0.0072859726,0.0031461774,0.04162552,-0.05958429,0.0,0.5988747,-0.15539996,1.3786786,-0.016172605,0.0,1.4632411,-0.0072859726,0.047646146,0.046907537,0.08880973,0.06699399,inf,inf,0.3,3.75,1,1,1,1,89,0,87,87,0,0,1
1418628779,0,0.0,0.0,-0.19355308,-1.696099,-1.3623667,0.0069660544,-0.019006968,0.0,0.010418603,0.01863326,0.005976131,0.0021745956,0.04162552,-0.05958429,0.0,-1.0614994,-0.539831,-0.14699255,-0.017220184,0.0,1.4675093,-0.005976131,0.04578174,0.04688968,0.08662969,0.06694083,inf,inf,0.3,3.75,1,1,1,1,89,0,87,87,0,0,1
1418732642,0,0.0,0.0,-0.19562809,-1.6997191,-1.3619145,0.0069660544,-0.019006968,0.0,0.01564106,0.03860417,0.0076437867,0.004044894,0.04162552,-0.05958429,0.0,0.41772863,0.15797058,0.17283031,-0.018857198,0.0,1.4631335,-0.0076437867,0.046458706,0.046918098,0.08709294,0.0669651,inf,inf,0.3,3.75,1,1,1,1,89,0,87,87,0,0,1
1418832816,0,0.0,0.0,-0.19648683,-1.7004431,-1.3620079,0.0069660544,-0.019006968,0.0,0.020292837,0.053924806,0.0066121733,0.0026148362,0.04162552,-0.05958429,0.0,1.6407725,-0.07646995,1.1024445,-0.019721115,0.0,1.4709208,-0.0066121733,0.049342882,0.046554312,0.089515135,0.06669409,inf,inf,0.3,3.75,1,1,1,1,89,0,87,87,0,0,1
1418933586,0,0.0,0.0,-0.1968906,-1.6987296,-1.3623112,0.0069660544,-0.019006968,0.0,0.01809544,0.07146456,0.0076844543,0.0031601505,0.04162552,-0.05958429,0.0,0.26842564,0.17293628,-0.31789505,-0.020357521,0.0,1.465769,-0.0076844543,0.04914047,0.046573628,0.088466145,0.066702254,inf,inf,0.3,3.75,1,1,1,1,89,0,87,87,0,0,1
1419037422,0,0.0,0.0,-0.19697429,-1.6929337,-1.362699,0.0069660544,-0.019006968,0.0,0.01911336,0.08784744,0.00506737,-5.9054015e-05,0.04162552,-0.05958429,0.0,-1.0221707,0.09186989,-1.1636047,-0.020717608,0.0,1.4687552,-0.00506737,0.04930643,0.046627488,0.08809418,0.06675511,inf,inf,0.3,3.75,1,1,1,1,89,0,87,87,0,0,1
1419137426,0,0.0,0.0,-0.19563103,-1.6845504,-1.3628864,0.0069660544,-0.019006968,0.0,0.022173557,0.10080644,0.006872419,0.0013468276,0.04162552,-0.05958429,0.0,-0.71046233,0.1013955,-0.19950299,-0.019638496,0.0,1.4651185,-0.006872419,0.049722686,0.046248656,0.08977835,0.06646168,inf,inf,0.3,3.75,1,1,1,1,89,0,87,87,0,0,1
1419237647,0,0.0,0.0,-0.19363351,-1.6745487,-1.3628596,0.0069660544,-0.019006968,0.0,0.024247706,0.10935225,0.008032473,0.0023780707,0.04162552,-0.05958429,0.0,-0.5810477,0.38002506,-0.61501825,-0.01785577,0.0,1.4639151,-0.008032473,0.047260694,0.046249162,0.08732841,0.06644897,inf,inf,0.3,3.75,1,1,1,1,89,0,87,87,0,0,1
1419342397,0,0.0,0.0,-0.19003807,-1.6622237,-1.3624091,0.0069660544,-0.019006968,0.0,0.030583961,0.11378109,0.015162506,0.009616189,0.04162552,-0.05958429,0.0,1.2389756,0.08336221,1.726154,-0.014316609,0.0,1.4629453,-0.015162506,0.04755227,0.04625042,0.087180234,0.06643926,inf,inf,0.3,3.75,1,1,1,1,89,0,87,87,0,0,1
1419442464,0,0.0,0.0,-0.18545455,-1.6503137,-1.3618457,0.0069660544,-0.019006968,0.0,0.029798055,0.11292579,0.0074881893,0.0021091583,0.04162552,-0.05958429,0.0,0.102075,-0.48373157,0.09624441,-0.010849523,0.0,1.463469,-0.0074881893,0.047423106,0.045868985,0.08664032,0.066143475,inf,inf,0.3,3.75,1,1,1,1,89,0,87,87,0,0,1
1419542224,0,0.0,0.0,-0.17964622,-1.6391379,-1.36153,0.0069660544,-0.019006968,0.0,0.033432756,0.10728817,0.009163228,0.003998739,0.04162552,-0.05958429,0.0,0.48967686,-0.8954457,1.4490362,-0.00806061,0.0,1.4625007,-0.009163228,0.045285113,0.045898855,0.08436496,0.06617524,inf,inf,0.3,3.75,1,1,1,1,89,0,87,87,0,0,1
1419646256,0,0.0,0.0,-0.17249697,-1.6286516,-1.3611927,0.0069660544,-0.019006968,0.0,0.033252142,0.10275906,0.007302459,0.0023109976,0.04162552,-0.05958429,0.0,-0.5006331,0.1857055,-1.1063498,-0.0060222917,0.0,1.4636575,-0.007302459,0.04590109,0.045891676,0.08520042,0.06616087,inf,inf,0.3,3.75,1,1,1,1,89,0,87,87,0,0,1
1419747199,0,0.0,0.0,-0.16569878,-1.619214,-1.3608328,0.0069660544,-0.019006968,0.0,0.034764886,0.0952013,0.008971484,0.0041078366,0.04162552,-0.05958429,0.0,0.40578786,0.898236,-0.28689766,-0.004235499,0.0,1.4623437,-0.008971484,0.046354182,0.045885522,0.0854052,0.06614931,inf,inf,0.3,3.75,1,1,1,1,89,0,87,87,0,0,1
1419847256,0,0.0,0.0,-0.1614724,-1.6097597,-1.3606744,0.0069660544,-0.019006968,0.0,0.028113158,0.08280157,0.0043920707,-0.00058080966,0.04162552,-0.05958429,0.0,0.47738546,0.53152794,-0.62625027,-0.0026026198,0.0,1.4670874,-0.0043920707,0.04622412,0.04535127,0.08492453,0.06569959,inf,inf,0.3,3.75,1,1,1,1,89,0,87,87,0,0,1
1419951208,0,0.0,0.0,-0.16056874,-1.5990226,-1.3608795,0.0069660544,-0.019006968,0.0,0.016566113,0.071549915,0.008515662,0.0032746883,0.04162552,-0.05958429,0.0,0.0967337,0.3919833,1.5938364,-0.0018971864,0.0,1.4672925,-0.008515662,0.0469417,0.050498698,0.08579828,0.06939144,inf,inf,0.3,3.75,1,1,1,1,89,0,87,87,0,0,1
1420051044,0,0.0,0.0,-0.16215372,-1.5887026,-1.3609021,0.0069660544,-0.019006968,0.0,0.005855417,0.06283072,0.0078800265,0.0024791255,0.04162552,-0.05958429,0.0,0.25465688,-0.1432153,0.21632642,-0.0022628538,0.0,1.4661198,-0.0078800265,0.04829597,0.04924075,0.088417426,0.06787485,inf,inf,0.3,3.75,1,1,1,1,89,0,87,87,0,0,1
1420151269,0,0.0,0.0,-0.17347793,-1.5689998,-1.3610063,-0.014670774,0.014858127,0.0,0.014446613,0.058270883,0.006413528,0.0008275573,0.016859666,0.00802777,0.0,1.0403807,-0.56024605,0.20155585,-0.0036010337,0.0,1.4631662,-0.006413528,0.08224948,0.047850948,0.24859093,0.06659141,inf,inf,0.3,3.75,1,1,1,1,90,0,88,88,0,0,1
1420255846,0,0.0,0.0,-0.17265937,-1.560464,-1.3612264,-0.014670774,0.014858127,0.0,0.008854643,0.045075838,-0.0018426543,-0.0076293214,0.016859666,0.00802777,0.0,-0.541611,-0.09183828,-1.8583844,-0.0057436093,0.0,1.4661597,0.0018426543,0.06630339,0.047061156,0.19916531,0.06595621,inf,inf,0.3,3.75,1,1,1,1,90,0,88,88,0,0,1
1420356079,0,0.0,0.0,-0.17397228,-1.5481634,-1.3618957,-0.014670774,0.014858127,0.0,0.0063320277,0.041903514,0.004102073,-0.0021109087,0.016859666,0.00802777,0.0,-0.76029485,0.9322401,-1.5366776,-0.008034052,0.0,1.4642785,-0.004102073,0.059895135,0.046467323,0.17002071,0.06561298,inf,inf,0.3,3.75,1,1,1,1,90,0,88,88,0,0,1
1420455968,0,0.0,0.0,-0.17403202,-1.5369824,-1.3621707,-0.014670774,0.014858127,0.0,0.006588165,0.03496465,0.0045257965,-0.0019319749,0.016859666,0.00802777,0.0,0.13784857,0.6304449,-1.4130472,-0.010931117,0.0,1.4670303,-0.0045257965,0.0561605,0.045609612,0.14821698,0.0651039,inf,inf,0.3,3.75,1,1,1,1,90,0,88,88,0,0,1
1420556013,0,0.0,0.0,-0.17320907,-1.5261909,-1.3627617,-0.014670774,0.014858127,0.0,0.009675057,0.026988557,0.0023928913,-0.0044539245,0.016859666,0.00802777,0.0,0.7248107,0.52505517,-0.9665559,-0.013988708,0.0,1.465159,-0.0023928913,0.05118536,0.04523536,0.1304796,0.06500013,inf,inf,0.3,3.75,1,1,1,1,90,0,88,88,0,0,1
1420660771,0,0.0,0.0,-0.1711705,-1.517379,-1.3633982,-0.014670774,0.014858127,0.0,0.012831423,0.011105819,0.005422751,-0.0015316154,0.016859666,0.00802777,0.0,0.27780274,-1.1355472,1.6381729,-0.01691141,0.0,1.4635282,-0.005422751,0.05097312,0.044954434,0.11964886,0.06496923,inf,inf,0.3,3.75,1,1,1,1,90,0,88,88,0,0,1
1420760617,0,0.0,0.0,-0.1679085,-1.5117506,-1.3635684,-0.014670774,0.014858127,0.0,0.011780592,-0.002522851,0.0042380625,-0.0025581839,0.016859666,0.00802777,0.0,-1.2660732,-0.61688787,-0.51385725,-0.019143684,0.0,1.4659696,-0.0042380625,0.050423983,0.044486966,0.11087001,0.064829886,inf,inf,0.3,3.75,1,1,1,1,90,0,88,88,0,0,1
1420864829,0,0.0,0.0,-0.1639084,-1.5087861,-1.3636503,-0.014670774,0.014858127,0.0,0.01593199,-0.017433047,0.007884899,0.0012349524,0.016859666,0.00802777,0.0,0.039690737,-0.115737915,0.54726565,-0.021788882,0.0,1.4637742,-0.007884899,0.050520733,0.044395845,0.10438594,0.064925365,inf,inf,0.3,3.75,1,1,1,1,90,0,88,88,0,0,1
1420964816,0,0.0,0.0,-0.16177514,-1.5086294,-1.3633698,-0.014670774,0.014858127,0.0,0.012572355,-0.032266922,0.007291188,0.001018214,0.016859666,0.00802777,0.0,-0.41047248,-0.9136567,1.1766411,-0.024056867,0.0,1.4639348,-0.007291188,0.050441515,0.04434296,0.09895857,0.06500668,inf,inf,0.3,3.75,1,1,1,1,90,0,88,88,0,0,1
1421065666,0,0.0,0.0,-0.16257164,-1.5104527,-1.3630116,-0.014670774,0.014858127,0.0,0.0067676464,-0.041582964,0.010482062,0.004554119,0.016859666,0.00802777,0.0,0.18610312,-0.41683787,0.8514255,-0.02628217,0.0,1.467177,-0.010482062,0.047579132,0.044317205,0.09262531,0.06507021,inf,inf,0.3,3.75,1,1,1,1,90,0,88,88,0,0,1
1421169447,0,0.0,0.0,-0.16461894,-1.5134423,-1.3628635,-0.014670774,0.014858127,0.0,0.0033606982,-0.046906844,0.008905564,0.0030514554,0.016859666,0.00802777,0.0,1.0593873,0.7236359,0.34928402,-0.028604763,0.0,1.4637424,-0.008905564,0.04769503,0.04430986,0.0903489,0.0651154,inf,inf,0.3,3.75,1,1,1,1,90,0,88,88,0,0,1
1421269698,0,0.0,0.0,-0.1681655,-1.5170698,-1.3624588,-0.014670774,0.014858127,0.0,-0.0037201776,-0.05705775,0.008371003,0.0027611444,0.016859666,0.00802777,0.0,0.83264345,-0.46087632,-0.0017655788,-0.030157024,0.0,1.4633377,-0.008371003,0.04733612,0.048767675,0.08854411,0.068398856,inf,inf,0.3,3.75,1,1,1,1,90,0,88,88,0,0,1
1421369634,0,0.0,0.0,-0.173093,-1.5208888,-1.3623505,-0.014670774,0.014858127,0.0,-0.0074593597,-0.058215935,0.009428617,0.003865266,0.016859666,0.00802777,0.0,1.1318903,0.05001611,1.2368147,-0.03102899,0.0,1.4655026,-0.009428617,0.047471475,0.04872994,0.08742786,0.0683672,inf,inf,0.3,3.75,1,1,1,1,90,0,88,88,0,0,1
1421473632,0,0.0,0.0,-0.17869118,-1.524898,-1.3621664,-0.014670774,0.014858127,0.0,-0.013167214,-0.055679716,0.0058509386,0.0004161475,0.016859666,0.00802777,0.0,-0.5428003,0.62767047,-0.5244827,-0.03167941,0.0,1.4639219,-0.0058509386,0.045221124,0.048702862,0.08479366,0.06833984,inf,inf,0.3,3.75,1,1,1,1,90,0,88,88,0,0,1
1421574566,0,0.0,0.0,-0.18379803,-1.5286175,-1.3619124,-0.014670774,0.014858127,0.0,-0.013199534,-0.055988934,0.004101158,-0.0011470668,0.016859666,0.00802777,0.0,-0.3553033,0.08365679,-0.6007118,-0.032092355,0.0,1.4630854,-0.004101158,0.04516068,0.04828233,0.08438427,0.06803279,inf,inf,0.3,3.75,1,1,1,1,90,0,88,88,0,0,1
1421674389,0,0.0,0.0,-0.18747438,-1.5319104,-1.3618522,-0.014670774,0.014858127,0.0,-0.009646173,-0.051445223,0.0046008225,-0.0005146505,0.016859666,0.00802777,0.0,-0.745164,0.4159092,-0.76711595,-0.032399863,0.0,1.4639976,-0.0046008225,0.04559883,0.048307966,0.08472889,0.068058066,inf,inf,0.3,3.75,1,1,1,1,90,0,88,88,0,0,1
1421778403,0,0.0,0.0,-0.19014661,-1.5350937,-1.3615583,-0.014670774,0.014858127,0.0,-0.004519646,-0.047805153,0.005539734,0.0006866714,0.016859666,0.00802777,0.0,-0.4095603,0.30605653,-0.35490045,-0.03263535,0.0,1.4621849,-0.005539734,0.04610115,0.048289426,0.08531009,0.06802612,inf,inf,0.3,3.75,1,1,1,1,90,0,88,88,0,0,1
1421878218,0,0.0,0.0,-0.1930992,-1.5376972,-1.3611771,-0.014670774,0.014858127,0.0,-0.0013439809,-0.045890823,0.0040594703,-0.0004578922,0.016859666,0.00802777,0.0,-0.10409133,0.38459113,-0.26562068,-0.032519065,0.0,1.4618037,-0.0040594703,0.046990015,0.0533033,0.088153034,0.071365215,inf,inf,0.3,3.75,1,1,1,1,90,0,88,88,0,0,1
1421979155,0,0.0,0.0,-0.21511653,-1.5330384,-1.3611839,-0.021988973,0.0077337027,0.0,0.0039520306,-0.039186373,0.0064867116,0.0019849085,0.00042347237,0.0009990744,0.0,-0.87522835,0.09259676,-0.39669475,-0.03233009,0.0,1.4650078,-0.0064867116,0.10003805,0.05198468,0.23024264,0.069914006,inf,inf,0.3,3.75,1,1,1,1,91,0,89,89,0,0,1
1422083214,0,0.0,0.0,-0.2048369,-1.5377811,-1.3613358,-0.021988973,0.0077337027,0.0,0.026359208,-0.026624514,0.0016339564,-0.0029731218,0.00042347237,0.0009990744,0.0,0.06739153,0.21279961,-0.4440993,-0.031956013,0.0,1.4644614,-0.0016339564,0.072190486,0.050982136,0.19110194,0.06899893,inf,inf,0.3,3.75,1,1,1,1,91,0,89,89,0,0,1
1422183542,0,0.0,0.0,-0.20054145,-1.5383127,-1.3617526,-0.021988973,0.0077337027,0.0,0.057275303,-0.016178612,0.0018050004,-0.0029612964,0.00042347237,0.0009990744,0.0,1.2066423,0.6475898,0.049556386,-0.030345835,0.0,1.4641961,-0.0018050004,0.06147447,0.049750723,0.16497958,0.06808518,inf,inf,0.3,3.75,1,1,1,1,91,0,89,89,0,0,1
1422283206,0,0.0,0.0,-0.18917724,-1.5368205,-1.3623006,-0.021988973,0.0077337027,0.0,0.09198743,-0.008348814,0.0039839447,-0.0011923966,0.00042347237,0.0009990744,0.0,-0.03493922,-0.09793313,-0.6510182,-0.02804223,0.0,1.4668599,-0.0039839447,0.056803387,0.049194578,0.14600164,0.067798175,inf,inf,0.3,3.75,1,1,1,1,91,0,89,89,0,0,1
1422384188,0,0.0,0.0,-0.17330505,-1.5341322,-1.3626847,-0.021988973,0.0077337027,0.0,0.12803508,-0.0015049174,0.003222533,-0.002198786,0.00042347237,0.0009990744,0.0,1.0745417,0.64881057,0.5691166,-0.025968568,0.0,1.4647033,-0.003222533,0.05404589,0.048378978,0.13137318,0.067359835,inf,inf,0.3,3.75,1,1,1,1,91,0,89,89,0,0,1
1422488115,0,0.0,0.0,-0.15425034,-1.529932,-1.3632418,-0.021988973,0.0077337027,0.0,0.15668191,0.0025280197,0.006724605,0.0009702132,0.00042347237,0.0009990744,0.0,0.8135785,0.36012834,1.4841802,-0.023741473,0.0,1.4671742,-0.006724605,0.049746357,0.04806243,0.11777294,0.06729203,inf,inf,0.3,3.75,1,1,1,1,91,0,89,89,0,0,1
1422587828,0,0.0,0.0,-0.13510583,-1.5257391,-1.3635912,-0.021988973,0.0077337027,0.0,0.17819925,0.0051847817,0.0015606184,-0.0042610876,0.00042347237,0.0009990744,0.0,-0.06912874,-0.003095573,-1.580434,-0.022477105,0.0,1.4675236,-0.0015606184,0.050886925,0.053416573,0.11613913,0.07097342,inf,inf,0.3,3.75,1,1,1,1,91,0,89,89,0,0,1
1422691863,0,0.0,0.0,-0.11749628,-1.5426962,-1.3638811,-0.0036813915,-0.019754887,0.0,0.22487956,-0.053433944,0.004467483,-0.0019467339,0.029178157,-0.061246708,0.0,-0.53766805,-0.45962283,-0.59283155,-0.020732336,0.0,1.4682561,-0.004467483,0.14147125,0.051882673,0.23503543,0.06953239,inf,inf,0.3,3.75,1,1,1,1,92,0,90,90,0,0,1
1422792655,0,0.0,0.0,-0.09544079,-1.5397617,-1.363549,-0.0036813915,-0.019754887,0.0,0.229114,-0.029734496,0.016939841,0.009260247,0.029178157,-0.061246708,0.0,0.32821304,-0.38100174,0.8181984,-0.017974464,0.0,1.4648161,-0.016939841,0.082925715,0.050302785,0.1949297,0.06833176,inf,inf,0.3,3.75,1,1,1,1,92,0,90,90,0,0,1
1422892857,0,0.0,0.0,-0.07507276,-1.5443792,-1.3633285,-0.0036813915,-0.019754887,0.0,0.23486072,-0.028469084,0.007299003,2.078461e-05,0.029178157,-0.061246708,0.0,-0.3466951,-0.013262629,-0.46832037,-0.016007012,0.0,1.4658264,-0.007299003,0.067267545,0.04940413,0.17243455,0.06776197,inf,inf,0.3,3.75,1,1,1,1,92,0,90,90,0,0,1
