timestamp,roll_body,pitch_body,yaw_body,yaw_sp_move_rate,q_d[0],q_d[1],q_d[2],q_d[3],thrust,landing_gear,q_d_valid,roll_reset_integral,pitch_reset_integral,yaw_reset_integral,fw_control_yaw,disable_mc_yaw_control,apply_flaps
1399094572,0.009125982,0.003456168,-0.07469347,0.0,0.9992905,0.00462431,0.0015564878,-0.037345495,0.68239367,-1.0,1,0,0,0,0,0,0
1402279612,-0.0074468623,-0.006012966,-0.022870092,-8.433e-42,0.99992305,-0.0037575408,-0.0029636845,-0.011445859,0.6793013,-1.0,1,0,0,0,0,0,0
1402380559,-0.0062990794,-0.0031496868,-0.022870092,-1.5858e-41,0.99992836,-0.0031673328,-0.0015387178,-0.011439687,0.68100184,-1.0,1,0,0,0,0,0,0
1402479531,-0.0033813096,-0.005678236,-0.022870092,-2e-43,0.99992913,-0.0017230012,-0.0028195924,-0.011439535,0.67862374,-1.0,1,0,0,0,0,0,0
1402584472,0.0012985121,-0.00025442333,-0.022870092,-0.0,0.99993443,0.00064775895,-0.00013462744,-0.011434712,0.6822293,-1.0,1,0,0,0,0,0,0
1402684754,0.0039627105,-0.0018822626,-0.022870092,0.0,0.9999322,0.001970462,-0.00096372416,-0.011432906,0.6776109,-1.0,1,0,0,0,0,0,0
1402888442,0.005099516,-0.0030917202,-0.022870092,0.0,0.99993026,0.002531909,-0.0015749092,-0.0114308065,0.67921054,-1.0,1,0,0,0,0,0,0
1403088858,0.0038898713,-0.0026636426,-0.022870092,0.0,0.9999319,0.0019295767,-0.0013539713,-0.011432177,0.6789651,-1.0,1,0,0,0,0,0,0
1403193236,0.0031168673,-0.0027285106,-0.022870092,0.0,0.99993247,0.00154273,-0.0013819844,-0.011432648,0.6793771,-1.0,1,0,0,0,0,0,0
1403293337,0.001349727,0.00042186212,-0.022870092,0.0,0.9999344,0.00067723135,0.00020320031,-0.011434936,0.67818177,-1.0,1,0,0,0,0,0,0
1403393087,0.00057912973,0.0022807599,-0.022870092,0.0,0.9999339,0.00030258577,0.001136994,-0.011435119,0.67952764,-1.0,1,0,0,0,0,0,0
1403497899,0.0004127329,0.0011172532,-0.022870092,0.0,0.99993443,0.0002127407,0.0005562303,-0.01143491,0.67638755,-1.0,1,0,0,0,0,0,0
1403598546,0.0006248804,0.0028144391,-0.022870092,0.0,0.9999336,0.00032851074,0.0014035543,-0.011435225,0.67892635,-1.0,1,0,0,0,0,0,0
1403698020,0.0018978023,0.0034331013,-0.022870092,0.0,0.99993265,0.0009684661,0.0017055864,-0.011436405,0.6798692,-1.0,1,0,0,0,0,0,0
1404002809,0.003156888,-0.005042003,-0.022870092,0.0,0.99993026,0.001549508,-0.0025388799,-0.011430767,0.67688954,-1.0,1,0,0,0,0,0,0
1404106484,0.0021024009,-0.007529367,-0.022870092,0.0,0.99992704,0.0010080759,-0.0037764467,-0.011430752,0.6778301,-1.0,1,0,0,0,0,0,0
1404307658,0.0021108654,-0.012211728,-0.022870092,0.0,0.9999155,0.0009855248,-0.0061174915,-0.011428134,0.6797729,-1.0,1,0,0,0,0,0,0
1404411671,0.002853448,-0.014962661,-0.022870092,0.0,0.99990577,0.0013410437,-0.0074970787,-0.011423794,0.6794225,-1.0,1,0,0,0,0,0,0
1404512173,0.0013544791,-0.014580614,-0.022870092,0.0,0.99990785,0.00059381477,-0.0072975075,-0.011429555,0.67822,-1.0,1,0,0,0,0,0,0
1404611609,-0.001589577,-0.014769422,-0.022870092,0.0,0.99990696,-0.00087915675,-0.0073750704,-0.011440352,0.6763802,-1.0,1,0,0,0,0,0,0
1404715665,-0.00044289633,-0.013259634,-0.022870092,0.0,0.9999126,-0.00029723882,-0.006626802,-0.011436013,0.67898965,-1.0,1,0,0,0,0,0,0
1404816777,-0.00058322144,-0.012968008,-0.022870092,0.0,0.9999136,-0.00036572825,-0.0064801998,-0.0114364475,0.6789106,-1.0,1,0,0,0,0,0,0
1404916312,-0.0024088854,-0.010601345,-0.022870092,0.0,0.9999198,-0.0012649584,-0.005286525,-0.011441012,0.6795933,-1.0,1,0,0,0,0,0,0
1405120917,0.003871588,-0.012144264,-0.022870092,0.0,0.99991447,0.0018661977,-0.0060938215,-0.011422812,0.68341136,-1.0,1,0,0,0,0,0,0
1405325217,0.005717017,-0.014849764,-0.022870092,0.0,0.99990326,0.0027733382,-0.007456984,-0.011413213,0.6776687,-1.0,1,0,0,0,0,0,0
1405525285,0.001687986,-0.013456906,-0.022870092,0.0,0.99991167,0.0007669807,-0.006737611,-0.011428857,0.6801609,-1.0,1,0,0,0,0,0,0
1405730380,-0.00013640239,-0.0103046335,-0.022870092,0.0,0.9999213,-0.00012711127,-0.0051511773,-0.0114349965,0.67686766,-1.0,1,0,0,0,0,0,0
1405830720,0.0009516333,-0.004933678,-0.022870092,0.0,0.99993145,0.00044757628,-0.002472116,-0.011433587,0.6794854,-1.0,1,0,0,0,0,0,0
1405933936,0.0016099024,-0.0027978166,-0.022870092,0.0,0.9999333,0.0007889015,-0.0014080204,-0.011433657,0.6827853,-1.0,1,0,0,0,0,0,0
1406033996,0.004268613,0.0013049401,-0.022870092,0.0,0.9999321,0.0021416259,0.00062802056,-0.0114361625,0.68068147,-1.0,1,0,0,0,0,0,0
1406135066,0.0056509827,0.0038174037,-0.022870092,0.0,0.9999288,0.0028471234,0.0018762595,-0.011440124,0.6791198,-1.0,1,0,0,0,0,0,0
1406338508,0.007303569,0.0048933187,-0.022870092,0.0,0.99992484,0.0036795037,0.0024047235,-0.011443621,0.68147105,-1.0,1,0,0,0,0,0,0
1406439098,0.00794572,0.0007719195,-0.022870092,0.0,0.9999267,0.0039770026,0.0003405027,-0.011436239,0.67437726,-1.0,1,0,0,0,0,0,0
1406540494,0.00946233,-0.00075998105,-0.022870092,0.0,0.99992335,0.0047264923,-0.00043406113,-0.01143287,0.6794029,-1.0,1,0,0,0,0,0,0
1406743623,0.012095045,-0.002817631,-0.022870092,0.0,0.9999154,0.006030975,-0.0014778487,-0.011426058,0.67682135,-1.0,1,0,0,0,0,0,0
1406947778,0.014611072,-0.0014086951,-0.022870092,0.0,0.99990773,0.0072969375,-0.0007878192,-0.011429343,0.6780071,-1.0,1,0,0,0,0,0,0
1407048459,0.0118853,-7.3786454e-05,-0.022870092,0.0,0.999917,0.005941805,-0.00010484276,-0.011434377,0.6783526,-1.0,1,0,0,0,0,0,0
1407152456,0.014729193,0.0021505423,-0.022870092,0.0,0.9999068,0.0073763398,0.0009909596,-0.0114424,0.6799463,-1.0,1,0,0,0,0,0,0
1407352081,0.011204505,0.0024732044,-0.022870092,0.0,0.9999181,0.0056159934,0.0011724414,-0.011441536,0.6806818,-1.0,1,0,0,0,0,0,0
1407453501,0.009624965,0.0014504093,-0.022870092,0.0,0.9999227,0.0048204404,0.0006701193,-0.011438152,0.6804829,-1.0,1,0,0,0,0,0,0
1407557136,0.010607712,0.0015042499,-0.022870092,0.0,0.9999202,0.0053120833,0.00069141696,-0.011438622,0.6832692,-1.0,1,0,0,0,0,0,0
1407657213,0.00866346,0.00073607627,-0.022870092,0.0,0.9999252,0.0043356414,0.0003184783,-0.011436283,0.6801154,-1.0,1,0,0,0,0,0,0
1407761212,0.008943889,8.948289e-05,-0.022870092,0.0,0.9999246,0.004472149,-6.3975267e-06,-0.011434883,0.68323886,-1.0,1,0,0,0,0,0,0
1407861757,0.008729359,0.00036509402,-0.022870092,0.0,0.9999251,0.0043664672,0.00013262428,-0.011435486,0.6822532,-1.0,1,0,0,0,0,0,0
1407961694,-0.0067810197,-0.009621045,-0.022870092,0.0,0.99991715,-0.003445249,-0.0047713923,-0.011450908,0.68358386,-1.0,1,0,0,0,0,0,0
1408066052,-0.0017100313,-0.0051598563,-0.022870092,0.0,0.9999309,-0.0008844577,-0.0025699788,-0.0114369625,0.6818393,-1.0,1,0,0,0,0,0,0
1408165990,-0.00041276275,-0.006510473,-0.022870092,0.0,0.9999293,-0.00024358969,-0.0032526578,-0.011435407,0.68197066,-1.0,1,0,0,0,0,0,0
1408266011,4.1725376e-05,-0.00794065,-0.022870092,0.0,0.99992675,-2.4538575e-05,-0.0039702933,-0.011434624,0.6782567,-1.0,1,0,0,0,0,0,0
1408367381,0.00034259466,-0.007399781,-0.022870092,0.0,0.99992776,0.00012897755,-0.0037015988,-0.011434086,0.676711,-1.0,1,0,0,0,0,0,0
1408471138,0.0056413417,-0.006385799,-0.022870092,0.0,0.9999256,0.0027839583,-0.003224926,-0.011425688,0.67932785,-1.0,1,0,0,0,0,0,0
1408570735,-0.0030204572,-0.0070495876,-0.022870092,0.0,0.9999272,-0.001550425,-0.003507283,-0.011440038,0.68213505,-1.0,1,0,0,0,0,0,0
1408675004,-0.020648526,-0.0059522637,-0.022870092,0.0,0.9998765,-0.010357389,-0.0028577214,-0.011464859,0.68084335,-1.0,1,0,0,0,0,0,0
1408775316,-0.021581113,-0.0067002624,-0.022870092,0.0,0.99987036,-0.010827888,-0.003226326,-0.0114702135,0.6795837,-1.0,1,0,0,0,0,0,0
1408875726,-0.018444277,-0.009312413,-0.022870092,0.0,0.9998808,-0.009274545,-0.004550236,-0.011477123,0.68026173,-1.0,1,0,0,0,0,0,0
1408980368,-0.014038436,-0.006749732,-0.022870092,0.0,0.99990404,-0.0070572514,-0.0032942938,-0.011458137,0.6790783,-1.0,1,0,0,0,0,0,0
1409084474,-0.0093137445,-0.004860419,-0.022870092,0.0,0.99992067,-0.004684326,-0.0023767718,-0.011445958,0.6788929,-1.0,1,0,0,0,0,0,0
1409183292,-0.00782123,-0.005307722,-0.022870092,0.0,0.99992335,-0.0039406815,-0.0026089468,-0.011445047,0.6769695,-1.0,1,0,0,0,0,0,0
1409284717,-0.0016705759,-0.0069677862,-0.022870092,0.0,0.9999282,-0.00087506574,-0.0034741058,-0.011437635,0.676509,-1.0,1,0,0,0,0,0,0
1409388731,-0.0021842532,-0.007090212,-0.022870092,0.0,0.9999277,-0.0011325857,-0.0035323766,-0.0114385905,0.6815089,-1.0,1,0,0,0,0,0,0
1409589506,-0.0054514897,-0.001068569,-0.022870092,0.0,0.99993074,-0.0027316723,-0.00050307927,-0.011436209,0.68130076,-1.0,1,0,0,0,0,0,0
1409693255,-0.0028715348,0.0012256887,-0.022870092,0.0,0.9999334,-0.0014286651,0.0006292213,-0.011433903,0.6806785,-1.0,1,0,0,0,0,0,0
1409794024,-0.0038194712,0.0010889233,-0.022870092,0.0,0.99993265,-0.0019033834,0.0005662624,-0.011433736,0.6804273,-1.0,1,0,0,0,0,0,0
1409893212,-0.0038465152,0.0024016544,-0.022870092,0.0,0.9999321,-0.001909398,0.0012227382,-0.011432459,0.67887145,-1.0,1,0,0,0,0,0,0
1410097457,-0.0063410886,-0.0007177694,-0.022870092,0.0,0.9999295,-0.0031744353,-0.00032260496,-0.011435878,0.6777754,-1.0,1,0,0,0,0,0,0
1410198046,-0.004585275,-0.0032836397,-0.022870092,0.0,0.9999306,-0.0023112565,-0.0016154917,-0.011438515,0.677283,-1.0,1,0,0,0,0,0,0
1410302034,-0.0063591576,-0.0037889488,-0.022870092,0.0,0.9999277,-0.0032010227,-0.0018579821,-0.011440744,0.6793136,-1.0,1,0,0,0,0,0,0
1410402370,-0.0072426447,0.009295414,-0.022870092,0.0,0.99991745,-0.0035678938,0.004688765,-0.01141777,0.68916726,-1.0,1,0,0,0,0,0,0
1410502810,-0.00600531,0.005084731,-0.022870092,0.0,0.999927,-0.0029733733,0.00257652,-0.011427076,0.6844216,-1.0,1,0,0,0,0,0,0
1410606852,-0.0061584595,-0.0119846985,-0.022870092,0.0,0.9999117,-0.0031474887,-0.0059566833,-0.011452989,0.68447435,-1.0,1,0,0,0,0,0,0
1410707151,-0.004970736,-0.0077864993,-0.022870092,0.0,0.9999238,-0.0025297024,-0.0038645538,-0.011444349,0.6824549,-1.0,1,0,0,0,0,0,0
1410806849,-0.0014672366,-0.010452758,-0.022870092,0.0,0.99992067,-0.0007933225,-0.005217624,-0.011438473,0.6804019,-1.0,1,0,0,0,0,0,0
1410911635,-0.0012698552,-0.009712593,-0.022870092,0.0,0.9999226,-0.00069040904,-0.0048486986,-0.011437745,0.68064845,-1.0,1,0,0,0,0,0,0
1411111653,-0.0021663138,-0.009762601,-0.022870092,0.0,0.9999221,-0.0011388895,-0.004868573,-0.011439943,0.68195486,-1.0,1,0,0,0,0,0,0
1411215614,0.003326608,-0.0027362616,-0.022870092,0.0,0.99993235,0.001647549,-0.0013870586,-0.011432496,0.68378514,-1.0,1,0,0,0,0,0,0
1411316122,0.0036411495,-0.0065609952,-0.022870092,0.0,0.99992764,0.0017829331,-0.0033010896,-0.011428745,0.6847895,-1.0,1,0,0,0,0,0,0
1411415608,0.0025806106,-0.008706055,-0.022870092,0.0,0.99992436,0.0012404328,-0.00436748,-0.011429064,0.6801555,-1.0,1,0,0,0,0,0,0
1411520475,0.0010068185,-0.0071921353,-0.022870092,0.0,0.99992806,0.00046225288,-0.0036015809,-0.011432913,0.6768832,-1.0,1,0,0,0,0,0,0
1411620341,0.0011326064,-0.0058497773,-0.022870092,0.0,0.9999302,0.0005328182,-0.002931168,-0.011433092,0.6795437,-1.0,1,0,0,0,0,0,0
1411720850,0.00042877573,-0.003986781,-0.022870092,0.0,0.9999326,0.00019157943,-0.0019957102,-0.011434346,0.6798972,-1.0,1,0,0,0,0,0,0
1411824419,-0.0019932662,-0.0058742925,-0.022870092,0.0,0.9999298,-0.001030149,-0.0029255522,-0.0114376675,0.67604566,-1.0,1,0,0,0,0,0,0
1411925541,-0.0036149912,-0.0110904025,-0.022870092,0.0,0.9999175,-0.0018707565,-0.0055241333,-0.0114446245,0.6846461,-1.0,1,0,0,0,0,0,0
1412025264,-0.0072582676,-0.007907269,-0.022870092,0.0,0.99992007,-0.003674069,-0.0039118417,-0.01144898,0.67885435,-1.0,1,0,0,0,0,0,0
1412129254,-0.009569216,-0.0064457995,-0.022870092,0.0,0.9999178,-0.004821105,-0.0031679359,-0.011450027,0.680183,-1.0,1,0,0,0,0,0,0
1412229391,-0.008597099,-0.007782675,-0.022870092,0.0,0.9999176,-0.004342718,-0.0038418847,-0.011451332,0.67736787,-1.0,1,0,0,0,0,0,0
1412330073,-0.007881711,-0.008513652,-0.022870092,0.0,0.9999176,-0.003989227,-0.0042114393,-0.011451379,0.6788657,-1.0,1,0,0,0,0,0,0
1412434116,-0.009159685,-0.0064917537,-0.022870092,0.0,0.99991864,-0.004616618,-0.003193256,-0.011449483,0.67948204,-1.0,1,0,0,0,0,0,0
1412534434,-0.008662808,-0.007633774,-0.022870092,0.0,0.9999178,-0.0043747216,-0.0037670645,-0.011451139,0.6756869,-1.0,1,0,0,0,0,0,0
1412634017,-0.009357319,-0.005951959,-0.022870092,0.0,0.9999191,-0.0047123455,-0.0029222493,-0.011448544,0.679147,-1.0,1,0,0,0,0,0,0
1412738018,-0.009194652,-0.0038237039,-0.022870092,0.0,0.9999221,-0.004618862,-0.0018591365,-0.011443444,0.67987394,-1.0,1,0,0,0,0,0,0
1412838486,-0.008674976,-0.0044957483,-0.022870092,0.0,0.99992263,-0.0043628835,-0.0021981057,-0.011444411,0.6766282,-1.0,1,0,0,0,0,0,0
1412939177,-0.00743749,-0.0048466064,-0.022870092,0.0,0.99992466,-0.003746192,-0.0023806025,-0.011443697,0.6804253,-1.0,1,0,0,0,0,0,0
1413043609,-0.0065347757,-0.00871252,-0.022870092,0.0,0.9999196,-0.00331695,-0.004318577,-0.011448861,0.6851157,-1.0,1,0,0,0,0,0,0
1413147373,-0.00873109,-0.006443129,-0.022870092,0.0,0.9999197,-0.0044020605,-0.0031713988,-0.0114486925,0.6854493,-1.0,1,0,0,0,0,0,0
1413247623,-0.008665927,-0.0033908891,-0.022870092,0.0,0.9999237,-0.004352047,-0.0016457706,-0.01144202,0.680148,-1.0,1,0,0,0,0,0,0
1413348125,-0.010361841,-0.0031209844,-0.022870092,0.0,0.9999199,-0.0051983953,-0.0015011261,-0.011442714,0.68104905,-1.0,1,0,0,0,0,0,0
1413451958,-0.00590846,-0.0048443084,-0.022870092,0.0,0.9999273,-0.0029817203,-0.002388202,-0.011441867,0.6840443,-1.0,1,0,0,0,0,0,0
1413551903,-0.00595011,-0.0062305476,-0.022870092,0.0,0.99992526,-0.003010464,-0.0030810318,-0.011443958,0.6817914,-1.0,1,0,0,0,0,0,0
1413652704,0.0041683163,-0.020319434,-0.022870092,0.0,0.9998811,0.001967741,-0.010182687,-0.01141301,0.68298054,-1.0,1,0,0,0,0,0,0
1413756807,-0.0048217247,-0.005787454,-0.022870092,0.0,0.9999274,-0.0024437814,-0.002865958,-0.011441692,0.6802366,-1.0,1,0,0,0,0,0,0
1413856409,-0.006858285,-0.0049667773,-0.022870092,0.0,0.99992555,-0.003457298,-0.0024439977,-0.01144321,0.6792992,-1.0,1,0,0,0,0,0,0
1413956739,-0.018567532,-0.0065359063,-0.022870092,0.0,0.99988586,-0.009320344,-0.0031614369,-0.011464581,0.6762067,-1.0,1,0,0,0,0,0,0
1414060901,-0.016821316,-0.004973115,-0.022870092,0.0,0.99989593,-0.008438415,-0.0023901314,-0.011455269,0.6779866,-1.0,1,0,0,0,0,0,0
1414161227,-0.014636092,-0.0010940161,-0.022870092,0.0,0.9999077,-0.0073237563,-0.00046327803,-0.011438492,0.681796,-1.0,1,0,0,0,0,0,0
1414261370,-0.012411947,-0.001389698,-0.022870092,0.0,0.99991506,-0.006213472,-0.0006238266,-0.011438887,0.68210804,-1.0,1,0,0,0,0,0,0
1414365494,-0.014241899,-0.0023069668,-0.022870092,0.0,0.9999085,-0.007133609,-0.0010719526,-0.011442714,0.6799995,-1.0,1,0,0,0,0,0,0
1414464934,-0.013820644,-0.0024790852,-0.022870092,0.0,0.9999099,-0.006923984,-0.0011604142,-0.011443079,0.68036395,-1.0,1,0,0,0,0,0,0
1414566013,-0.012818272,-0.0026139175,-0.022870092,0.0,0.99991316,-0.006423613,-0.0012335595,-0.0114429295,0.6780771,-1.0,1,0,0,0,0,0,0
1414669691,-0.013165697,-0.0031761576,-0.022870092,0.0,0.99991155,-0.0066005215,-0.0015126668,-0.011444989,0.67860186,-1.0,1,0,0,0,0,0,0
1414770368,-0.012248148,-0.0012336911,-0.022870092,0.0,0.9999156,-0.0061306884,-0.0005467665,-0.0114383595,0.67979443,-1.0,1,0,0,0,0,0,0
1414869706,-0.012107796,-0.0029693057,-0.022870092,0.0,0.99991506,-0.0060704346,-0.0014153034,-0.011443563,0.67750734,-1.0,1,0,0,0,0,0,0
1414974499,-0.012848193,-0.0015535797,-0.022870092,0.0,0.99991363,-0.006432513,-0.0007032653,-0.011439549,0.6765559,-1.0,1,0,0,0,0,0,0
1415074767,-0.01130458,-0.0013276297,-0.022870092,0.0,0.99991834,-0.0056594796,-0.0005991283,-0.011438364,0.6805698,-1.0,1,0,0,0,0,0,0
1415174841,-0.0098002795,-0.004106278,-0.022870092,0.0,0.99992037,-0.004923266,-0.0019969468,-0.011444695,0.67556536,-1.0,1,0,0,0,0,0,0
1415278810,-0.0073682657,-0.0057212347,-0.022870092,0.0,0.99992365,-0.0037165787,-0.0028182801,-0.011445212,0.6765549,-1.0,1,0,0,0,0,0,0
1415379792,-0.004519161,-0.0049144775,-0.022870092,0.0,0.999929,-0.002287522,-0.002431232,-0.0114402855,0.682363,-1.0,1,0,0,0,0,0,0
1415479644,-0.003802848,-0.006414804,-0.022870092,0.0,0.9999276,-0.0019379647,-0.0031854392,-0.011440815,0.67668587,-1.0,1,0,0,0,0,0,0
1415583684,-0.0017415133,-0.007756753,-0.022870092,0.0,0.9999266,-0.0009150414,-0.0038681552,-0.011438084,0.67556524,-1.0,1,0,0,0,0,0,0
1415684295,0.0023307283,0.00033589,-0.022870092,0.0,0.9999339,0.0011672081,0.00015460822,-0.011434986,0.68530935,-1.0,1,0,0,0,0,0,0
1415784321,0.0026245718,-0.0054101413,-0.022870092,0.0,0.99993014,0.0012812631,-0.0027198936,-0.011431195,0.67526746,-1.0,1,0,0,0,0,0,0
1415888426,-0.000661589,-0.00768127,-0.022870092,0.0,0.99992716,-0.0003746872,-0.0038365917,-0.011435982,0.67573905,-1.0,1,0,0,0,0,0,0
1415989257,-0.005413946,-0.0074342494,-0.022870092,0.0,0.99992394,-0.0027492782,-0.003685906,-0.011444737,0.6764533,-1.0,1,0,0,0,0,0,0
1416088476,-0.006044414,-0.012286689,-0.022870092,0.0,0.999911,-0.0030921951,-0.0061083185,-0.011453095,0.6759943,-1.0,1,0,0,0,0,0,0
1416192081,-0.008512848,-0.01207352,-0.022870092,0.0,0.999907,-0.0043250835,-0.0059876028,-0.011460178,0.67715657,-1.0,1,0,0,0,0,0,0
1416393271,-0.00894802,-0.0094747925,-0.022870092,0.0,0.99991316,-0.0045278226,-0.004685863,-0.011455748,0.6755804,-1.0,1,0,0,0,0,0,0
1416497276,-0.008729174,-0.009197506,-0.022870092,0.0,0.9999143,-0.0044168266,-0.004548485,-0.011454638,0.6769758,-1.0,1,0,0,0,0,0,0
1416597403,-0.008262601,-0.0072257947,-0.022870092,0.0,0.9999194,-0.0041723037,-0.0035653822,-0.01144955,0.6800792,-1.0,1,0,0,0,0,0,0
1416696848,-0.008590203,-0.00890487,-0.022870092,0.0,0.9999153,-0.0043456773,-0.004402975,-0.0114537,0.6763323,-1.0,1,0,0,0,0,0,0
1416803082,-0.00820014,-0.00807939,-0.022870092,0.0,0.99991786,-0.004145949,-0.003992503,-0.01145117,0.6748215,-1.0,1,0,0,0,0,0,0
1416906492,-0.00907692,-0.0064088223,-0.022870092,0.0,0.999919,-0.004574766,-0.0031522673,-0.011449163,0.67890245,-1.0,1,0,0,0,0,0,0
1417005663,-0.008695487,-0.0070704785,-0.022870092,0.0,0.99991876,-0.0043878425,-0.0034852524,-0.011449986,0.6802111,-1.0,1,0,0,0,0,0,0
1417107103,-0.009659536,-0.007558413,-0.022870092,0.0,0.9999156,-0.004872613,-0.0037236796,-0.011452833,0.6802768,-1.0,1,0,0,0,0,0,0
1417211147,-0.009441664,-0.010958861,-0.022870092,0.0,0.99990815,-0.00478309,-0.005425003,-0.011460365,0.67888576,-1.0,1,0,0,0,0,0,0
1417310809,-0.008875235,-0.010003758,-0.022870092,0.0,0.999912,-0.0044944524,-0.004950739,-0.011456736,0.67729694,-1.0,1,0,0,0,0,0,0
1417411173,-0.0083236145,-0.010507898,-0.022870092,0.0,0.9999119,-0.0042215427,-0.0052059474,-0.011456406,0.677354,-1.0,1,0,0,0,0,0,0
1417515563,-0.008036328,-0.008973525,-0.022870092,0.0,0.99991626,-0.0040691546,-0.004440472,-0.011452617,0.6786068,-1.0,1,0,0,0,0,0,0
1417615367,-0.0036827014,-0.010828575,-0.022870092,0.0,0.99991816,-0.0019031131,-0.005392843,-0.011444581,0.67890775,-1.0,1,0,0,0,0,0,0
1417716398,0.02086758,-0.0112816105,-0.022870092,0.0,0.99986494,0.010368255,-0.005759404,-0.011375141,0.6819699,-1.0,1,0,0,0,0,0,0
1417819868,0.045462072,-0.012765601,-0.022870092,0.0,0.99965763,0.02265416,-0.006640588,-0.011286545,0.68672633,-1.0,1,0,0,0,0,0,0
1417919292,0.044923637,-0.013727229,-0.022870092,0.0,0.9996606,0.022379467,-0.007118199,-0.011277499,0.68624854,-1.0,1,0,0,0,0,0,0
1418020356,0.039588723,-0.013941751,-0.022870092,0.0,0.999716,0.0197116,-0.0071953223,-0.011294314,0.6812248,-1.0,1,0,0,0,0,0,0
1418124739,0.035929848,-0.014781779,-0.022870092,0.0,0.99974746,0.017877795,-0.007594555,-0.011299879,0.676889,-1.0,1,0,0,0,0,0,0
1418224451,0.03504995,-0.0128979385,-0.022870092,0.0,0.99976164,0.017448837,-0.0066478928,-0.011319798,0.67556137,-1.0,1,0,0,0,0,0,0
1418325118,0.03247171,-0.011021019,-0.022870092,0.0,0.99978864,0.016170831,-0.0056950375,-0.011343658,0.675443,-1.0,1,0,0,0,0,0,0
1418428532,0.031700555,-0.010534525,-0.022870092,0.0,0.9997961,0.015788138,-0.005447467,-0.011349724,0.67978704,-1.0,1,0,0,0,0,0,0
1418529235,0.03137995,-0.010438068,-0.022870092,0.0,0.9997989,0.01562842,-0.0053974283,-0.011351355,0.6795201,-1.0,1,0,0,0,0,0,0
1418629868,0.029582432,-0.012851382,-0.022870092,0.0,0.9998057,0.014715936,-0.006593648,-0.011338276,0.6786051,-1.0,1,0,0,0,0,0,0
1418733370,0.027138054,-0.010785262,-0.022870092,0.0,0.9998289,0.013505869,-0.005546908,-0.011360413,0.6800306,-1.0,1,0,0,0,0,0,0
1418833240,0.024838215,-0.008803635,-0.022870092,0.0,0.9998484,0.012367527,-0.004543181,-0.011379142,0.6790945,-1.0,1,0,0,0,0,0,0
1418934803,0.020248532,-0.0112359,-0.022870092,0.0,0.9998682,0.010059034,-0.005733031,-0.011377158,0.67976665,-1.0,1,0,0,0,0,0,0
1419038726,0.014970255,-0.011926669,-0.022870092,0.0,0.9998893,0.007416249,-0.0060483306,-0.01138964,0.6774562,-1.0,1,0,0,0,0,0,0
1419137666,0.0097745815,-0.010942301,-0.022870092,0.0,0.99990803,0.0048243175,-0.0055265846,-0.0114077525,0.6787816,-1.0,1,0,0,0,0,0,0
1419238365,0.0053045936,-0.0101822475,-0.022870092,0.0,0.9999183,0.0025938703,-0.005121079,-0.011421108,0.6797071,-1.0,1,0,0,0,0,0,0
1419343101,0.0007984959,-0.0058409683,-0.022870092,0.0,0.99993026,0.00036582505,-0.0029248542,-0.011433581,0.68559515,-1.0,1,0,0,0,0,0,0
1419442873,-0.0018572585,-0.005752246,-0.022870092,0.0,0.99993,-0.00096145243,-0.002865311,-0.011437414,0.6797306,-1.0,1,0,0,0,0,0,0
1419543036,-0.0031088893,-0.0024836299,-0.022870092,0.0,0.99993265,-0.0015685409,-0.0012239572,-0.0114367055,0.68118846,-1.0,1,0,0,0,0,0,0
1419646767,-0.006617474,-0.0011141611,-0.022870092,0.0,0.99992895,-0.003314884,-0.0005192064,-0.011436574,0.6798537,-1.0,1,0,0,0,0,0,0
1419748351,-0.008923452,0.0021662335,-0.022870092,0.0,0.9999241,-0.004449032,0.0011340538,-0.011429846,0.6813636,-1.0,1,0,0,0,0,0,0
1419847664,-0.0088435095,0.0015121035,-0.022870092,0.0,0.99992466,-0.004412805,0.0008065565,-0.01143134,0.6777865,-1.0,1,0,0,0,0,0,0
1419951624,-0.009707953,-0.0014722008,-0.022870092,0.0,0.9999225,-0.004862055,-0.0006805395,-0.011438234,0.6809994,-1.0,1,0,0,0,0,0,0
1420051571,-0.011284119,-0.004293498,-0.022870092,0.0,0.99991626,-0.0056661954,-0.0020820575,-0.011446701,0.68051475,-1.0,1,0,0,0,0,0,0
1420151670,-0.010719552,-0.0016584573,-0.022870092,0.0,0.99991983,-0.0053688805,-0.00076787476,-0.011439074,0.6792782,-1.0,1,0,0,0,0,0,0
1420256108,-0.010690389,-0.0036075606,-0.022870092,0.0,0.9999186,-0.005365437,-0.0017425149,-0.011444256,0.672586,-1.0,1,0,0,0,0,0,0
1420356804,-0.016440112,-0.004980461,-0.022870092,0.0,0.9998975,-0.008247876,-0.002395988,-0.011454843,0.67710614,-1.0,1,0,0,0,0,0,0
1420456419,-0.018490586,-0.0042374306,-0.022870092,0.0,0.9998894,-0.009268763,-0.0020127685,-0.011453869,0.677359,-1.0,1,0,0,0,0,0,0
1420557213,-0.020397875,-0.0024511607,-0.022870092,0.0,0.99988174,-0.0102121,-0.0011088154,-0.011446692,0.67541605,-1.0,1,0,0,0,0,0,0
1420661522,-0.01773325,-0.000837861,-0.022870092,0.0,0.99989516,-0.00887072,-0.00031749994,-0.011438061,0.6774736,-1.0,1,0,0,0,0,0,0
1420760852,-0.016909698,-0.0017942534,-0.022870092,0.0,0.9998984,-0.008464451,-0.0008003576,-0.011441968,0.6764138,-1.0,1,0,0,0,0,0,0
1420865258,-0.015291428,0.0013389935,-0.022870092,0.0,0.9999052,-0.007637483,0.0007568597,-0.011429341,0.6792507,-1.0,1,0,0,0,0,0,0
1420965542,-0.011989006,0.0008396603,-0.022870092,0.0,0.9999166,-0.0059892745,0.0004883406,-0.011432075,0.6788493,-1.0,1,0,0,0,0,0,0
1421066870,-0.01054309,-0.00040081254,-0.022870092,0.0,0.99992067,-0.0052734674,-0.00014011162,-0.011435695,0.68153554,-1.0,1,0,0,0,0,0,0
1421169985,-0.009495839,-0.0005397836,-0.022870092,0.0,0.9999233,-0.004750677,-0.00021557986,-0.011435952,0.6803245,-1.0,1,0,0,0,0,0,0
1421270117,-0.005021977,-0.003634668,-0.022870092,0.0,0.9999298,-0.002531598,-0.0017884959,-0.011439305,0.6800474,-1.0,1,0,0,0,0,0,0
1421370359,-0.0048789885,-0.0055288724,-0.022870092,0.0,0.99992776,-0.0024709336,-0.0027363487,-0.011441463,0.68094254,-1.0,1,0,0,0,0,0,0
1421474784,-0.004925045,-0.009689876,-0.022870092,0.0,0.9999197,-0.002517731,-0.004816429,-0.011446559,0.67817175,-1.0,1,0,0,0,0,0,0
1421575109,-0.0030496377,-0.011456236,-0.022870092,0.0,0.9999169,-0.0015901931,-0.0057102703,-0.01144333,0.67687345,-1.0,1,0,0,0,0,0,0
1421675117,-0.0036736818,-0.011655584,-0.022870092,0.0,0.99991584,-0.0019033276,-0.0058063646,-0.011445287,0.677275,-1.0,1,0,0,0,0,0,0
1421779127,-0.0037584163,-0.011222632,-0.022870092,0.0,0.999917,-0.0019432185,-0.0055894214,-0.011445141,0.6781257,-1.0,1,0,0,0,0,0,0
1421878464,0.007836183,-0.016549591,-0.022870092,0.0,0.99989307,0.0038230724,-0.008318897,-0.011401898,0.67711544,-1.0,1,0,0,0,0,0,0
1421980008,0.0058931373,-0.035020504,-0.022870092,0.0,0.9997776,0.002745705,-0.017541822,-0.011381406,0.6792827,-1.0,1,0,0,0,0,0,0
1422079538,0.0029866165,-0.042705234,-0.022870092,0.0,0.9997059,0.0012487257,-0.021366648,-0.011400297,0.67703515,-1.0,1,0,0,0,0,0,0
1422183875,4.7915713e-05,-0.042821825,-0.022870092,0.0,0.99970543,-0.00022085992,-0.021408152,-0.011431663,0.6755059,-1.0,1,0,0,0,0,0,0
1422283756,-0.00069889164,-0.04084318,-0.022870092,0.0,0.99972594,-0.00058285065,-0.02041484,-0.011439548,0.67693233,-1.0,1,0,0,0,0,0,0
1422384641,-0.002419086,-0.036108408,-0.022870092,0.0,0.9997707,-0.0014157012,-0.0180382,-0.01145476,0.675999,-1.0,1,0,0,0,0,0,0
1422488447,-0.0035044658,-0.03465289,-0.022870092,0.0,0.9997827,-0.0019499685,-0.017304383,-0.011463419,0.6784974,-1.0,1,0,0,0,0,0,0
1422588361,-0.0039597554,-0.032002117,-0.022870092,0.0,0.9998043,-0.0021624542,-0.015976662,-0.011464988,0.6741197,-1.0,1,0,0,0,0,0,0
1422692385,0.023440251,-0.018217804,-0.022870092,0.0,0.9998257,0.011614454,-0.009241562,-0.011326791,0.67597616,-1.0,1,0,0,0,0,0,0
1422792906,0.0026918314,-0.026030777,-0.022870092,0.0,0.99984926,0.0011968892,-0.0130295465,-0.011416301,0.6862744,-1.0,1,0,0,0,0,0,0
1422893743,0.004924329,-0.028551709,-0.022870092,0.0,0.9998301,0.0022985146,-0.014302542,-0.011398452,0.6787389,-1.0,1,0,0,0,0,0,0
1422992944,0.004731242,-0.028088162,-0.022870092,0.0,0.9998336,0.0022046454,-0.014069709,-0.011400417,0.6777965,-1.0,1,0,0,0,0,0,0
1423097326,0.004748006,-0.029009055,-0.022870092,0.0,0.999827,0.0022077458,-0.014530173,-0.011399132,0.67736846,-1.0,1,0,0,0,0,0,0
1423197664,0.005599813,-0.030121636,-0.022870092,0.0,0.9998178,0.002627192,-0.015091217,-0.011391291,0.67447984,-1.0,1,0,0,0,0,0,0
1423297700,0.006309275,-0.029277336,-0.022870092,0.0,0.9998231,0.0029867045,-0.014673184,-0.01138734,0.6769339,-1.0,1,0,0,0,0,0,0
1423401669,0.009060443,-0.025247592,-0.022870092,0.0,0.9998454,0.004385203,-0.012674304,-0.011376584,0.68004507,-1.0,1,0,0,0,0,0,0
1423502351,0.006949208,-0.023766672,-0.022870092,0.0,0.99985844,0.003338245,-0.011921938,-0.011392634,0.6791134,-1.0,1,0,0,0,0,0,0
1423606419,0.0056021167,-0.024348684,-0.022870092,0.0,0.999857,0.0026614568,-0.012205224,-0.011399807,0.67546976,-1.0,1,0,0,0,0,0,0
1423706840,0.0055754627,-0.023702044,-0.022870092,0.0,0.99986094,0.002651839,-0.0118817985,-0.011400917,0.6700137,-1.0,1,0,0,0,0,0,0
1423806806,0.0054283147,-0.02310636,-0.022870092,0.0,0.9998646,0.0025816907,-0.011583159,-0.011402638,0.67210674,-1.0,1,0,0,0,0,0,0
1423906499,0.004546251,-0.020046184,-0.022870092,0.0,0.9998821,0.002158251,-0.010048235,-0.01141141,0.67388934,-1.0,1,0,0,0,0,0,0
1424010859,0.0053183245,-0.022144506,-0.022870092,0.0,0.9998702,0.0025322163,-0.011101667,-0.011404617,0.6734623,-1.0,1,0,0,0,0,0,0
1424111691,0.0036676773,-0.02261759,-0.022870092,0.0,0.9998692,0.0017042896,-0.011328763,-0.011413309,0.6752322,-1.0,1,0,0,0,0,0,0
1424212511,0.0006070916,-0.02272847,-0.022870092,0.0,0.99987006,0.00017356142,-0.011366717,-0.01143061,0.6781785,-1.0,1,0,0,0,0,0,0
1424315907,-0.0011800455,-0.023422705,-0.022870092,0.0,0.99986583,-0.0007238576,-0.01170357,-0.011440921,0.67366683,-1.0,1,0,0,0,0,0,0
1424415386,-0.0014956301,-0.024266921,-0.022870092,0.0,0.99986064,-0.0008864512,-0.012123814,-0.0114430245,0.6694942,-1.0,1,0,0,0,0,0,0
1424516494,-0.0015692641,-0.02372128,-0.022870092,0.0,0.99986386,-0.00092014624,-0.01185061,-0.0114432955,0.67455107,-1.0,1,0,0,0,0,0,0
1424620727,-0.0013427984,-0.023585772,-0.022870092,0.0,0.9998648,-0.0008061546,-0.011784161,-0.011441916,0.67616117,-1.0,1,0,0,0,0,0,0
1424720322,-0.0011139693,-0.023494221,-0.022870092,0.0,0.9998654,-0.0006912324,-0.011739701,-0.011440549,0.6738425,-1.0,1,0,0,0,0,0,0
1424820917,-0.0018555028,-0.023426827,-0.022870092,0.0,0.9998655,-0.0010615643,-0.011701767,-0.011444875,0.67435133,-1.0,1,0,0,0,0,0,0
1424925730,0.00089345896,-0.02299363,-0.022870092,0.0,0.9998685,0.00031520988,-0.0115009155,-0.011428904,0.6762479,-1.0,1,0,0,0,0,0,0
1425025203,-0.00031342029,-0.02072927,-0.022870092,0.0,0.9998809,-0.0002752068,-0.01036198,-0.011435806,0.6779781,-1.0,1,0,0,0,0,0,0
1425125548,-0.0027867642,-0.01921952,-0.022870092,0.0,0.99988735,-0.0015031099,-0.009593042,-0.011447647,0.67351073,-1.0,1,0,0,0,0,0,0
1425229256,0.007017091,-0.017366182,-0.022870092,0.0,0.9998911,0.003408889,-0.0087224785,-0.0114038335,0.67566776,-1.0,1,0,0,0,0,0,0
1425328898,0.005586851,-0.015054983,-0.022870092,0.0,0.99990267,0.0027070858,-0.00755884,-0.011413402,0.68066806,-1.0,1,0,0,0,0,0,0
1425430279,0.006632345,-0.013825408,-0.022870092,0.0,0.9999055,0.003236826,-0.006950078,-0.011411538,0.6782272,-1.0,1,0,0,0,0,0,0
1425534339,0.005027707,-0.0133717405,-0.022870092,0.0,0.9999093,0.00243718,-0.0067141065,-0.0114177,0.6820256,-1.0,1,0,0,0,0,0,0
1425634034,0.0047304076,-0.013560036,-0.022870092,0.0,0.99990904,0.0022874651,-0.006806548,-0.011418467,0.6771667,-1.0,1,0,0,0,0,0,0
1425735263,0.0037211536,-0.011293596,-0.022870092,0.0,0.9999171,0.0017958549,-0.005667664,-0.01142409,0.67851454,-1.0,1,0,0,0,0,0,0
1425839151,0.0038155438,-0.008844578,-0.022870092,0.0,0.9999231,0.0018570595,-0.0044437917,-0.011426229,0.6750912,-1.0,1,0,0,0,0,0,0
1425938699,-0.0020496568,-0.02487482,-0.022870092,0.0,0.9998566,-0.0011668974,-0.012424551,-0.011446651,0.6847933,-1.0,1,0,0,0,0,0,0
1426039152,0.0018849323,-0.015353517,-0.022870092,0.0,0.9999048,0.0008545953,-0.007686954,-0.011427221,0.67861253,-1.0,1,0,0,0,0,0,0
1426143883,0.0025008367,-0.014098043,-0.022870092,0.0,0.9999091,0.0011697018,-0.007062794,-0.011425692,0.6747324,-1.0,1,0,0,0,0,0,0
1426247850,0.0029982387,-0.015571796,-0.022870092,0.0,0.9999033,0.0014099462,-0.0078024436,-0.011422766,0.6771423,-1.0,1,0,0,0,0,0,0
1426347645,0.0018410648,-0.017140925,-0.022870092,0.0,0.99989754,0.00082243804,-0.00858032,-0.011426484,0.6763906,-1.0,1,0,0,0,0,0,0
1426451663,0.00048173885,-0.01627997,-0.022870092,0.0,0.9999015,0.00014776767,-0.008142117,-0.011432456,0.6758423,-1.0,1,0,0,0,0,0,0
1426551773,0.0005891343,-0.014001555,-0.022870092,0.0,0.9999101,0.00021448887,-0.0070036305,-0.011432453,0.6783788,-1.0,1,0,0,0,0,0,0
1426652582,-0.0024846748,-0.032449923,-0.022870092,0.0,0.99980205,-0.0014276132,-0.01620897,-0.011453438,0.68678033,-1.0,1,0,0,0,0,0,0
1426752777,-0.0002692691,-0.016180119,-0.022870092,0.0,0.9999019,-0.0002271285,-0.008087903,-0.011435511,0.67722607,-1.0,1,0,0,0,0,0,0
1426856966,0.017897716,-0.017141502,-0.022870092,0.0,0.99985874,0.008849826,-0.008672065,-0.011357227,0.6826191,-1.0,1,0,0,0,0,0,0
1426956447,0.004447727,-0.016667109,-0.022870092,0.0,0.9998976,0.0021283478,-0.008358321,-0.01141584,0.6850156,-1.0,1,0,0,0,0,0,0
1427060609,0.0073478385,-0.014422936,-0.022870092,0.0,0.9999022,0.003591115,-0.0072528953,-0.011407931,0.67783535,-1.0,1,0,0,0,0,0,0
1427161253,0.0054008835,-0.017225329,-0.022870092,0.0,0.9998942,0.0026016792,-0.008642841,-0.0114110755,0.6793129,-1.0,1,0,0,0,0,0,0
1427261127,0.0038167636,-0.016740777,-0.022870092,0.0,0.99989796,0.0018124768,-0.008391549,-0.011418402,0.6784444,-1.0,1,0,0,0,0,0,0
1427361137,0.006269886,-0.017883549,-0.022870092,0.0,0.99989,0.0030323623,-0.008976873,-0.011406253,0.6819597,-1.0,1,0,0,0,0,0,0
1427465344,0.0044702003,-0.019014388,-0.022870092,0.0,0.99988717,0.0021261408,-0.009531963,-0.011413003,0.67690647,-1.0,1,0,0,0,0,0,0
1427565732,0.004519484,0.0032465523,-0.022870092,0.0,0.99993074,0.002278151,0.0015973254,-0.011438421,0.6825299,-1.0,1,0,0,0,0,0,0
1427666496,0.00049747084,-0.015945952,-0.022870092,0.0,0.99990284,0.00015754286,-0.007975213,-0.01143245,0.6857656,-1.0,1,0,0,0,0,0,0
1427770239,-0.0019009801,-0.014230167,-0.022870092,0.0,0.9999088,-0.0010317625,-0.0071036858,-0.011441265,0.68142134,-1.0,1,0,0,0,0,0,0
1427870519,0.00045954352,-0.014330478,-0.022870092,0.0,0.999909,0.00014781849,-0.0071673365,-0.011432857,0.6844967,-1.0,1,0,0,0,0,0,0
1427971049,-0.0016103745,-0.032125693,-0.022870092,0.0,0.9998052,-0.000988698,-0.016051892,-0.011446251,0.68937624,-1.0,1,0,0,0,0,0,0
1428074953,0.0019279878,-0.0298006,-0.022870092,0.0,0.99982333,0.00079344824,-0.014909789,-0.01141916,0.68326354,-1.0,1,0,0,0,0,0,0
1428174813,0.0037825068,-0.024296092,-0.022870092,0.0,0.99985933,0.0017520821,-0.012168555,-0.01141096,0.68090403,-1.0,1,0,0,0,0,0,0
1428275159,0.0044098445,-0.014632468,-0.022870092,0.0,0.9999056,0.0021210585,-0.007340885,-0.011418332,0.6791538,-1.0,1,0,0,0,0,0,0
1428379904,0.004017314,-0.011222928,-0.022870092,0.0,0.99991703,0.0019443271,-0.005634024,-0.011423325,0.6773337,-1.0,1,0,0,0,0,0,0
1428479296,0.0031435585,-0.006961701,-0.022870092,0.0,0.9999274,0.0015318635,-0.0034985843,-0.011429242,0.6798715,-1.0,1,0,0,0,0,0,0
1428579927,0.0012502378,-0.004086075,-0.022870092,0.0,0.99993235,0.00060171494,-0.0020500503,-0.011433493,0.6779906,-1.0,1,0,0,0,0,0,0
1428683816,0.0030435887,-0.006640908,-0.022870092,0.0,0.999928,0.0014837174,-0.0033376282,-0.011429669,0.67964655,-1.0,1,0,0,0,0,0,0
1428784142,0.0009044689,-0.0059380583,-0.022870092,0.0,0.99993014,0.00041825263,-0.0029740012,-0.011433403,0.6751952,-1.0,1,0,0,0,0,0,0
1428884656,0.0012651228,-0.0034145173,-0.022870092,0.0,0.99993294,0.0006129969,-0.0017143792,-0.011433698,0.6795065,-1.0,1,0,0,0,0,0,0
1428988774,0.00028551032,-0.0077060475,-0.022870092,0.0,0.9999272,9.8686345e-05,-0.003854395,-0.011434163,0.67859876,-1.0,1,0,0,0,0,0,0
1429088093,0.00013664472,-0.012419544,-0.022870092,0.0,0.99991536,-2.6904474e-06,-0.0062101074,-0.011434152,0.6783931,-1.0,1,0,0,0,0,0,0
1429189757,0.0005422206,-0.015586509,-0.022870092,0.0,0.9999043,0.00018197096,-0.007795765,-0.011432336,0.6815378,-1.0,1,0,0,0,0,0,0
1429293384,0.0012019589,-0.016566347,-0.022870092,0.0,0.9999002,0.00050620426,-0.008289408,-0.0114294235,0.6756384,-1.0,1,0,0,0,0,0,0
1429392925,0.0018555985,-0.013956838,-0.022870092,0.0,0.99990994,0.00084791984,-0.0069885124,-0.0114280395,0.67752653,-1.0,1,0,0,0,0,0,0
1429597203,0.004397267,-0.01196572,-0.022870092,0.0,0.99991447,0.0021300367,-0.006007559,-0.011421414,0.6750987,-1.0,1,0,0,0,0,0,0
1429798052,0.0060455883,0.034218498,-0.022870092,0.0,0.99978316,0.0032177796,0.017072657,-0.011484782,0.67627025,-1.0,1,0,0,0,0,0,0
1430006331,0.0020750323,0.050808743,-0.022870092,0.0,0.9996112,0.0013275758,0.025388105,-0.011457454,0.6837819,-1.0,1,0,0,0,0,0,0
1430107121,-0.0025589822,0.041744538,-0.022870092,0.0,0.9997163,-0.0010404759,0.020884002,-0.011405596,0.67549497,-1.0,1,0,0,0,0,0,0
1430206488,-0.00585355,0.029595662,-0.022870092,0.0,0.99982136,-0.0027570557,0.014829724,-0.011390191,0.6792698,-1.0,1,0,0,0,0,0,0
1430411166,-0.011659465,0.008300434,-0.022870092,0.0,0.9999093,-0.005781811,0.004216524,-0.011410312,0.6754624,-1.0,1,0,0,0,0,0,0
1430511678,-0.015160869,0.00058930274,-0.022870092,0.0,0.9999058,-0.0075764963,0.00038130354,-0.011432234,0.67975235,-1.0,1,0,0,0,0,0,0
1430615648,-0.014506237,-0.00521544,-0.022870092,0.0,0.99990475,-0.007282374,-0.002524541,-0.011453369,0.67789567,-1.0,1,0,0,0,0,0,0
1431020579,0.009680742,0.014305456,-0.022870092,0.0,0.99989694,0.0049217003,0.007096768,-0.011468992,0.675457,-1.0,1,0,0,0,0,0,0
1431120628,0.0043042866,0.013021504,-0.022870092,0.0,0.99991095,0.0022264037,0.006485656,-0.011448539,0.6773109,-1.0,1,0,0,0,0,0,0
1431224515,0.0010822936,0.0068381084,-0.022870092,0.0,0.9999286,0.0005802043,0.0034126358,-0.011436579,0.67992574,-1.0,1,0,0,0,0,0,0
1431325190,0.029985406,0.022464193,-0.022870092,0.0,0.9997573,0.015118634,0.011058441,-0.011601169,0.6780452,-1.0,1,0,0,0,0,0,0
1431425663,0.012314937,0.00525673,-0.022870092,0.0,0.999912,0.0061870595,0.0025577315,-0.011450725,0.69038767,-1.0,1,0,0,0,0,0,0
1431629404,0.012452696,-0.0013859635,-0.022870092,0.0,0.99991506,0.0062179756,-0.00076411956,-0.011430259,0.6789537,-1.0,1,0,0,0,0,0,0
1431729973,0.009684693,-0.00413671,-0.022870092,0.0,0.9999209,0.0048183496,-0.002123565,-0.011424624,0.6751541,-1.0,1,0,0,0,0,0,0
1431834094,0.007038651,-0.0070781643,-0.022870092,0.0,0.9999223,0.0034785978,-0.003579064,-0.011422199,0.68291,-1.0,1,0,0,0,0,0,0
1432034045,-0.00073026033,-0.018670572,-0.022870092,0.0,0.999891,-0.0004718359,-0.009330365,-0.011437707,0.6726185,-1.0,1,0,0,0,0,0,0
1432138100,-0.00024710307,-0.01754162,-0.022870092,0.0,0.99989617,-0.00022382983,-0.008768711,-0.011435441,0.6748098,-1.0,1,0,0,0,0,0,0
1432240426,0.02056722,-0.0048093796,-0.022870092,0.0,0.9998791,0.010255231,-0.0025219915,-0.011409432,0.6731734,-1.0,1,0,0,0,0,0,0
1432338810,0.02993967,-0.0044002496,-0.022870092,0.0,0.99982053,0.014943106,-0.0023709033,-0.011400555,0.6732532,-1.0,1,0,0,0,0,0,0
1432442808,0.04983257,-0.0065608947,-0.022870092,0.0,0.9996198,0.024874447,-0.0035640907,-0.011349464,0.67682976,-1.0,1,0,0,0,0,0,0
1432543651,0.050390907,-0.0068094535,-0.022870092,0.0,0.99961245,0.025152074,-0.0036914893,-0.011345332,0.6738144,-1.0,1,0,0,0,0,0,0
1432644598,0.041954916,-0.007609337,-0.022870092,0.0,0.9997083,0.020930901,-0.0040434273,-0.0113523975,0.6767715,-1.0,1,0,0,0,0,0,0
1432748314,0.04284005,-0.00666875,-0.022870092,0.0,0.9997005,0.021378746,-0.0035783,-0.011360698,0.6796459,-1.0,1,0,0,0,0,0,0
1432847643,0.036559273,-0.0036987797,-0.022870092,0.0,0.99976623,0.018256249,-0.002057971,-0.011399065,0.67321897,-1.0,1,0,0,0,0,0,0
1432947909,0.032715607,-0.0065429676,-0.022870092,0.0,0.9997961,0.016318517,-0.0034578654,-0.011379697,0.67302763,-1.0,1,0,0,0,0,0,0
1433053115,0.027126156,-0.006559353,-0.022870092,0.0,0.9998378,0.0135242045,-0.0034342401,-0.011389205,0.6759077,-1.0,1,0,0,0,0,0,0
1433156729,0.025506744,-0.007155615,-0.022870092,0.0,0.9998474,0.012711202,-0.0037231026,-0.011388169,0.67184305,-1.0,1,0,0,0,0,0,0
1433256089,0.02425309,-0.0045708776,-0.022870092,0.0,0.9998588,0.012099293,-0.0024237803,-0.011406215,0.6755926,-1.0,1,0,0,0,0,0,0
1433360434,0.025733747,0.00047102803,-0.022870092,0.0,0.9998518,0.01286837,8.835309e-05,-0.011436879,0.67438734,-1.0,1,0,0,0,0,0,0
1433461180,0.026138278,0.0013836678,-0.022870092,0.0,0.9998489,0.013075821,0.0005422909,-0.011442858,0.6754348,-1.0,1,0,0,0,0,0,0
1433561203,0.017111758,-0.016970562,-0.022870092,0.0,0.99986285,0.008457885,-0.008582145,-0.011361375,0.68683076,-1.0,1,0,0,0,0,0,0
1433661681,0.020345723,-0.007590651,-0.022870092,0.0,0.9998761,0.010128552,-0.003911194,-0.011395517,0.6812544,-1.0,1,0,0,0,0,0,0
1433765514,0.004366259,-0.0015914162,-0.022870092,0.0,0.999932,0.0021738855,-0.0008206177,-0.0114330305,0.6862282,-1.0,1,0,0,0,0,0,0
1433866690,0.010329532,-0.0055055744,-0.022870092,0.0,0.9999176,0.005132909,-0.0028116244,-0.011420384,0.68695074,-1.0,1,0,0,0,0,0,0
1433966057,0.010602115,-0.002939973,-0.022870092,0.0,0.9999196,0.005283872,-0.0015304855,-0.011426833,0.6782016,-1.0,1,0,0,0,0,0,0
1434069659,0.013874316,-0.0017403319,-0.022870092,0.0,0.99991024,0.0069266967,-0.00094941235,-0.011428482,0.6762644,-1.0,1,0,0,0,0,0,0
1434170376,0.01704915,0.0044512614,-0.022870092,0.0,0.9998956,0.008549342,0.0021279268,-0.011453323,0.6785134,-1.0,1,0,0,0,0,0,0
1434274390,0.019356383,0.007071908,-0.022870092,0.0,0.99988115,0.009717777,0.0034248838,-0.011468408,0.67830807,-1.0,1,0,0,0,0,0,0
1434374884,0.024191491,0.007045359,-0.022870092,0.0,0.9998548,0.012134862,0.0033838758,-0.011476495,0.6792725,-1.0,1,0,0,0,0,0,0
1434475584,0.025861109,0.0051388703,-0.022870092,0.0,0.99984735,0.012958685,0.002421196,-0.011467025,0.67535776,-1.0,1,0,0,0,0,0,0
1434574807,0.025258143,0.0061162803,-0.022870092,0.0,0.99984974,0.012662817,0.0029132853,-0.01147245,0.6819897,-1.0,1,0,0,0,0,0,0
1434679651,0.021298202,0.0051670955,-0.022870092,0.0,0.9998743,0.010677708,0.002461462,-0.011461621,0.6862968,-1.0,1,0,0,0,0,0,0
1434779948,0.019363679,0.0009977459,-0.022870092,0.0,0.9998876,0.009686758,0.0003881088,-0.01143909,0.68005764,-1.0,1,0,0,0,0,0,0
1434879647,0.017390665,0.0012942194,-0.022870092,0.0,0.9998965,0.008702052,0.0005476148,-0.011439987,0.67891,-1.0,1,0,0,0,0,0,0
1434983321,0.000752923,-0.007211238,-0.022870092,0.0,0.99992806,0.000335205,-0.00360968,-0.011433365,0.6845874,-1.0,1,0,0,0,0,0,0
1435083609,0.013510602,-0.0016507605,-0.022870092,0.0,0.99991155,0.0067453673,-0.0009025522,-0.011428957,0.67610806,-1.0,1,0,0,0,0,0,0
1435184437,0.012215293,-0.0057872687,-0.022870092,0.0,0.999912,0.0060740956,-0.0029632263,-0.011416864,0.6806815,-1.0,1,0,0,0,0,0,0
1435288452,0.036538783,-0.0025400952,-0.022870092,0.0,0.99976724,0.018252647,-0.0014786472,-0.011409678,0.678917,-1.0,1,0,0,0,0,0,0
1435488446,0.013404254,-0.0071813543,-0.022870092,0.0,0.999906,0.006660538,-0.0036669902,-0.011410402,0.67316353,-1.0,1,0,0,0,0,0,0
1435593260,0.013921216,-0.007317325,-0.022870092,0.0,0.999904,0.0069182157,-0.0037379186,-0.01140898,0.6775023,-1.0,1,0,0,0,0,0,0
1435693330,0.011150621,-0.0042399717,-0.022870092,0.0,0.999917,0.005550663,-0.0021835647,-0.011422776,0.67558366,-1.0,1,0,0,0,0,0,0
1435793252,0.010829238,-0.0042842696,-0.022870092,0.0,0.9999178,0.0053897323,-0.0022038764,-0.011423006,0.6738131,-1.0,1,0,0,0,0,0,0
1435897245,0.009134636,-0.0028591105,-0.022870092,0.0,0.9999232,0.0045506526,-0.0014816725,-0.011428138,0.67577636,-1.0,1,0,0,0,0,0,0
1435997984,0.008939112,-0.0022875976,-0.022870092,0.0,0.99992406,0.004456167,-0.0011948205,-0.011429563,0.6773606,-1.0,1,0,0,0,0,0,0
1436097695,0.0081723565,-0.0023973892,-0.022870092,0.0,0.9999256,0.0040721893,-0.0012453303,-0.011429796,0.6792099,-1.0,1,0,0,0,0,0,0
1436202043,0.004809902,-0.0035893049,-0.022870092,0.0,0.9999302,0.0023842661,-0.001822029,-0.01143043,0.67243165,-1.0,1,0,0,0,0,0,0
1436302583,0.0040205284,-0.0032443176,-0.022870092,0.0,0.99993134,0.0019915795,-0.0016450356,-0.011431499,0.674999,-1.0,1,0,0,0,0,0,0
1436402806,0.0058307187,-0.0040381723,-0.022870092,0.0,0.9999284,0.0028920714,-0.0020522806,-0.0114288395,0.6759022,-1.0,1,0,0,0,0,0,0
1436506502,0.0065514324,-0.0037356238,-0.022870092,0.0,0.9999276,0.0032541326,-0.0019051358,-0.011428597,0.6775794,-1.0,1,0,0,0,0,0,0
1436607177,0.007559664,-0.003213205,-0.022870092,0.0,0.99992627,0.0037611998,-0.0016497067,-0.011428629,0.67640483,-1.0,1,0,0,0,0,0,0
1436706829,0.0073363953,-0.000693752,-0.022870092,0.0,0.9999279,0.003663983,-0.00038879595,-0.011433448,0.68020225,-1.0,1,0,0,0,0,0,0
1436807618,0.0089592775,-0.0028336833,-0.022870092,0.0,0.9999237,0.0044631246,-0.0014679579,-0.011428324,0.6767916,-1.0,1,0,0,0,0,0,0
1436911512,0.009614889,-0.005053905,-0.022870092,0.0,0.99992,0.004778201,-0.002581727,-0.011422482,0.67390823,-1.0,1,0,0,0,0,0,0
1437011653,0.012044552,-0.005320275,-0.022870092,0.0,0.99991316,0.0059914067,-0.0027287751,-0.011418532,0.67309916,-1.0,1,0,0,0,0,0,0
1437115847,0.012751139,-0.0053694174,-0.022870092,0.0,0.9999109,0.006344388,-0.0027573784,-0.0114174085,0.67962235,-1.0,1,0,0,0,0,0,0
1437216604,0.020436754,-0.0041463366,-0.022870092,0.0,0.9998805,0.010193807,-0.002189766,-0.011412992,0.6860891,-1.0,1,0,0,0,0,0,0
1437316364,0.018899476,-0.004057285,-0.022870092,0.0,0.9998881,0.009425765,-0.002136472,-0.011415094,0.6805472,-1.0,1,0,0,0,0,0,0
1437420357,0.017717866,-0.005176712,-0.022870092,0.0,0.9998923,0.008828611,-0.002689381,-0.011411383,0.6779176,-1.0,1,0,0,0,0,0,0
1437520341,0.017557772,-0.0025962724,-0.022870092,0.0,0.9998954,0.008763348,-0.0013983842,-0.011422952,0.677626,-1.0,1,0,0,0,0,0,0
1437620759,0.016455654,-0.0006367592,-0.022870092,0.0,0.99990076,0.008223557,-0.00041243047,-0.01143179,0.67939603,-1.0,1,0,0,0,0,0,0
1437721248,0.016187571,-0.000121592675,-0.022870092,0.0,0.9999019,0.008092471,-0.00015334014,-0.01143393,0.68189776,-1.0,1,0,0,0,0,0,0
1437824896,0.015616616,0.0024131858,-0.022870092,0.0,0.99990326,0.00782151,0.0011171916,-0.011443862,0.68128556,-1.0,1,0,0,0,0,0,0
1437925151,0.015973508,0.00048458658,-0.022870092,0.0,0.99990267,0.007988918,0.00015094379,-0.011436368,0.67876345,-1.0,1,0,0,0,0,0,0
1438029559,0.015628353,-0.00038953588,-0.022870092,0.0,0.9999041,0.0078113596,-0.0002841019,-0.011432926,0.67840606,-1.0,1,0,0,0,0,0,0
1438130041,0.014578035,0.0018524824,-0.022870092,0.0,0.99990755,0.007299065,0.00084280834,-0.01144124,0.67975676,-1.0,1,0,0,0,0,0,0
1438333706,0.01414075,0.0011293417,-0.022870092,0.0,0.9999094,0.0070763086,0.00048377214,-0.011438503,0.6780425,-1.0,1,0,0,0,0,0,0
1438434412,0.013529418,-0.00021390017,-0.022870092,0.0,0.9999117,0.0067629926,-0.00018429314,-0.011433812,0.67777824,-1.0,1,0,0,0,0,0,0
1438534484,0.013367059,0.00037132468,-0.022870092,0.0,0.99991226,0.006685165,0.00010922182,-0.011435783,0.67735696,-1.0,1,0,0,0,0,0,0
1438635141,0.019622395,0.002186067,-0.022870092,0.0,0.9998858,0.00982289,0.000980722,-0.011444963,0.6774565,-1.0,1,0,0,0,0,0,0
1438739670,0.015750535,0.004263597,-0.022870092,0.0,0.9999012,0.007899028,0.0020415403,-0.011451202,0.6829271,-1.0,1,0,0,0,0,0,0
1438838739,0.0147292055,0.0036853873,-0.022870092,0.0,0.99990565,0.007385113,0.0017583105,-0.011448038,0.68105584,-1.0,1,0,0,0,0,0,0
1438940088,0.009993557,0.0036195528,-0.022870092,0.0,0.99992037,0.0050171167,0.0017524977,-0.011443676,0.68160325,-1.0,1,0,0,0,0,0,0
1439044126,0.012615866,0.002414171,-0.022870092,0.0,0.9999139,0.006321277,0.0011348529,-0.011442175,0.67906094,-1.0,1,0,0,0,0,0,0
1439143304,0.014172448,0.0025875154,-0.022870092,0.0,0.99990857,0.007100489,0.0012126114,-0.011443668,0.67516,-1.0,1,0,0,0,0,0,0
1439349101,0.015553708,0.004453107,-0.022870092,0.0,0.99990165,0.007801708,0.002137413,-0.011451735,0.6807827,-1.0,1,0,0,0,0,0,0
1439448469,0.013114992,0.004257051,-0.022870092,0.0,0.9999107,0.006581344,0.0020533556,-0.011448482,0.6805967,-1.0,1,0,0,0,0,0,0
1439548698,0.01480209,0.0025755952,-0.022870092,0.0,0.9999063,0.0074152127,0.0012030491,-0.011444005,0.678035,-1.0,1,0,0,0,0,0,0
1439652769,0.015665961,0.0036800893,-0.022870092,0.0,0.99990207,0.007853415,0.0017502994,-0.01144884,0.6828716,-1.0,1,0,0,0,0,0,0
1439753270,0.017021637,0.0040954696,-0.022870092,0.0,0.9998961,0.008533556,0.0019502073,-0.011451786,0.67939675,-1.0,1,0,0,0,0,0,0
1439853539,0.01743334,0.005263575,-0.022870092,0.0,0.9998929,0.008746052,0.002531841,-0.011457262,0.6812557,-1.0,1,0,0,0,0,0,0
1439957514,0.01702569,0.003940098,-0.022870092,0.0,0.9998963,0.008534694,0.0018725062,-0.011451128,0.6757509,-1.0,1,0,0,0,0,0,0
1440057414,0.017107166,0.0052967616,-0.022870092,0.0,0.9998943,0.008583172,0.0025503007,-0.01145699,0.68294317,-1.0,1,0,0,0,0,0,0
1440158095,0.018720135,0.0044375123,-0.022870092,0.0,0.9998881,0.009384666,0.0021114836,-0.011455036,0.68451613,-1.0,1,0,0,0,0,0,0
1440262019,0.01659134,0.0056864335,-0.022870092,0.0,0.9998959,0.00832751,0.0027480717,-0.011457942,0.6805631,-1.0,1,0,0,0,0,0,0
1440362832,0.0164454,0.0049334206,-0.022870092,0.0,0.99989754,0.00825025,0.0023724397,-0.011454656,0.6817792,-1.0,1,0,0,0,0,0,0
1440462052,0.017126122,0.0033688291,-0.022870092,0.0,0.9998964,0.008581645,0.0015863263,-0.011448783,0.6814159,-1.0,1,0,0,0,0,0,0
1440566896,0.0148093235,0.0040938784,-0.022870092,0.0,0.99990493,0.0074275006,0.001962078,-0.0114496155,0.68298185,-1.0,1,0,0,0,0,0,0
1440667149,0.016469399,0.00394024,-0.022870092,0.0,0.9998986,0.00825658,0.0018757622,-0.011450608,0.6835205,-1.0,1,0,0,0,0,0,0
1440766869,0.01616574,0.0059913583,-0.022870092,0.0,0.9998972,0.008116471,0.0029029564,-0.011458585,0.68206924,-1.0,1,0,0,0,0,0,0
1440871627,0.018855881,0.007120892,-0.022870092,0.0,0.9998835,0.009467836,0.0034522433,-0.01146778,0.67744905,-1.0,1,0,0,0,0,0,0
1440971843,0.017181538,0.009034182,-0.022870092,0.0,0.9998871,0.008641663,0.004418382,-0.011473062,0.6757715,-1.0,1,0,0,0,0,0,0
1441071674,0.016573817,0.013005015,-0.022870092,0.0,0.9998785,0.008360449,0.0064070574,-0.011488043,0.67788714,-1.0,1,0,0,0,0,0,0
1441175291,0.014134361,0.010190243,-0.022870092,0.0,0.9998962,0.0071248286,0.0050138296,-0.011470367,0.6759318,-1.0,1,0,0,0,0,0,0
1441275945,0.014964596,0.010756721,-0.022870092,0.0,0.9998917,0.0075431294,0.0052922755,-0.011474552,0.67414486,-1.0,1,0,0,0,0,0,0
1441376321,0.017161293,0.01100646,-0.022870092,0.0,0.9998821,0.008642776,0.005404524,-0.01148142,0.67739373,-1.0,1,0,0,0,0,0,0
1441480518,0.01268873,0.0025249256,-0.022870092,0.0,0.99991363,0.006358338,0.0011898085,-0.011442568,0.68154746,-1.0,1,0,0,0,0,0,0
1441580892,0.013533148,0.00071078015,-0.022870092,0.0,0.9999116,0.0067701433,0.00027798492,-0.011436939,0.67486286,-1.0,1,0,0,0,0,0,0
1441680391,0.016209561,-0.001192808,-0.022870092,0.0,0.99990165,0.008097342,-0.00068902096,-0.011429585,0.6769917,-1.0,1,0,0,0,0,0,0
1441780585,0.016562942,0.0007422765,-0.022870092,0.0,0.9999002,0.008285079,0.00027640542,-0.011437478,0.6766837,-1.0,1,0,0,0,0,0,0
1441885162,0.015877549,0.0004738533,-0.022870092,0.0,0.999903,0.00794088,0.00014612639,-0.011436317,0.6743,-1.0,1,0,0,0,0,0,0
1441985269,0.018122662,0.0030845806,-0.022870092,0.0,0.99989223,0.009078238,0.0014385125,-0.011448287,0.6772456,-1.0,1,0,0,0,0,0,0
1442089247,0.020062376,0.004850714,-0.022870092,0.0,0.9998811,0.010058067,0.0023103717,-0.011458516,0.67930657,-1.0,1,0,0,0,0,0,0
1442190772,0.014404099,-0.0007530967,-0.022870092,0.0,0.9999087,0.0071972106,-0.00045886723,-0.011431788,0.68020886,-1.0,1,0,0,0,0,0,0
1442290024,0.015975466,0.0004154271,-0.022870092,0.0,0.99990267,0.007989501,0.00011635622,-0.011436092,0.6761546,-1.0,1,0,0,0,0,0,0
1442394048,0.016351901,0.0033395158,-0.022870092,0.0,0.9998996,0.0081944065,0.0015761029,-0.01144805,0.6767217,-1.0,1,0,0,0,0,0,0
1442494812,0.015724825,0.0056097386,-0.022870092,0.0,0.9998995,0.0078938585,0.002714692,-0.011456448,0.6784676,-1.0,1,0,0,0,0,0,0
1442594007,0.015570296,0.0038746782,-0.022870092,0.0,0.99990225,0.0078066983,0.0018481321,-0.01144951,0.6796604,-1.0,1,0,0,0,0,0,0
1442694909,0.015386617,0.0029649327,-0.022870092,0.0,0.9999038,0.007709672,0.0013943545,-0.01144585,0.6821425,-1.0,1,0,0,0,0,0,0
1442798463,0.014263356,5.1395023e-06,-0.022870092,0.0,0.99990916,0.007131181,-7.897908e-05,-0.011434525,0.6761152,-1.0,1,0,0,0,0,0,0
1442899106,0.012306757,0.0011553643,-0.022870092,0.0,0.9999155,0.006159542,0.0005072713,-0.011438133,0.67830575,-1.0,1,0,0,0,0,0,0
1442999655,0.009349617,-0.0020497958,-0.022870092,0.0,0.9999232,0.004662764,-0.0010782747,-0.011429876,0.6768193,-1.0,1,0,0,0,0,0,0
1443103622,0.010785846,-0.0004085232,-0.022870092,0.0,0.99992007,0.005390209,-0.00026591198,-0.01143353,0.68270594,-1.0,1,0,0,0,0,0,0
1443203672,0.00995242,-0.001999015,-0.022870092,0.0,0.9999218,0.0049644327,-0.0010563312,-0.011429677,0.6780618,-1.0,1,0,0,0,0,0,0
1443307698,0.011297991,-0.0029875194,-0.022870092,0.0,0.9999177,0.0056315083,-0.0015582321,-0.011426165,0.6765818,-1.0,1,0,0,0,0,0,0
1443407292,0.00948246,-0.0041567753,-0.022870092,0.0,0.9999213,0.004717126,-0.0021324416,-0.01142479,0.67791796,-1.0,1,0,0,0,0,0,0
1443508509,0.011607666,0.004271513,-0.022870092,0.0,0.99991536,0.0058278283,0.002069214,-0.011446972,0.6756743,-1.0,1,0,0,0,0,0,0
1443608134,0.0074220467,-0.0028528275,-0.022870092,0.0,0.9999268,0.0036944575,-0.0014687447,-0.011429413,0.68217665,-1.0,1,0,0,0,0,0,0
1443712622,0.009000057,-0.007561693,-0.022870092,0.0,0.99991757,0.0044564544,-0.0038320082,-0.011417587,0.67653996,-1.0,1,0,0,0,0,0,0
1443812677,0.009417306,-0.008230126,-0.022870092,0.0,0.9999153,0.004661233,-0.004168579,-0.011415199,0.67680013,-1.0,1,0,0,0,0,0,0
1443913202,-0.00462198,-0.0076497192,-0.022870092,0.0,0.99992454,-0.0023545562,-0.0037981647,-0.011443521,0.6826001,-1.0,1,0,0,0,0,0,0
1444117162,-0.05388987,-0.0071025277,-0.022870092,0.0,0.99956423,-0.026980337,-0.0032416645,-0.011526245,0.67996365,-1.0,1,0,0,0,0,0,0
1444217273,-0.050260197,-0.0056473436,-0.022870092,0.0,0.9996141,-0.025157988,-0.0025352656,-0.011502086,0.69366986,-1.0,1,0,0,0,0,0,0
1444322336,-0.06433525,-0.008118671,-0.022870092,0.0,0.9994076,-0.0322061,-0.0036891953,-0.011559334,0.680914,-1.0,1,0,0,0,0,0,0
1444421713,-0.061533257,-0.010588105,-0.022870092,0.0,0.99944556,-0.030819843,-0.004939427,-0.01159207,0.6786967,-1.0,1,0,0,0,0,0,0
1444626408,-0.048855066,-0.01704148,-0.022870092,0.0,0.9995976,-0.024520027,-0.008238252,-0.0116390735,0.6774232,-1.0,1,0,0,0,0,0,0
1444726512,-0.038393687,-0.01767138,-0.022870092,0.0,0.9997094,-0.019294672,-0.008613878,-0.011601836,0.67565566,-1.0,1,0,0,0,0,0,0
1444827032,0.06587345,0.018674985,-0.022870092,0.0,0.9993452,0.033033896,0.008955142,-0.011735564,0.6723554,-1.0,1,0,0,0,0,0,0
1444931186,0.028492702,0.0028173018,-0.022870092,0.0,0.9998319,0.01426103,0.0012455168,-0.011453691,0.7012679,-1.0,1,0,0,0,0,0,0
1445030857,0.026930802,-0.0019887644,-0.022870092,0.0,0.99984366,0.013452737,-0.0011481962,-0.011420367,0.707956,-1.0,1,0,0,0,0,0,0
1445131831,0.012221272,-0.009245755,-0.022870092,0.0,0.99990565,0.0060572727,-0.0046923454,-0.011406215,0.703127,-1.0,1,0,0,0,0,0,0
1445235571,-0.004811238,-0.016363522,-0.022870092,0.0,0.999898,-0.0024989345,-0.008153604,-0.011454062,0.695626,-1.0,1,0,0,0,0,0,0
1445335677,-0.016564056,-0.016011557,-0.022870092,0.0,0.9998675,-0.008372666,-0.007910196,-0.011500338,0.69364333,-1.0,1,0,0,0,0,0,0
1445435582,-0.022327855,-0.021118125,-0.022870092,0.0,0.9998152,-0.0112830745,-0.010429869,-0.011551316,0.702599,-1.0,1,0,0,0,0,0,0
1445540745,-0.022174425,-0.022137873,-0.022870092,0.0,0.9998105,-0.011212142,-0.010940537,-0.011556104,0.7050154,-1.0,1,0,0,0,0,0,0
1445640624,-0.021669788,-0.019516522,-0.022870092,0.0,0.9998271,-0.010945034,-0.00963301,-0.0115393,0.6992839,-1.0,1,0,0,0,0,0,0
1445741188,-0.020353397,-0.01991991,-0.022870092,0.0,0.9998321,-0.010289236,-0.009842264,-0.011534986,0.6979258,-1.0,1,0,0,0,0,0,0
1445845692,-0.022608938,-0.020262025,-0.022870092,0.0,0.9998181,-0.011418745,-0.0100002745,-0.011547993,0.69141644,-1.0,1,0,0,0,0,0,0
1445950570,-0.02284174,-0.016153136,-0.022870092,0.0,0.9998357,-0.011511849,-0.007944838,-0.011525911,0.6904292,-1.0,1,0,0,0,0,0,0
1446053346,-0.022748102,-0.016682612,-0.022870092,0.0,0.99983406,-0.011468039,-0.008210072,-0.011528524,0.69554,-1.0,1,0,0,0,0,0,0
1446152879,-0.021877574,-0.013333206,-0.022870092,0.0,0.99985176,-0.011013837,-0.0065406417,-0.011506777,0.7071306,-1.0,1,0,0,0,0,0,0
1446257227,-0.019128935,-0.01595138,-0.022870092,0.0,0.9998562,-0.009654588,-0.007865357,-0.011510187,0.7082989,-1.0,1,0,0,0,0,0,0
1446358731,-0.019589905,-0.014711962,-0.022870092,0.0,0.9998588,-0.009878,-0.0072430824,-0.011505985,0.7044115,-1.0,1,0,0,0,0,0,0
1446458035,-0.02606259,-0.017712485,-0.022870092,0.0,0.9998092,-0.013130821,-0.008705797,-0.011548773,0.6960866,-1.0,1,0,0,0,0,0,0
1446561989,-0.02937298,-0.018308366,-0.022870092,0.0,0.9997834,-0.0147890495,-0.008984544,-0.0115675125,0.6926017,-1.0,1,0,0,0,0,0,0
1446662139,-0.032479055,-0.017060943,-0.022870092,0.0,0.9997648,-0.01633469,-0.008343005,-0.011571386,0.6966409,-1.0,1,0,0,0,0,0,0
1446762773,0.023046385,0.006473365,-0.022870092,0.0,0.99986255,0.011559132,0.0031044884,-0.0114712715,0.699082,-1.0,1,0,0,0,0,0,0
1446867180,0.017741099,0.003944425,-0.022870092,0.0,0.9998932,0.008892386,0.001870573,-0.011451817,0.70697826,-1.0,1,0,0,0,0,0,0
1446966496,0.013254487,0.0013578868,-0.022870092,0.0,0.9999124,0.006634524,0.0006031034,-0.011439043,0.7088872,-1.0,1,0,0,0,0,0,0
1447067861,0.00863393,-0.0060473443,-0.022870092,0.0,0.9999209,0.004282075,-0.003072805,-0.011421587,0.70345837,-1.0,1,0,0,0,0,0,0
1447167655,-0.0023866573,-0.006419116,-0.022870092,0.0,0.9999287,-0.0012299448,-0.0031956949,-0.011438559,0.69032353,-1.0,1,0,0,0,0,0,0
1447271320,-0.002501278,-0.0059521305,-0.022870092,0.0,0.99992937,-0.0012845818,-0.0029615632,-0.011438461,0.69566506,-1.0,1,0,0,0,0,0,0
1447372321,-0.0016203352,-0.0029207217,-0.022870092,0.0,0.99993324,-0.0008268126,-0.0014510002,-0.011435965,0.704191,-1.0,1,0,0,0,0,0,0
1447475822,0.0028211183,0.0022141016,-0.022870092,0.0,0.999933,0.0014231243,0.0010908475,-0.011436341,0.7084822,-1.0,1,0,0,0,0,0,0
1447576101,0.0051806555,0.0016550693,-0.022870092,0.0,0.9999309,0.0025996175,0.0007978579,-0.011436899,0.7023486,-1.0,1,0,0,0,0,0,0
1447676530,0.0017341699,0.0020970968,-0.022870092,0.0,0.9999337,0.0008790177,0.0010385643,-0.011435695,0.69775766,-1.0,1,0,0,0,0,0,0
1447781106,0.0023065913,0.0018733761,-0.022870092,0.0,0.99993354,0.0011639304,0.0009234384,-0.011435865,0.69235736,-1.0,1,0,0,0,0,0,0
1447884712,-0.0058990964,0.035702564,-0.022870092,0.0,0.99977154,-0.0027447669,0.017882813,-0.0113802785,0.6948835,-1.0,1,0,0,0,0,0,0
1447985281,-0.001570846,0.048082948,-0.022870092,0.0,0.99964553,-0.0005102618,0.024046557,-0.01141261,0.70249516,-1.0,1,0,0,0,0,0,0
1448086260,0.0032661597,0.042336658,-0.022870092,0.0,0.9997089,0.0018746435,0.021146664,-0.011466785,0.70109004,-1.0,1,0,0,0,0,0,0
1448189549,0.0056472737,0.032040864,-0.022870092,0.0,0.9998018,0.003006268,0.015986351,-0.011478515,0.7041525,-1.0,1,0,0,0,0,0,0
1448288860,0.0056209485,0.028965587,-0.022870092,0.0,0.99982536,0.0029755933,0.014449148,-0.011474252,0.6991755,-1.0,1,0,0,0,0,0,0
1448390043,0.0026687705,0.025408411,-0.022870092,0.0,0.99985284,0.0014794559,0.012687764,-0.011450816,0.6911755,-1.0,1,0,0,0,0,0,0
1448494016,0.0029062666,0.024524901,-0.022870092,0.0,0.9998582,0.0015931436,0.0122447135,-0.011451744,0.6976526,-1.0,1,0,0,0,0,0,0
1448593960,0.005883863,0.023311138,-0.022870092,0.0,0.999862,0.0030748106,0.011620854,-0.01146826,0.7045176,-1.0,1,0,0,0,0,0,0
1448694088,0.008742491,0.024369758,-0.022870092,0.0,0.9998502,0.004509948,0.012133684,-0.0114870975,0.70777166,-1.0,1,0,0,0,0,0,0
1448898960,0.020662678,0.018850163,-0.022870092,0.0,0.9998357,0.010437788,0.009305694,-0.011531044,0.70531917,-1.0,1,0,0,0,0,0,0
1448998841,0.024541326,0.023734467,-0.022870092,0.0,0.9997873,0.012404375,0.011724988,-0.011578732,0.6977306,-1.0,1,0,0,0,0,0,0
1449102873,0.02949835,0.02295562,-0.022870092,0.0,0.99975806,0.014877934,0.011306923,-0.011602068,0.70060194,-1.0,1,0,0,0,0,0,0
1449204357,0.03143564,0.01885369,-0.022870092,0.0,0.999765,0.015823226,0.00924521,-0.011581028,0.7124615,-1.0,1,0,0,0,0,0,0
1449303282,0.031301778,0.017557686,-0.022870092,0.0,0.9997721,0.015748994,0.00859813,-0.011570335,0.7084102,-1.0,1,0,0,0,0,0,0
1449407665,0.030503375,0.019679211,-0.022870092,0.0,0.99976826,0.01536186,0.0096632745,-0.011582966,0.70461047,-1.0,1,0,0,0,0,0,0
1449507957,0.028381499,0.01589947,-0.022870092,0.0,0.9998011,0.014279791,0.0077860733,-0.011546085,0.7005306,-1.0,1,0,0,0,0,0,0
1449608303,0.021122327,0.015194317,-0.022870092,0.0,0.9998491,0.010646838,0.0074754055,-0.0115140565,0.6964253,-1.0,1,0,0,0,0,0,0
1449712645,0.022405438,0.01323009,-0.022870092,0.0,0.99984914,0.011277144,0.0064860545,-0.011507929,0.70477545,-1.0,1,0,0,0,0,0,0
1449812962,0.023428196,0.013502676,-0.022870092,0.0,0.99984235,0.011789992,0.00661644,-0.011512829,0.71494174,-1.0,1,0,0,0,0,0,0
1449912405,0.022649664,0.010366731,-0.022870092,0.0,0.9998564,0.011382964,0.005053179,-0.011492606,0.7113937,-1.0,1,0,0,0,0,0,0
1450013417,0.022623945,0.008850769,-0.022870092,0.0,0.99986035,0.011361481,0.0042954516,-0.011484009,0.7065185,-1.0,1,0,0,0,0,0,0
1450117559,0.01885355,0.007995091,-0.022870092,0.0,0.99988174,0.009471654,0.0038893057,-0.011471877,0.70555234,-1.0,1,0,0,0,0,0,0
1450216925,0.010567484,0.009667228,-0.022870092,0.0,0.9999087,0.005338581,0.0047727935,-0.011460043,0.702931,-1.0,1,0,0,0,0,0,0
1450422004,0.013197143,0.008772957,-0.022870092,0.0,0.9999029,0.0066481857,0.00431063,-0.011463381,0.7086854,-1.0,1,0,0,0,0,0,0
1450522076,0.008398287,0.009606437,-0.022870092,0.0,0.99991405,0.004253731,0.0047548274,-0.011454732,0.7077727,-1.0,1,0,0,0,0,0,0
1450623483,0.0012872218,0.0058558476,-0.022870092,0.0,0.99993014,0.00067704613,0.0029203678,-0.01143663,0.70573515,-1.0,1,0,0,0,0,0,0
1450726909,-0.006192611,0.0056070103,-0.022870092,0.0,0.999926,-0.0030640285,0.0028387103,-0.011426017,0.6977983,-1.0,1,0,0,0,0,0,0
1450826836,-0.0036299254,0.007243769,-0.022870092,0.0,0.9999265,-0.0017734158,0.0036423875,-0.011428131,0.6968724,-1.0,1,0,0,0,0,0,0
1450928300,0.0013452714,0.001958571,-0.022870092,0.0,0.9999339,0.0006837893,0.00097152963,-0.011435449,0.7033209,-1.0,1,0,0,0,0,0,0
1451031906,0.004776003,0.0022517168,-0.022870092,0.0,0.9999311,0.0024007154,0.001098475,-0.011437446,0.7102814,-1.0,1,0,0,0,0,0,0
1451130462,0.005651784,-0.0052287388,-0.022870092,0.0,0.9999273,0.002795799,-0.0026464984,-0.011427324,0.70360875,-1.0,1,0,0,0,0,0,0
