timestamp,x,y,z,yaw,yawspeed,vx,vy,vz,acc_x,acc_y,acc_z,thrust[0],thrust[1],thrust[2]
1399094566,-0.03184979,0.13921672,-1.3483053,-0.07469347,0.0,-0.06375611,0.035295032,-0.018641055,-0.018505936,0.062626034,-6.691704,0.0,0.0,0.0
1401293677,-0.0052011125,0.15516782,-1.3483053,-0.022870092,0.0,-0.0047491835,0.0014109313,-0.0020039082,0.028878836,-0.028957555,-6.648762,0.0,0.0,0.0
1402279602,-0.0052011125,0.15516782,-1.3483053,-0.022870092,0.0,0.0026342066,-0.028664634,0.00044226646,0.038910247,-0.050511256,-6.6613865,0.0,0.0,0.0
1402483889,-0.0052011125,0.15516782,-1.3483053,-0.022870092,0.0,-0.00094011705,-0.030665405,0.0011790991,0.022507632,-0.029571744,-6.6411657,0.0,0.0,0.0
1402684745,-0.0052011125,0.15516782,-1.3483053,-0.022870092,0.0,-0.008817377,-0.0156068355,0.001966238,0.013106764,0.02603991,-6.6451087,0.0,0.0,0.0
1402888436,-0.0052011125,0.15516782,-1.3483053,-0.022870092,0.0,-0.009411692,-0.00010661781,0.0028381944,0.021364335,0.033486802,-6.6606627,0.0,0.0,0.0
1403088852,-0.0052011125,0.15516782,-1.3483053,-0.022870092,0.0,-0.0124371145,0.011431038,0.004028201,0.01832313,0.025487956,-6.65834,0.0,0.0,0.0
1403293332,-0.0052011125,0.15516782,-1.3483053,-0.022870092,0.0,-0.022170942,0.01335483,0.004724264,-0.0025996794,0.009038495,-6.6507335,0.0,0.0,0.0
1403393082,-0.0052011125,0.15516782,-1.3483053,-0.022870092,0.0,-0.027021775,0.013713822,0.0048965216,-0.015106585,0.00420584,-6.6639137,0.0,0.0,0.0
1403497893,-0.0052011125,0.15516782,-1.3483053,-0.022870092,0.0,-0.031949658,0.0149794,0.005165398,-0.0073463214,0.0029064605,-6.633109,0.0,0.0,0.0
1403598537,-0.0052011125,0.15516782,-1.3483053,-0.022870092,0.0,-0.036560472,0.015123479,0.0052187443,-0.0186385,0.0045878883,-6.6579843,0.0,0.0,0.0
1403698011,-0.0052011125,0.15516782,-1.3483053,-0.022870092,0.0,-0.039922193,0.015961915,0.00534904,-0.022593936,0.013173249,-6.667203,0.0,0.0,0.0
1403902888,-0.0052011125,0.15516782,-1.3483053,-0.022870092,0.0,-0.037040554,0.020089924,0.0055977106,-0.00078625046,0.014275306,-6.675962,0.0,0.0,0.0
1404002800,-0.0052011125,0.15516782,-1.3483053,-0.022870092,0.0,-0.029303938,0.021510378,0.005895078,0.03393934,0.02018477,-6.6379557,0.0,0.0,0.0
1404106478,-0.0052011125,0.15516782,-1.3483053,-0.022870092,0.0,-0.018856194,0.022254713,0.006298065,0.050355885,0.012827092,-6.647098,0.0,0.0,0.0
1404307649,-0.0052011125,0.15516782,-1.3483053,-0.022870092,0.0,0.0027748025,0.02519723,0.007116258,0.08170659,0.012206584,-6.66589,0.0,0.0,0.0
1404512164,-0.0052011125,0.15516782,-1.3483053,-0.022870092,0.0,0.021213312,0.022937648,0.007432461,0.09715416,0.0067888093,-6.6503816,0.0,0.0,0.0
1404611600,-0.0052011125,0.15516782,-1.3483053,-0.022870092,0.0,0.027725901,0.018347092,0.007701814,0.09769578,-0.012781188,-6.632312,0.0,0.0,0.0
1404715656,-0.0052011125,0.15516782,-1.3483053,-0.022870092,0.0,0.03156894,0.011701204,0.008045495,0.08819771,-0.0049672895,-6.658031,0.0,0.0,0.0
1404916307,-0.0052011125,0.15516782,-1.3483053,-0.022870092,0.0,0.03358417,0.00087030977,0.008722782,0.07026592,-0.017665558,-6.664143,0.0,0.0,0.0
1405120911,-0.0052011125,0.15516782,-1.3483053,-0.022870092,0.0,0.04104581,0.003122136,0.009338558,0.081961185,0.02407959,-6.701526,0.0,0.0,0.0
1405325208,-0.0052011125,0.15516782,-1.3483053,-0.022870092,0.0,0.054030955,0.008364916,0.009868145,0.09952467,0.035726696,-6.6448455,0.0,0.0,0.0
1405525276,-0.0052011125,0.15516782,-1.3483053,-0.022870092,0.0,0.06351133,0.0053335726,0.010414124,0.089990504,0.009203578,-6.669519,0.0,0.0,0.0
1405730370,-0.0052011125,0.15516782,-1.3483053,-0.022870092,0.0,0.058977604,-0.0031471252,0.010452986,0.068360776,-0.0024693448,-6.637494,0.0,0.0,0.0
1405933931,-0.0052011125,0.15516782,-1.3483053,-0.022870092,0.0,0.03852558,-0.0069849864,0.009955406,0.018975595,0.0103485845,-6.695911,0.0,0.0,0.0
1406033987,-0.0052011125,0.15516782,-1.3483053,-0.022870092,0.0,0.026767984,-0.0050733313,0.009647071,-0.0080569815,0.02868623,-6.6753025,0.0,0.0,0.0
1406135061,-0.0052011125,0.15516782,-1.3483053,-0.022870092,0.0,0.012997552,-0.00038976967,0.009400725,-0.024556149,0.038206898,-6.6598473,0.0,0.0,0.0
1406338502,-0.0052011125,0.15516782,-1.3483053,-0.022870092,0.0,-0.01083112,0.010948911,0.0089562535,-0.03157616,0.04954412,-6.6827087,0.0,0.0,0.0
1406439089,-0.0052011125,0.15516782,-1.3483053,-0.022870092,0.0,-0.016770605,0.015894525,0.009060979,-0.0039018618,0.05265082,-6.613209,0.0,0.0,0.0
1406540485,-0.0052011125,0.15516782,-1.3483053,-0.022870092,0.0,-0.018983655,0.021142289,0.009028494,0.006503694,0.062911734,-6.6624303,0.0,0.0,0.0
1406743618,-0.0052011125,0.15516782,-1.3483053,-0.022870092,0.0,-0.019548459,0.034198098,0.008524954,0.020531341,0.07982938,-6.636915,0.0,0.0,0.0
1406947773,-0.0052011125,0.15516782,-1.3483053,-0.022870092,0.0,-0.023345944,0.049564127,0.007991791,0.011584591,0.09690679,-6.648339,0.0,0.0,0.0
1407152447,-0.0052011125,0.15516782,-1.3483053,-0.022870092,0.0,-0.03571157,0.058479488,0.007797301,-0.012088776,0.09851429,-6.667354,0.0,0.0,0.0
1407352075,-0.0052011125,0.15516782,-1.3483053,-0.022870092,0.0,-0.04284596,0.05838619,0.0075643063,-0.014793469,0.075148836,-6.674773,0.0,0.0,0.0
1407453492,-0.0052011125,0.15516782,-1.3483053,-0.022870092,0.0,-0.043431092,0.057995796,0.007319808,-0.008207181,0.06443342,-6.672942,0.0,0.0,0.0
1407557131,-0.0052011125,0.15516782,-1.3483053,-0.022870092,0.0,-0.043921206,0.05741387,0.0073479414,-0.008450769,0.07128849,-6.7002063,0.0,0.0,0.0
1407761203,-0.0052011125,0.15516782,-1.3483053,-0.022870092,0.0,-0.04531967,0.055257015,0.00680691,0.0007710095,0.05992388,-6.7000213,0.0,0.0,0.0
1407861747,-0.0052011125,0.15516782,-1.3483053,-0.022870092,0.0,-0.043633778,0.05241033,0.00640589,-0.0011063835,0.058444683,-6.6903667,0.0,0.0,0.0
1407961689,-0.006159157,0.12675351,-1.3483053,-0.022870092,0.0,-0.0054018437,-0.0012131184,0.0061054826,0.063443094,-0.046924513,-6.7038035,0.0,0.0,0.0
1408066043,-0.006159157,0.12675351,-1.3483053,-0.022870092,0.0,-0.014421358,-0.0006713122,0.005921185,0.034231097,-0.012220254,-6.686484,0.0,0.0,0.0
1408165985,-0.006159157,0.12675351,-1.3483053,-0.022870092,0.0,-0.009206791,-0.00084295124,0.0055467486,0.043466404,-0.0037554812,-6.6877327,0.0,0.0,0.0
1408266002,-0.006159157,0.12675351,-1.3483053,-0.022870092,0.0,-0.005794359,-0.0023639426,0.0053355694,0.05280864,-0.0009303431,-6.6512194,0.0,0.0,0.0
1408367371,-0.006159157,0.12675351,-1.3483053,-0.022870092,0.0,-0.004091435,-0.0054428503,0.005159259,0.04914565,0.0011499841,-6.636089,0.0,0.0,0.0
1408471133,0.0029311993,0.13487832,-1.3483053,-0.022870092,0.0,0.0016714442,0.0014244318,0.0052057505,0.043389942,0.036600094,-6.66182,0.0,0.0,0.0
1408570729,-0.0018566652,0.13051516,-1.3483053,-0.022870092,0.0,-0.0007470031,-0.032657187,0.0058224797,0.046684064,-0.021278821,-6.689424,0.0,0.0,0.0
1408674995,-0.0038165257,0.12910342,-1.3483053,-0.022870092,0.0,-0.0026970957,-0.11791057,0.0062732697,0.036575098,-0.13874643,-6.6761026,0.0,0.0,0.0
1408775310,-0.0065678256,0.12563044,-1.3483053,-0.022870092,0.0,-0.0032668803,-0.14282018,0.006433308,0.041342907,-0.14480022,-6.6628337,0.0,0.0,0.0
1408875721,-0.009884513,0.12004712,-1.3483053,-0.022870092,0.0,-0.003511419,-0.15351084,0.006532073,0.05928285,-0.12442515,-6.669692,0.0,0.0,0.0
1408980362,-0.010905964,0.11306638,-1.3483053,-0.022870092,0.0,-0.003535747,-0.15457441,0.0064683557,0.04279591,-0.09449023,-6.65876,0.0,0.0,0.0
1409084465,-0.010859772,0.10413923,-1.3483053,-0.022870092,0.0,-0.00354803,-0.15511137,0.0061938167,0.03093168,-0.06273187,-6.6574297,0.0,0.0,0.0
1409183287,-0.009460802,0.09421927,-1.3483053,-0.022870092,0.0,-0.0034877695,-0.15247694,0.00630337,0.034039244,-0.052715532,-6.63854,0.0,0.0,0.0
1409284708,-0.009823824,0.08354013,-1.3483053,-0.022870092,0.0,-0.0029790767,-0.1302381,0.006532967,0.045960974,-0.0121374475,-6.634212,0.0,0.0,0.0
1409388725,-0.012781644,0.07177788,-1.3483053,-0.022870092,0.0,-0.003003343,-0.13129896,0.0064786077,0.04703953,-0.015677892,-6.6831517,0.0,0.0,0.0
1409589497,-0.020606762,0.04608334,-1.3483053,-0.022870092,0.0,-0.003298487,-0.14420195,0.006412685,0.0063046236,-0.036577113,-6.681292,0.0,0.0,0.0
1409693236,-0.02009285,0.03537354,-1.3483053,-0.022870092,0.0,-0.003305657,-0.14451541,0.0061650276,-0.008617867,-0.018975906,-6.675159,0.0,0.0,0.0
1409794018,-0.018171819,0.026492504,-1.3483053,-0.022870092,0.0,-0.0033688545,-0.14727825,0.0059123635,-0.007846951,-0.02531339,-6.672672,0.0,0.0,0.0
1409893203,-0.013810637,0.016505819,-1.3483053,-0.022870092,0.0,-0.0034242165,-0.14969856,0.0056253076,-0.016570218,-0.025235644,-6.6573963,0.0,0.0,0.0
1410097452,-0.006835529,-0.008198224,-1.3483053,-0.022870092,0.0,-0.0035514224,-0.15525968,0.0053083897,0.003805669,-0.042245526,-6.6466312,0.0,0.0,0.0
1410198037,-0.0068140626,-0.022613246,-1.3483053,-0.022870092,0.0,-0.003585207,-0.15673667,0.005106032,0.021107195,-0.03094561,-6.641796,0.0,0.0,0.0
1410302028,-0.009701263,-0.037587196,-1.3483053,-0.022870092,0.0,-0.0039019187,-0.17058255,0.004771054,0.02426528,-0.04292927,-6.6616173,0.0,0.0,0.0
1410402361,-0.011888696,-0.047908895,-1.3483053,-0.022870092,0.0,-0.0038832782,-0.16976763,0.004675269,-0.063922845,-0.047499154,-6.7579675,0.0,0.0,0.0
1410502801,-0.010906393,-0.06396627,-1.3483053,-0.022870092,0.0,-0.003883483,-0.16977656,0.003595233,-0.035040904,-0.039516553,-6.7118154,0.0,0.0,0.0
1410606843,-0.029516585,-0.07849165,-1.3483053,-0.022870092,0.0,-0.003883492,-0.16977696,0.0030343533,0.07947693,-0.04316689,-6.7118454,0.0,0.0,0.0
1410707142,-0.040258516,-0.096541286,-1.3483053,-0.022870092,0.0,-0.003883492,-0.16977696,0.0026170015,0.051336534,-0.034450095,-6.6923356,0.0,0.0,0.0
1410806843,-0.053395804,-0.11478527,-1.3483053,-0.022870092,0.0,-0.0037597006,-0.1643651,0.0019812584,0.069503,-0.011382572,-6.6721706,0.0,0.0,0.0
1410911626,-0.06492065,-0.13192219,-1.3483053,-0.022870092,0.0,-0.003552392,-0.15530206,0.0015726686,0.06461884,-0.009956484,-6.6745925,0.0,0.0,0.0
1411111644,-0.08165594,-0.1622871,-1.3483053,-0.022870092,0.0,-0.0035483283,-0.15512443,0.0015524626,0.06493994,-0.015976913,-6.687383,0.0,0.0,0.0
1411215605,-0.09732526,-0.17442636,-1.3483053,-0.022870092,0.0,-0.0035483467,-0.15512523,0.0016924143,0.0188537,0.021881709,-6.70562,0.0,0.0,0.0
1411316111,-0.102424406,-0.19109061,-1.3483053,-0.022870092,0.0,-0.0036006973,-0.15741386,0.0016888976,0.04460878,0.023438849,-6.7155185,0.0,0.0,0.0
1411415599,-0.113384165,-0.20622317,-1.3483053,-0.022870092,0.0,-0.0036326705,-0.15881166,0.0020139217,0.058448583,0.0158807,-6.6699185,0.0,0.0,0.0
1411520466,-0.123393275,-0.2223743,-1.3483053,-0.022870092,0.0,-0.0036748592,-0.16065605,0.0025441647,0.047881015,0.0055897334,-6.6377845,0.0,0.0,0.0
1411620336,-0.13140783,-0.23785302,-1.3483053,-0.022870092,0.0,-0.0036740494,-0.16062064,0.002971232,0.039145514,0.0066543287,-6.663957,0.0,0.0,0.0
1411720839,-0.13645802,-0.25292537,-1.3483053,-0.022870092,0.0,-0.0036913345,-0.1613763,0.0031898618,0.026640471,0.0022502611,-6.667511,0.0,0.0,0.0
1411824409,-0.13993512,-0.26768392,-1.3483053,-0.022870092,0.0,-0.0037618675,-0.16445982,0.0033702254,0.038632505,-0.01410202,-6.629639,0.0,0.0,0.0
1411925532,-0.15362439,-0.2863607,-1.3483053,-0.022870092,0.0,-0.0039366977,-0.17210299,0.003645897,0.07388618,-0.025967995,-6.7137012,0.0,0.0,0.0
1412025255,-0.1566152,-0.29769,-1.3483053,-0.022870092,0.0,-0.0040785167,-0.178303,0.0039584637,0.051521074,-0.049511842,-6.6570077,0.0,0.0,0.0
1412129245,-0.16253677,-0.30911675,-1.3483053,-0.022870092,0.0,-0.004092665,-0.17892152,0.004679203,0.041522942,-0.0647961,-6.669965,0.0,0.0,0.0
1412229385,-0.16795255,-0.32029834,-1.3483053,-0.022870092,0.0,-0.0040929588,-0.17893434,0.0054144263,0.05037628,-0.05827471,-6.6422787,0.0,0.0,0.0
1412330064,-0.17198363,-0.3328146,-1.3483053,-0.022870092,0.0,-0.0041356646,-0.18080136,0.0059787035,0.055461902,-0.05375381,-6.6569886,0.0,0.0,0.0
1412434107,-0.17433901,-0.347151,-1.3483053,-0.022870092,0.0,-0.0041775806,-0.18263383,0.0065425634,0.04184837,-0.062007543,-6.6630406,0.0,0.0,0.0
1412534429,-0.17549461,-0.3623661,-1.3483053,-0.022870092,0.0,-0.004205943,-0.18387379,0.0070800185,0.049254883,-0.058542736,-6.62579,0.0,0.0,0.0
1412634008,-0.17581823,-0.3779234,-1.3483053,-0.022870092,0.0,-0.0042183604,-0.1844166,0.007502556,0.038203545,-0.06321055,-6.6597548,0.0,0.0,0.0
1412738009,-0.17464487,-0.39441988,-1.3483053,-0.022870092,0.0,-0.0042186365,-0.18442869,0.007816732,0.02408413,-0.061869655,-6.6669784,0.0,0.0,0.0
1412838480,-0.17268991,-0.410896,-1.3483053,-0.022870092,0.0,-0.0042186365,-0.18442869,0.008178115,0.028506074,-0.058228984,-6.63516,0.0,0.0,0.0
1412939161,-0.1713503,-0.4267046,-1.3483053,-0.022870092,0.0,-0.0042623337,-0.186339,0.00823468,0.031195562,-0.0503542,-6.6724334,0.0,0.0,0.0
1413043600,-0.17381035,-0.43526676,-1.3483053,-0.022870092,0.0,-0.004604128,-0.20128146,0.008345485,0.057516005,-0.045232385,-6.718362,0.0,0.0,0.0
1413147362,-0.17612918,-0.4559948,-1.3483053,-0.022870092,0.0,-0.004595727,-0.20091419,0.00804615,0.041955285,-0.059664644,-6.7215996,0.0,0.0,0.0
1413247617,-0.17625478,-0.4728882,-1.3483053,-0.022870092,0.0,-0.0046383822,-0.20277895,0.008303106,0.021288604,-0.058303017,-6.669704,0.0,0.0,0.0
1413348115,-0.17522752,-0.4903135,-1.3483053,-0.022870092,0.0,-0.0046376074,-0.2027451,0.008436918,0.01925541,-0.06966247,-6.678457,0.0,0.0,0.0
1413451949,-0.17330751,-0.5097889,-1.3483053,-0.022870092,0.0,-0.0046375683,-0.20274338,0.008381724,0.031581,-0.040367622,-6.7079997,0.0,0.0,0.0
1413551897,-0.17048928,-0.5308708,-1.3483053,-0.022870092,0.0,-0.004637568,-0.20274337,0.008227587,0.04073646,-0.04072507,-6.6858616,0.0,0.0,0.0
1413652699,-0.14590004,-0.5686061,-1.3483053,-0.022870092,0.0,-0.0046462216,-0.20312169,0.008217394,0.13670765,0.024802761,-6.697331,0.0,0.0,0.0
1413756802,-0.15726699,-0.5856337,-1.3483053,-0.022870092,0.0,-0.004646446,-0.2031315,0.007962465,0.037862465,-0.033040665,-6.670932,0.0,0.0,0.0
1413856400,-0.15161511,-0.61220944,-1.3483053,-0.022870092,0.0,-0.005248809,-0.22946534,0.008181572,0.032033436,-0.046433035,-6.6615887,0.0,0.0,0.0
1413956734,-0.14635056,-0.6373673,-1.3483053,-0.022870092,0.0,-0.0065872525,-0.2879789,0.008436263,0.040509585,-0.12408671,-6.6304507,0.0,0.0,0.0
1414060892,-0.14078006,-0.66155344,-1.3483053,-0.022870092,0.0,-0.006673403,-0.29174522,0.00868696,0.030494368,-0.11256333,-6.6477923,0.0,0.0,0.0
1414161221,-0.1352732,-0.6850996,-1.3483053,-0.022870092,0.0,-0.006735075,-0.29444137,0.008797169,0.0050743762,-0.097999014,-6.6855483,0.0,0.0,0.0
1414261364,-0.12946635,-0.70868295,-1.3483053,-0.022870092,0.0,-0.0067773135,-0.29628792,0.008849859,0.0073942863,-0.08321546,-6.6887383,0.0,0.0,0.0
1414365485,-0.12506437,-0.7324492,-1.3483053,-0.022870092,0.0,-0.0068701226,-0.3003453,0.008854091,0.013206704,-0.095296204,-6.6678324,0.0,0.0,0.0
1414464929,-0.12175835,-0.7551686,-1.3483053,-0.022870092,0.0,-0.0068993955,-0.30162507,0.00882566,0.014426106,-0.0925638,-6.671437,0.0,0.0,0.0
1414566004,-0.1188831,-0.778106,-1.3483053,-0.022870092,0.0,-0.0068998104,-0.30164316,0.008930147,0.01542657,-0.08561032,-6.6491165,0.0,0.0,0.0
1414669686,-0.11551685,-0.8011383,-1.3483053,-0.022870092,0.0,-0.0068997964,-0.30164257,0.00906533,0.019125802,-0.08807313,-6.654203,0.0,0.0,0.0
1414770358,-0.1109894,-0.82279223,-1.3483053,-0.022870092,0.0,-0.0068997964,-0.30164257,0.009159505,0.0063544586,-0.08181711,-6.666008,0.0,0.0,0.0
1414869696,-0.10575883,-0.84384054,-1.3483053,-0.022870092,0.0,-0.0069434927,-0.3035529,0.009158254,0.017882083,-0.08087324,-6.643562,0.0,0.0,0.0
1414974493,-0.099129744,-0.866245,-1.3483053,-0.022870092,0.0,-0.0069124894,-0.3021975,0.008990288,0.00835474,-0.085455656,-6.634199,0.0,0.0,0.0
1415074762,-0.09460952,-0.8885968,-1.3483053,-0.022870092,0.0,-0.0069001103,-0.3016563,0.008757472,0.0071325484,-0.07562932,-6.6736813,0.0,0.0,0.0
1415174832,-0.09263647,-0.912742,-1.3483053,-0.022870092,0.0,-0.0068560997,-0.29973227,0.008398235,0.02571104,-0.06553134,-6.6246715,0.0,0.0,0.0
1415278801,-0.09208935,-0.93919927,-1.3483053,-0.022870092,0.0,-0.0067433673,-0.29480386,0.00814724,0.03682999,-0.049741562,-6.6344843,0.0,0.0,0.0
1415379787,-0.09321401,-0.96708435,-1.3483053,-0.022870092,0.0,-0.006470288,-0.2828655,0.0077674985,0.0321858,-0.03098509,-6.6915936,0.0,0.0,0.0
1415479635,-0.094511285,-0.99663913,-1.3483053,-0.022870092,0.0,-0.0064811045,-0.28333834,0.0075646043,0.04198004,-0.026202628,-6.6358504,0.0,0.0,0.0
1415583675,-0.09607023,-1.0303962,-1.3483053,-0.022870092,0.0,-0.0064808745,-0.2833283,0.0074434876,0.05111123,-0.012709799,-6.624871,0.0,0.0,0.0
1415684286,-0.08922266,-1.0790402,-1.3483053,-0.022870092,0.0,-0.0064371685,-0.2814176,0.007707894,-0.0018986001,0.01571155,-6.7206435,0.0,0.0,0.0
1415784315,-0.08915615,-1.1156268,-1.3483053,-0.022870092,0.0,-0.0063853054,-0.27915025,0.007685721,0.036215186,0.01655675,-6.622146,0.0,0.0,0.0
1415888421,-0.09138307,-1.1523951,-1.3483053,-0.022870092,0.0,-0.0063531203,-0.27774322,0.007906973,0.05078876,-0.005547163,-6.6266813,0.0,0.0,0.0
1415989251,-0.09555875,-1.1809238,-1.3483053,-0.022870092,0.0,-0.006355244,-0.27783605,0.008147597,0.04848229,-0.0370335,-6.6335673,0.0,0.0,0.0
1416088470,-0.10187949,-1.2048826,-1.3483053,-0.022870092,0.0,-0.0063551874,-0.27783358,0.008374333,0.080511875,-0.041922547,-6.6287513,0.0,0.0,0.0
1416192075,-0.11053731,-1.2260423,-1.3483053,-0.022870092,0.0,-0.006326026,-0.2765587,0.008445382,0.07885857,-0.05834956,-6.640019,0.0,0.0,0.0
1416393262,-0.1230095,-1.2651036,-1.3483053,-0.022870092,0.0,-0.006321945,-0.27638033,0.008439839,0.061396837,-0.060701493,-6.624634,0.0,0.0,0.0
1416497267,-0.1254257,-1.2892329,-1.3483053,-0.022870092,0.0,-0.006328053,-0.2766473,0.00859648,0.059716832,-0.059332397,-6.638355,0.0,0.0,0.0
1416597397,-0.12696365,-1.3135617,-1.3483053,-0.022870092,0.0,-0.006313587,-0.27601492,0.008957446,0.046916224,-0.056192778,-6.6689057,0.0,0.0,0.0
1416696843,-0.12884545,-1.3386327,-1.3483053,-0.022870092,0.0,-0.006282774,-0.27466786,0.009267986,0.057740945,-0.058310177,-6.6320715,0.0,0.0,0.0
1416803053,-0.12995502,-1.3638253,-1.3483053,-0.022870092,0.0,-0.006269252,-0.27407667,0.009906769,0.05221007,-0.055474315,-6.6173124,0.0,0.0,0.0
1416906487,-0.13022554,-1.3880944,-1.3483053,-0.022870092,0.0,-0.0063005434,-0.2754447,0.010273337,0.04127326,-0.061391037,-6.6573515,0.0,0.0,0.0
1417005658,-0.1312366,-1.4112803,-1.3483053,-0.022870092,0.0,-0.006333483,-0.2768847,0.010211825,0.04582343,-0.05906677,-6.6701865,0.0,0.0,0.0
1417107097,-0.13321638,-1.4346639,-1.3483053,-0.022870092,0.0,-0.006321988,-0.27638218,0.0099310875,0.048934475,-0.06557644,-6.6707563,0.0,0.0,0.0
1417211138,-0.13610339,-1.4597142,-1.3483053,-0.022870092,0.0,-0.006266113,-0.27393946,0.009746969,0.07149925,-0.06451049,-6.656976,0.0,0.0,0.0
1417310800,-0.13999519,-1.4837236,-1.3483053,-0.022870092,0.0,-0.006254431,-0.27342874,0.009654343,0.065076075,-0.060452744,-6.6414323,0.0,0.0,0.0
1417411163,-0.14455679,-1.5071266,-1.3483053,-0.022870092,0.0,-0.006150441,-0.26888254,0.009765208,0.06851321,-0.056871258,-6.6419816,0.0,0.0,0.0
1417515554,-0.15082374,-1.5315132,-1.3483053,-0.022870092,0.0,-0.0061032847,-0.266821,0.009616613,0.058476202,-0.05483162,-6.654375,0.0,0.0,0.0
1417615361,-0.15739813,-1.5551248,-1.3483053,-0.022870092,0.0,-0.005614741,-0.24546303,0.009750187,0.071513794,-0.026161116,-6.657435,0.0,0.0,0.0
1417716389,-0.16561821,-1.5773734,-1.3483053,-0.022870092,0.0,-0.002812715,-0.122965164,0.010065317,0.078624934,0.13782577,-6.687818,0.0,0.0,0.0
1417819862,-0.16843812,-1.58829,-1.3483053,-0.022870092,0.0,0.00862623,0.016224325,0.009886444,0.09290969,0.304193,-6.730933,0.0,0.0,0.0
1417919286,-0.16843812,-1.58829,-1.3483053,-0.022870092,0.0,0.018464707,0.045428574,0.009308875,0.099177785,0.3000517,-6.7227297,0.0,0.0,0.0
1418020351,-0.16843812,-1.58829,-1.3483053,-0.022870092,0.0,0.026125543,0.07102257,0.009183943,0.09908461,0.26220784,-6.6746616,0.0,0.0,0.0
1418124730,-0.16843812,-1.58829,-1.3483053,-0.022870092,0.0,0.029937051,0.093380034,0.009088099,0.10348277,0.23614849,-6.633051,0.0,0.0,0.0
1418224442,-0.16843812,-1.58829,-1.3483053,-0.022870092,0.0,0.03027454,0.11090076,0.00879848,0.090680644,0.23014477,-6.6203775,0.0,0.0,0.0
1418325109,-0.16843812,-1.58829,-1.3483053,-0.022870092,0.0,0.02941373,0.12601805,0.008312821,0.0778602,0.21332486,-6.6199455,0.0,0.0,0.0
1418428526,-0.16843812,-1.58829,-1.3483053,-0.022870092,0.0,0.031151243,0.14018476,0.0077625513,0.07500477,0.20963416,-6.6627235,0.0,0.0,0.0
1418529229,-0.16843812,-1.58829,-1.3483053,-0.022870092,0.0,0.03407201,0.15226811,0.007267356,0.07428512,0.20743217,-6.660198,0.0,0.0,0.0
1418629790,-0.16843812,-1.58829,-1.3483053,-0.022870092,0.0,0.03767243,0.1617136,0.007030666,0.089963384,0.194832,-6.6514025,0.0,0.0,0.0
1418733365,-0.16843812,-1.58829,-1.3483053,-0.022870092,0.0,0.040784955,0.16714364,0.0068045855,0.07601664,0.17926562,-6.665996,0.0,0.0,0.0
1418833231,-0.16843812,-1.58829,-1.3483053,-0.022870092,0.0,0.042073064,0.16822976,0.006851256,0.062377438,0.16401368,-6.6573553,0.0,0.0,0.0
1418934797,-0.16843812,-1.58829,-1.3483053,-0.022870092,0.0,0.042678706,0.16565949,0.0070029497,0.07795122,0.13322452,-6.664449,0.0,0.0,0.0
1419038720,-0.16843812,-1.58829,-1.3483053,-0.022870092,0.0,0.042804256,0.15696555,0.0071968436,0.081478566,0.097614616,-6.642361,0.0,0.0,0.0
1419137661,-0.16843812,-1.58829,-1.3483053,-0.022870092,0.0,0.04078936,0.14439064,0.007290542,0.074302204,0.06338166,-6.655863,0.0,0.0,0.0
1419238356,-0.16843812,-1.58829,-1.3483053,-0.022870092,0.0,0.037793085,0.12938815,0.007277131,0.06866004,0.033797134,-6.6652155,0.0,0.0,0.0
1419343096,-0.16843812,-1.58829,-1.3483053,-0.022870092,0.0,0.032399923,0.11090058,0.007051885,0.039383564,0.0044691665,-6.7233067,0.0,0.0,0.0
1419442864,-0.16843812,-1.58829,-1.3483053,-0.022870092,0.0,0.025524639,0.09303564,0.0067701936,0.038050417,-0.013253881,-6.665768,0.0,0.0,0.0
1419543031,-0.16843812,-1.58829,-1.3483053,-0.022870092,0.0,0.016812153,0.07627183,0.006612301,0.016111922,-0.021142125,-6.6802044,0.0,0.0,0.0
1419646762,-0.16843812,-1.58829,-1.3483053,-0.022870092,0.0,0.006088279,0.060542464,0.0064436793,0.0064172377,-0.044277634,-6.6669908,0.0,0.0,0.0
1419748341,-0.16843812,-1.58829,-1.3483053,-0.022870092,0.0,-0.00410901,0.046386123,0.006263733,-0.01583385,-0.05927883,-6.6816854,0.0,0.0,0.0
1419847655,-0.16843812,-1.58829,-1.3483053,-0.022870092,0.0,-0.01044859,0.03220457,0.0061845183,-0.011391889,-0.05853544,-6.6465745,0.0,0.0,0.0
1419951618,-0.16843812,-1.58829,-1.3483053,-0.022870092,0.0,-0.011804067,0.016098976,0.006287098,0.008346247,-0.06503994,-6.6780276,0.0,0.0,0.0
1420051565,-0.16843812,-1.58829,-1.3483053,-0.022870092,0.0,-0.009426601,0.000618875,0.006298363,0.026921554,-0.07593941,-6.673097,0.0,0.0,0.0
1420151661,-0.17698365,-1.57135,-1.3483053,-0.022870092,0.0,-0.0052585825,-0.0035253167,0.0063504577,0.009411343,-0.07164088,-6.6611085,0.0,0.0,0.0
1420256102,-0.17698365,-1.57135,-1.3483053,-0.022870092,0.0,-0.0064864308,-0.01632893,0.0064605474,0.022174863,-0.07103659,-6.595436,0.0,0.0,0.0
1420356795,-0.17698365,-1.57135,-1.3483053,-0.022870092,0.0,-0.0045170635,-0.034779847,0.006795168,0.030561551,-0.10988778,-6.6391854,0.0,0.0,0.0
1420456410,-0.17698365,-1.57135,-1.3483053,-0.022870092,0.0,-0.0044274554,-0.051551342,0.006932676,0.02532686,-0.12343091,-6.6414523,0.0,0.0,0.0
1420557204,-0.17698365,-1.57135,-1.3483053,-0.022870092,0.0,-0.005661875,-0.06773865,0.0072281957,0.013138541,-0.13543497,-6.6222563,0.0,0.0,0.0
1420661517,-0.17698365,-1.57135,-1.3483053,-0.022870092,0.0,-0.008719727,-0.0809564,0.007546425,0.0028702125,-0.11790864,-6.642876,0.0,0.0,0.0
1420760846,-0.17698365,-1.57135,-1.3483053,-0.022870092,0.0,-0.013612725,-0.0893991,0.0076315403,0.009332308,-0.11240737,-6.632507,0.0,0.0,0.0
1420865237,-0.17698365,-1.57135,-1.3483053,-0.022870092,0.0,-0.019612871,-0.093845844,0.0076724887,-0.01124532,-0.10162613,-6.6605077,0.0,0.0,0.0
1420965533,-0.17698365,-1.57135,-1.3483053,-0.022870092,0.0,-0.022812769,-0.094080806,0.007532239,-0.007413222,-0.07966441,-6.65687,0.0,0.0,0.0
1421066861,-0.17698365,-1.57135,-1.3483053,-0.022870092,0.0,-0.021618024,-0.09134585,0.007353127,0.0010666361,-0.07050757,-6.6832514,0.0,0.0,0.0
1421169980,-0.17698365,-1.57135,-1.3483053,-0.022870092,0.0,-0.018547073,-0.08686155,0.007279098,0.0021514264,-0.06341838,-6.671417,0.0,0.0,0.0
1421270111,-0.17698365,-1.57135,-1.3483053,-0.022870092,0.0,-0.013227224,-0.08142024,0.0070767403,0.023467118,-0.034037117,-6.668901,0.0,0.0,0.0
1421370350,-0.17698365,-1.57135,-1.3483053,-0.022870092,0.0,-0.0058359727,-0.07569176,0.0070225596,0.03616517,-0.033416376,-6.677584,0.0,0.0,0.0
1421474775,-0.17698365,-1.57135,-1.3483053,-0.022870092,0.0,0.002561286,-0.06967789,0.00693053,0.063675776,-0.034219448,-6.650203,0.0,0.0,0.0
1421575099,-0.17698365,-1.57135,-1.3483053,-0.022870092,0.0,0.010221563,-0.064098716,0.0068035126,0.07556013,-0.021976715,-6.6373987,0.0,0.0,0.0
1421675108,-0.17698365,-1.57135,-1.3483053,-0.022870092,0.0,0.015736096,-0.05915934,0.006773412,0.07683375,-0.026163748,-6.64132,0.0,0.0,0.0
1421779121,-0.17698365,-1.57135,-1.3483053,-0.022870092,0.0,0.019744433,-0.05438447,0.006626487,0.07403934,-0.026694207,-6.6497145,0.0,0.0,0.0
1421878459,-0.1930992,-1.5376972,-1.3483053,-0.022870092,0.0,0.046532966,-0.0010643988,0.006435871,0.11105132,0.04950949,-6.639443,0.0,0.0,0.0
1421980002,-0.21511653,-1.5330384,-1.3483053,-0.022870092,0.0,0.13576497,-0.003105499,0.0064392686,0.23410766,0.03391781,-6.658255,0.0,0.0,0.0
1422083939,-0.2048369,-1.5377811,-1.3483053,-0.022870092,0.0,0.20377886,-0.0046612537,0.006515205,0.28546533,0.01015428,-6.619454,0.0,0.0,0.0
1422183870,-0.20054145,-1.5383127,-1.3483053,-0.022870092,0.0,0.24103232,-0.005513393,0.0067236423,0.28352067,-0.006167772,-6.6184525,0.0,0.0,0.0
1422283751,-0.18917724,-1.5368205,-1.3483053,-0.022870092,0.0,0.2635708,-0.0060289386,0.006997645,0.27088383,-0.010837003,-6.632933,0.0,0.0,0.0
1422384636,-0.17330505,-1.5341322,-1.3483053,-0.022870092,0.0,0.27931538,-0.0063890824,0.007189691,0.23889332,-0.021505615,-6.625012,0.0,0.0,0.0
1422488442,-0.15425034,-1.529932,-1.3483053,-0.022870092,0.0,0.2924556,-0.0066896533,0.0074682236,0.22993289,-0.02858363,-6.649781,0.0,0.0,0.0
1422588355,-0.13510583,-1.5257391,-1.3483053,-0.022870092,0.0,0.29280806,-0.006697715,0.007642925,0.21086988,-0.031007629,-6.607426,0.0,0.0,0.0
1422692379,-0.11749628,-1.5426962,-1.3483053,-0.022870092,0.0,0.3067717,-0.0070171203,0.0077878833,0.12429694,0.15263058,-6.62872,0.0,0.0,0.0
1422792900,-0.09544079,-1.5397617,-1.3483053,-0.022870092,0.0,0.31027022,-0.007097146,0.0076218247,0.17554176,0.014106065,-6.7279477,0.0,0.0,0.0
1422893737,-0.07507276,-1.5443792,-1.3483053,-0.022870092,0.0,0.32084104,-0.007338944,0.007511556,0.19072399,0.028424218,-6.6536293,0.0,0.0,0.0
1422992939,-0.055263083,-1.5486652,-1.3483053,-0.022870092,0.0,0.3233364,-0.0073960223,0.0075775385,0.18734676,0.027171465,-6.6443405,0.0,0.0,0.0
1423097321,-0.034425598,-1.5525355,-1.3483053,-0.022870092,0.0,0.33401278,-0.0076402347,0.0076287985,0.19334511,0.027125932,-6.6400023,0.0,0.0,0.0
1423197659,-0.015024148,-1.5582379,-1.3483053,-0.022870092,0.0,0.3380538,-0.0077326694,0.0076162815,0.2000029,0.032474883,-6.6114507,0.0,0.0,0.0
1423297690,0.005334148,-1.5652865,-1.3483053,-0.022870092,0.0,0.33914596,-0.007757652,0.0075591207,0.19523408,0.03742924,-6.6355615,0.0,0.0,0.0
1423401663,0.02861124,-1.5744641,-1.3483053,-0.022870092,0.0,0.34140027,-0.007809217,0.0073742867,0.16969083,0.05655815,-6.6666675,0.0,0.0,0.0
1423502342,0.052742966,-1.5829778,-1.3483053,-0.022870092,0.0,0.34466362,-0.007883863,0.0071323514,0.1592806,0.042648986,-6.657804,0.0,0.0,0.0
1423606410,0.08032282,-1.5909591,-1.3483053,-0.022870092,0.0,0.34961954,-0.007997226,0.0068469644,0.16207609,0.033411153,-6.6220336,0.0,0.0,0.0
1423706823,0.109150045,-1.5975096,-1.3483053,-0.022870092,0.0,0.35038012,-0.008014623,0.006810069,0.15651706,0.033063434,-6.5686693,0.0,0.0,0.0
1423806800,0.13878416,-1.6035107,-1.3483053,-0.022870092,0.0,0.353845,-0.008093879,0.006857574,0.15306017,0.03228694,-6.589299,0.0,0.0,0.0
1423906494,0.16857643,-1.6078173,-1.3483053,-0.022870092,0.0,0.35563934,-0.008134923,0.006849766,0.13311957,0.027007163,-6.607213,0.0,0.0,0.0
1424010853,0.19981517,-1.6104145,-1.3483053,-0.022870092,0.0,0.35550055,-0.008131748,0.0066744685,0.1470029,0.031770997,-6.602723,0.0,0.0,0.0
1424111682,0.22902484,-1.6099858,-1.3483053,-0.022870092,0.0,0.35549873,-0.008131707,0.0064020753,0.1502726,0.020855736,-6.6201057,0.0,0.0,0.0
1424212501,0.2565789,-1.6068536,-1.3483053,-0.022870092,0.0,0.35746342,-0.008176647,0.006045401,0.15120196,0.0005800865,-6.649069,0.0,0.0,0.0
1424315898,0.28497955,-1.6016352,-1.3483053,-0.022870092,0.0,0.35978422,-0.008229733,0.005791068,0.15450971,-0.011332306,-6.604709,0.0,0.0,0.0
1424415380,0.3136527,-1.5958598,-1.3483053,-0.022870092,0.0,0.36097905,-0.008257064,0.0058099627,0.15904418,-0.013460222,-6.563632,0.0,0.0,0.0
1424516488,0.34278607,-1.588699,-1.3483053,-0.022870092,0.0,0.3609797,-0.008257079,0.0057274103,0.15662698,-0.013966359,-6.613302,0.0,0.0,0.0
1424620721,0.37273976,-1.5822691,-1.3483053,-0.022870092,0.0,0.36097932,-0.008257071,0.0055156946,0.15613736,-0.012477879,-6.629119,0.0,0.0,0.0
1424720316,0.4011282,-1.5769206,-1.3483053,-0.022870092,0.0,0.3609793,-0.00825707,0.0052855015,0.15503271,-0.010909558,-6.606437,0.0,0.0,0.0
1424820911,0.42889154,-1.5717204,-1.3483053,-0.022870092,0.0,0.36288467,-0.008300654,0.0050700307,0.15459087,-0.015810149,-6.61138,0.0,0.0,0.0
1424925725,0.46049443,-1.5676223,-1.3483053,-0.022870092,0.0,0.36094207,-0.008256217,0.0049373507,0.15257137,0.0024368642,-6.6300483,0.0,0.0,0.0
1425025198,0.4938506,-1.564762,-1.3483053,-0.022870092,0.0,0.36097825,-0.008257045,0.004911363,0.1377297,-0.0052348315,-6.6472993,0.0,0.0,0.0
1425125539,0.5311356,-1.5620818,-1.3483053,-0.022870092,0.0,0.3609793,-0.00825707,0.0049130917,0.1264814,-0.021304356,-6.6036973,0.0,0.0,0.0
1425229251,0.58374786,-1.549362,-1.3483053,-0.022870092,0.0,0.3609793,-0.00825707,0.004900515,0.11609505,0.043852337,-6.624963,0.0,0.0,0.0
1425328892,0.62407535,-1.5541157,-1.3483053,-0.022870092,0.0,0.35991603,-0.008232748,0.004354,0.101314634,0.034984853,-6.6742363,0.0,0.0,0.0
1425430273,0.6736688,-1.5543731,-1.3483053,-0.022870092,0.0,0.36021408,-0.008239565,0.0038130283,0.09293487,0.04199825,-6.650386,0.0,0.0,0.0
1425534334,0.7206564,-1.5556449,-1.3483053,-0.022870092,0.0,0.3598105,-0.008230334,0.0032673478,0.09017755,0.03157332,-6.687733,0.0,0.0,0.0
1425634025,0.7652879,-1.5568135,-1.3483053,-0.022870092,0.0,0.3609772,-0.008257021,0.0026897192,0.09074002,0.029346015,-6.640077,0.0,0.0,0.0
1425735257,0.8129791,-1.5578187,-1.3483053,-0.022870092,0.0,0.3609797,-0.008257079,0.0022755861,0.07569157,0.023035448,-6.6534886,0.0,0.0,0.0
1425839142,0.8642687,-1.5601226,-1.3483053,-0.022870092,0.0,0.3628416,-0.008299668,0.0020235777,0.05911566,0.023914697,-6.6200776,0.0,0.0,0.0
1425938693,0.91128045,-1.57931,-1.3483053,-0.022870092,0.0,0.3631852,-0.008307528,0.0018009543,0.1666942,-0.01758297,-6.71435,0.0,0.0,0.0
1426039143,0.9482035,-1.5762998,-1.3483053,-0.022870092,0.0,0.36461908,-0.008340326,0.0016804934,0.102433145,0.010204377,-6.654174,0.0,0.0,0.0
1426143877,0.9964705,-1.583329,-1.3483053,-0.022870092,0.0,0.36457378,-0.00833929,0.0017524362,0.09363591,0.014410252,-6.6162176,0.0,0.0,0.0
1426247844,1.0407132,-1.5871419,-1.3483053,-0.022870092,0.0,0.36462256,-0.008340405,0.0019341707,0.103828415,0.017540056,-6.6396832,0.0,0.0,0.0
1426347639,1.0802339,-1.5868272,-1.3483053,-0.022870092,0.0,0.3650101,-0.0083492715,0.0020173788,0.11394204,0.009608922,-6.6321616,0.0,0.0,0.0
1426451654,1.1219661,-1.5840366,-1.3483053,-0.022870092,0.0,0.36644587,-0.008382113,0.0020614862,0.107939556,0.00072466105,-6.6268697,0.0,0.0,0.0
1426551768,1.1615374,-1.5805254,-1.3483053,-0.022870092,0.0,0.3645552,-0.008338865,0.002030313,0.093209304,0.0017882375,-6.651972,0.0,0.0,0.0
1426652576,1.1935022,-1.5823117,-1.3483053,-0.022870092,0.0,0.3646347,-0.008340683,0.0019528866,0.21811348,-0.021731025,-6.7327337,0.0,0.0,0.0
1426752772,1.2309295,-1.5796409,-1.3483053,-0.022870092,0.0,0.3642557,-0.008332014,0.0015755892,0.10738653,-0.0042451858,-6.640627,0.0,0.0,0.0
1426856960,1.27498,-1.5849596,-1.3483053,-0.022870092,0.0,0.36468226,-0.008341772,0.0016258955,0.11745385,0.1171691,-6.693257,0.0,0.0,0.0
1426956438,1.3086638,-1.5864006,-1.3483053,-0.022870092,0.0,0.3659054,-0.008369749,0.001337409,0.11261268,0.027310396,-6.716722,0.0,0.0,0.0
1427060600,1.3496358,-1.5904583,-1.3483053,-0.022870092,0.0,0.3663867,-0.008380759,0.0012952685,0.096959464,0.046637725,-6.6464233,0.0,0.0,0.0
1427161247,1.3883961,-1.5938016,-1.3483053,-0.022870092,0.0,0.36607888,-0.008373718,0.0012103915,0.11553854,0.03334644,-6.6607966,0.0,0.0,0.0
1427261122,1.4239907,-1.5974472,-1.3483053,-0.022870092,0.0,0.365928,-0.008370266,0.0010501146,0.11192887,0.022840813,-6.6524315,0.0,0.0,0.0
1427361132,1.4558761,-1.6034999,-1.3483053,-0.022870092,0.0,0.36645016,-0.0083822105,0.0009045005,0.12052051,0.03918565,-6.6866,0.0,0.0,0.0
1427465338,1.4898945,-1.6106142,-1.3483053,-0.022870092,0.0,0.36645958,-0.008382427,0.0007312298,0.1268595,0.026780298,-6.6370106,0.0,0.0,0.0
1427565727,1.5193504,-1.6129061,-1.3483053,-0.022870092,0.0,0.36836517,-0.008426015,0.0005273223,-0.02103656,0.030745188,-6.694507,0.0,0.0,0.0
1427666490,1.5643846,-1.6147697,-1.3483053,-0.022870092,0.0,0.3702494,-0.008469114,0.00019341707,0.107287586,0.000892485,-6.7245936,0.0,0.0,0.0
1427770234,1.6060998,-1.617485,-1.3483053,-0.022870092,0.0,0.3740442,-0.008555917,-0.00045734644,0.094776124,-0.014874772,-6.681938,0.0,0.0,0.0
1427870513,1.6443119,-1.6223356,-1.3483053,-0.022870092,0.0,0.37465763,-0.008569948,-0.0009313822,0.09623739,0.00088421436,-6.711949,0.0,0.0,0.0
1427971043,1.6632762,-1.6395816,-1.3483053,-0.022870092,0.0,0.37563097,-0.008592213,-0.0016099811,0.21685196,-0.015850551,-6.7573023,0.0,0.0,0.0
1428074948,1.6946713,-1.6498346,-1.3483053,-0.022870092,0.0,0.37750006,-0.008634967,-0.0018472075,0.19989966,0.008349814,-6.6977625,0.0,0.0,0.0
1428174807,1.7323705,-1.6615123,-1.3483053,-0.022870092,0.0,0.3774189,-0.008633111,-0.001804173,0.16275665,0.021541553,-6.675542,0.0,0.0,0.0
1428275153,1.7794168,-1.6733738,-1.3483053,-0.022870092,0.0,0.37742049,-0.008633147,-0.0015966296,0.09810165,0.02713547,-6.659745,0.0,0.0,0.0
1428379894,1.8352224,-1.6842662,-1.3483053,-0.022870092,0.0,0.37742063,-0.00863315,-0.0012254119,0.07513626,0.024973027,-6.641975,0.0,0.0,0.0
1428479290,1.8928689,-1.6943436,-1.3483053,-0.022870092,0.0,0.37742063,-0.00863315,-0.00096583366,0.04688221,0.019892069,-6.667093,0.0,0.0,0.0
1428579922,1.9540318,-1.7029697,-1.3483053,-0.022870092,0.0,0.37742063,-0.00863315,-0.0008714795,0.027350876,0.007689275,-6.648858,0.0,0.0,0.0
1428683811,2.0150642,-1.7096498,-1.3483053,-0.022870092,0.0,0.3774207,-0.008633151,-0.000972569,0.044714753,0.019268582,-6.6650186,0.0,0.0,0.0
1428784136,2.0729833,-1.714808,-1.3483053,-0.022870092,0.0,0.37742063,-0.00863315,-0.0011552572,0.0394452,0.005088222,-6.6213684,0.0,0.0,0.0
1428884651,2.1287313,-1.7190316,-1.3483053,-0.022870092,0.0,0.37742063,-0.00863315,-0.0012972951,0.022940174,0.007907895,-6.6636786,0.0,0.0,0.0
1428988765,2.179229,-1.7217611,-1.3483053,-0.022870092,0.0,0.37742063,-0.00863315,-0.0015584826,0.051312566,0.00072681415,-6.6547103,0.0,0.0,0.0
1429088087,2.220487,-1.7230476,-1.3483053,-0.022870092,0.0,0.375456,-0.008588212,-0.0017813444,0.082623556,-0.0009806108,-6.6524286,0.0,0.0,0.0
1429189752,2.2578692,-1.7240678,-1.3483053,-0.022870092,0.0,0.3755956,-0.008591403,-0.0019499063,0.10422753,0.0012408989,-6.6829243,0.0,0.0,0.0
1429293379,2.2951128,-1.7247072,-1.3483053,-0.022870092,0.0,0.3755939,-0.008591365,-0.0018590689,0.10991333,0.0054518324,-6.624867,0.0,0.0,0.0
1429597198,2.4164326,-1.7383049,-1.3483053,-0.022870092,0.0,0.36906093,-0.008441929,-0.00060224533,0.079861395,0.027292868,-6.619961,0.0,0.0,0.0
1429798047,2.4979837,-1.7509363,-1.3483053,-0.022870092,0.0,0.1657596,-0.0037915981,0.00022417307,-0.22605205,0.045300093,-6.632092,0.0,0.0,0.0
1430006322,2.5490603,-1.755047,-1.3483053,-0.022870092,0.0,-0.022695422,-0.002747655,0.00022011995,-0.3402217,0.021703219,-6.6983724,0.0,0.0,0.0
1430107111,2.5490603,-1.755047,-1.3483053,-0.022870092,0.0,-0.047533393,-0.010639071,7.414818e-05,-0.27676746,-0.010625386,-6.618626,0.0,0.0,0.0
1430206478,2.5490603,-1.755047,-1.3483053,-0.022870092,0.0,-0.059288263,-0.022816122,-0.00023597479,-0.19796912,-0.034476936,-6.658793,0.0,0.0,0.0
1430411157,2.5490603,-1.755047,-1.3483053,-0.022870092,0.0,-0.05310881,-0.053904712,-0.0011573434,-0.056732357,-0.07595701,-6.623662,0.0,0.0,0.0
1430511646,2.5490603,-1.755047,-1.3483053,-0.022870092,0.0,-0.042702913,-0.06788921,-0.0014604926,-0.0062381914,-0.1009481,-6.66562,0.0,0.0,0.0
1430615639,2.5490603,-1.755047,-1.3483053,-0.022870092,0.0,-0.029924512,-0.08060539,-0.0017086864,0.032454062,-0.097201526,-6.6472006,0.0,0.0,0.0
1430819855,2.6113818,-1.7299773,-1.3483053,-0.022870092,0.0,-0.005834341,-0.0038089156,-0.0021143556,-0.026192097,0.068192996,-6.775071,0.0,0.0,0.0
1431020573,2.6113818,-1.7299773,-1.3483053,-0.022870092,0.0,-0.049879074,0.009203374,-0.0020014644,-0.09326264,0.06627578,-6.623165,0.0,0.0,0.0
1431120618,2.6113818,-1.7299773,-1.3483053,-0.022870092,0.0,-0.059097648,0.004791498,-0.00092351437,-0.085812524,0.030560456,-6.641634,0.0,0.0,0.0
1431224510,2.6113818,-1.7299773,-1.3483053,-0.022870092,0.0,-0.058500767,-0.0051439404,-7.5101852e-06,-0.045418117,0.00825735,-6.6676865,0.0,0.0,0.0
1431425652,2.5958242,-1.7082322,-1.3483053,-0.022870092,0.0,-0.04083717,0.021202862,9.447336e-05,-0.033671822,0.08416808,-6.769884,0.0,0.0,0.0
1431629399,2.5958242,-1.7082322,-1.3483053,-0.022870092,0.0,-0.016608238,0.026491463,-0.00042802095,0.011121009,0.08267856,-6.657746,0.0,0.0,0.0
1431834085,2.5958242,-1.7082322,-1.3483053,-0.022870092,0.0,0.0020198822,0.026499867,-2.4318695e-05,0.048467126,0.046041813,-6.696761,0.0,0.0,0.0
1432034036,2.5958242,-1.7082322,-1.3483053,-0.022870092,0.0,0.036539912,0.010342598,0.00046253204,0.12300619,-0.0076318923,-6.595098,0.0,0.0,0.0
1432138090,2.5958242,-1.7082322,-1.3483053,-0.022870092,0.0,0.047941804,0.0052013397,0.0007843971,0.11601058,-0.004289304,-6.6166306,0.0,0.0,0.0
1432240417,2.5633507,-1.7124035,-1.3483053,-0.022870092,0.0,0.0023092707,0.100955784,0.0011448264,0.03484488,0.1350276,-6.601204,0.0,0.0,0.0
1432338801,2.5659373,-1.714733,-1.3483053,-0.022870092,0.0,0.0037359477,0.1633267,0.0014773607,0.03355286,0.19693784,-6.5996943,0.0,0.0,0.0
1432442803,2.5672052,-1.7146509,-1.3483053,-0.022870092,0.0,0.006584112,0.28784162,0.0016813874,0.051047713,0.3295762,-6.6297297,0.0,0.0,0.0
1432543641,2.5672612,-1.710153,-1.3483053,-0.022870092,0.0,0.0077816895,0.34019682,0.0017927289,0.052538663,0.33172458,-6.599402,0.0,0.0,0.0
1432644589,2.5663478,-1.7005228,-1.3483053,-0.022870092,0.0,0.007774385,0.3398775,0.0020996332,0.056811687,0.2771502,-6.631058,0.0,0.0,0.0
1432748309,2.55719,-1.6805735,-1.3483053,-0.022870092,0.0,0.008028447,0.35098445,0.0023206472,0.05092741,0.28438166,-6.6594434,0.0,0.0,0.0
1432847634,2.5505488,-1.6628653,-1.3483053,-0.022870092,0.0,0.0080673015,0.35268316,0.0024293065,0.029916214,0.24069998,-6.597832,0.0,0.0,0.0
1432947904,2.5399752,-1.6409082,-1.3483053,-0.022870092,0.0,0.008065235,0.35259274,0.0028988123,0.04808786,0.21485049,-6.5966167,0.0,0.0,0.0
1433053106,2.5306718,-1.6170517,-1.3483053,-0.022870092,0.0,0.008079735,0.35322666,0.0034527183,0.047562182,0.17874229,-6.625901,0.0,0.0,0.0
1433156723,2.5264652,-1.5939536,-1.3483053,-0.022870092,0.0,0.008110138,0.35455582,0.0039334297,0.050959572,0.16691215,-6.586223,0.0,0.0,0.0
1433256084,2.5297563,-1.573059,-1.3483053,-0.022870092,0.0,0.008070774,0.35283494,0.0043513775,0.033940755,0.15993425,-6.623296,0.0,0.0,0.0
1433360425,2.5408757,-1.5549105,-1.3483053,-0.022870092,0.0,0.008097989,0.35402465,0.0048202276,0.00077821326,0.17020155,-6.6114454,0.0,0.0,0.0
1433461174,2.5579267,-1.53914,-1.3483053,-0.022870092,0.0,0.008050023,0.35192776,0.0049737096,-0.005200838,0.1732806,-6.621582,0.0,0.0,0.0
1433561194,2.5818825,-1.5201727,-1.3483053,-0.022870092,0.0,0.008036004,0.35131487,0.0045271516,0.116891645,0.112609915,-6.733715,0.0,0.0,0.0
1433661670,2.580809,-1.4924545,-1.3483053,-0.022870092,0.0,0.008015303,0.35040987,0.0040917397,0.053797957,0.13472746,-6.6795263,0.0,0.0,0.0
1433765505,2.584871,-1.4623841,-1.3483053,-0.022870092,0.0,0.007895276,0.34516257,0.0038167834,0.011378895,0.02913119,-6.729689,0.0,0.0,0.0
1433866685,2.5923007,-1.428051,-1.3483053,-0.022870092,0.0,0.007898629,0.34530914,0.0032943487,0.038669527,0.068720646,-6.73636,0.0,0.0,0.0
1433966048,2.604458,-1.398324,-1.3483053,-0.022870092,0.0,0.007889947,0.3449296,0.003049612,0.02116003,0.070047796,-6.650599,0.0,0.0,0.0
1434069653,2.6204066,-1.3698418,-1.3483053,-0.022870092,0.0,0.007857185,0.34349734,0.0031657815,0.013642163,0.091725476,-6.631492,0.0,0.0,0.0
1434170367,2.642198,-1.3480204,-1.3483053,-0.022870092,0.0,0.007856867,0.34348342,0.0035476089,-0.027013415,0.114091404,-6.653218,0.0,0.0,0.0
1434274380,2.6685843,-1.3305287,-1.3483053,-0.022870092,0.0,0.007900343,0.3453841,0.003730476,-0.044077363,0.12979491,-6.6507106,0.0,0.0,0.0
1434374874,2.6942446,-1.3172382,-1.3483053,-0.022870092,0.0,0.0078985095,0.34530395,0.0038375258,-0.043221563,0.16216734,-6.659412,0.0,0.0,0.0
1434475575,2.7186055,-1.3067884,-1.3483053,-0.022870092,0.0,0.007985496,0.34910676,0.0036566257,-0.030098522,0.17199558,-6.6208253,0.0,0.0,0.0
1434574798,2.7377684,-1.2929791,-1.3483053,-0.022870092,0.0,0.008031323,0.35111022,0.0033575296,-0.037019335,0.16980065,-6.6857896,0.0,0.0,0.0
1434679642,2.7543793,-1.2738909,-1.3483053,-0.022870092,0.0,0.0080236625,0.3507753,0.0029884577,-0.03148144,0.14409101,-6.7287283,0.0,0.0,0.0
1434779939,2.7670286,-1.2513586,-1.3483053,-0.022870092,0.0,0.008023587,0.35077196,0.0026562214,-0.0036981376,0.1292494,-6.6678863,0.0,0.0,0.0
1434879638,2.776429,-1.2247635,-1.3483053,-0.022870092,0.0,0.008023593,0.35077223,0.002462089,-0.0059655346,0.11594555,-6.6568494,0.0,0.0,0.0
1434983316,2.7942955,-1.1874769,-1.3483053,-0.022870092,0.0,0.008111892,0.3546325,0.0022237897,0.04852031,0.0039467514,-6.7140393,0.0,0.0,0.0
1435083603,2.7971516,-1.1546147,-1.3483053,-0.022870092,0.0,0.008150114,0.35630348,0.0019891262,0.01299007,0.089306034,-6.6299167,0.0,0.0,0.0
1435288446,2.7929401,-1.1072166,-1.3483053,-0.022870092,0.0,0.00828198,0.3620683,0.0018366575,0.022463478,0.24282773,-6.655089,0.0,0.0,0.0
1435488440,2.788472,-1.0417103,-1.3483053,-0.022870092,0.0,0.008273673,0.36170518,0.001726687,0.049414847,0.08737962,-6.600831,0.0,0.0,0.0
1435593251,2.781668,-1.0042673,-1.3483053,-0.022870092,0.0,0.00830269,0.36297375,0.0022153258,0.050714146,0.09135489,-6.6432614,0.0,0.0,0.0
1435793239,2.7801898,-0.92586577,-1.3483053,-0.022870092,0.0,0.008357851,0.36538526,0.0037673712,0.029937265,0.0708911,-6.607456,0.0,0.0,0.0
1435897232,2.7825103,-0.88273597,-1.3483053,-0.022870092,0.0,0.008386073,0.36661902,0.0039750934,0.020326424,0.060086954,-6.62688,0.0,0.0,0.0
1435997978,2.7854285,-0.83928996,-1.3483053,-0.022870092,0.0,0.008398445,0.3671599,0.0040338635,0.016549055,0.059015814,-6.642392,0.0,0.0,0.0
1436097689,2.7874963,-0.7954508,-1.3483053,-0.022870092,0.0,0.008398721,0.36717194,0.003889501,0.01720859,0.054054383,-6.6605535,0.0,0.0,0.0
1436202034,2.7896843,-0.7495466,-1.3483053,-0.022870092,0.0,0.00839872,0.3671719,0.0037175417,0.02438801,0.031168573,-6.5942473,0.0,0.0,0.0
1436302578,2.7917068,-0.7058919,-1.3483053,-0.022870092,0.0,0.00839872,0.3671719,0.0035478473,0.022078652,0.026115881,-6.619446,0.0,0.0,0.0
1436402797,2.794183,-0.66298497,-1.3483053,-0.022870092,0.0,0.00839872,0.3671719,0.0034685135,0.027642675,0.038025606,-6.6281786,0.0,0.0,0.0
1436506496,2.7980964,-0.61853766,-1.3483053,-0.022870092,0.0,0.00839872,0.3671719,0.0033371449,0.025810925,0.042953674,-6.6446176,0.0,0.0,0.0
1436607167,2.802983,-0.5765389,-1.3483053,-0.022870092,0.0,0.00840733,0.36754835,0.0031994581,0.022454673,0.049644567,-6.633082,0.0,0.0,0.0
1436706820,2.8084915,-0.5360822,-1.3483053,-0.022870092,0.0,0.008419684,0.3680884,0.0031701326,0.00574551,0.048819017,-6.6704082,0.0,0.0,0.0
1436811908,2.8145974,-0.49488235,-1.3483053,-0.022870092,0.0,0.008440362,0.36899242,0.0032301545,0.020529363,0.053530112,-6.635616,0.0,0.0,0.0
1436911506,2.818713,-0.45740572,-1.3483053,-0.022870092,0.0,0.008411412,0.3677268,0.00331074,0.034843042,0.06276176,-6.6084356,0.0,0.0,0.0
1437011648,2.821222,-0.42112225,-1.3483053,-0.022870092,0.0,0.00844382,0.36914358,0.0033898354,0.036924943,0.07867946,-6.6003556,0.0,0.0,0.0
1437115841,2.8223624,-0.3842951,-1.3483053,-0.022870092,0.0,0.008440361,0.3689924,0.00351578,0.03771756,0.08414216,-6.664257,0.0,0.0,0.0
1437216598,2.833704,-0.36191648,-1.3483053,-0.022870092,0.0,0.008483876,0.3708947,0.0032372475,0.031028623,0.13682029,-6.7267885,0.0,0.0,0.0
1437316359,2.8421624,-0.32963532,-1.3483053,-0.022870092,0.0,0.008481806,0.37080425,0.0030456185,0.029950231,0.12547384,-6.672665,0.0,0.0,0.0
1437420352,2.8516548,-0.29836732,-1.3483053,-0.022870092,0.0,0.008482078,0.37081614,0.0032874346,0.037094306,0.116966486,-6.64698,0.0,0.0,0.0
1437520335,2.859967,-0.26762047,-1.3483053,-0.022870092,0.0,0.008482083,0.37081635,0.0035111904,0.019913858,0.116245694,-6.644255,0.0,0.0,0.0
1437620753,2.8694003,-0.23611404,-1.3483053,-0.022870092,0.0,0.008482083,0.37081635,0.003801167,0.006747981,0.109508544,-6.6618013,0.0,0.0,0.0
1437721235,2.8772717,-0.20372796,-1.3483053,-0.022870092,0.0,0.008499303,0.37156916,0.003904879,0.0032881275,0.10819721,-6.686283,0.0,0.0,0.0
1437824891,2.886151,-0.17090745,-1.3483053,-0.022870092,0.0,0.008564813,0.37443307,0.0038197637,-0.01373087,0.10467487,-6.6803656,0.0,0.0,0.0
1437925145,2.8943284,-0.1404595,-1.3483053,-0.022870092,0.0,0.008610314,0.37642232,0.003665328,-0.0007929793,0.10636796,-6.65558,0.0,0.0,0.0
1438029550,2.9024522,-0.10849277,-1.3483053,-0.022870092,0.0,0.008586763,0.37539274,0.0035197735,0.0049681347,0.10388314,-6.652084,0.0,0.0,0.0
1438130035,2.9099278,-0.076709844,-1.3483053,-0.022870092,0.0,0.008607085,0.37628114,0.0032163262,-0.010122177,0.09743315,-6.6654487,0.0,0.0,0.0
1438333696,2.9197996,-0.009526621,-1.3483053,-0.022870092,0.0,0.008565485,0.3744625,0.0032111406,-0.0053565106,0.09417044,-6.648658,0.0,0.0,0.0
1438434402,2.9234073,0.023875877,-1.3483053,-0.022870092,0.0,0.008565449,0.37446094,0.0032028556,0.00347762,0.08986768,-6.6461263,0.0,0.0,0.0
1438534479,2.928062,0.05778303,-1.3483053,-0.022870092,0.0,0.008594456,0.37572902,0.003179133,-0.0004352519,0.08882265,-6.642013,0.0,0.0,0.0
1438638680,2.9599013,0.08609979,-1.3483053,-0.022870092,0.0,0.008606849,0.37627083,0.0029332042,-0.022395862,0.12963377,-6.6600747,0.0,0.0,0.0
1438739664,2.9641495,0.12286493,-1.3483053,-0.022870092,0.0,0.008650601,0.37818357,0.0022792816,-0.02613107,0.10610596,-6.6963425,0.0,0.0,0.0
1438838734,2.9740725,0.15756941,-1.3483053,-0.022870092,0.0,0.008648767,0.37810338,0.001627922,-0.02235553,0.098908104,-6.6781077,0.0,0.0,0.0
1438940083,2.9765108,0.17301644,-1.3483053,-0.022870092,0.0,0.008657411,0.3784813,0.0011905432,-0.022659028,0.0673346,-6.683923,0.0,0.0,0.0
1439143298,2.9962273,0.24747017,-1.3483053,-0.022870092,0.0,0.008731914,0.3817384,-0.0003734231,-0.014980116,0.0942009,-6.620388,0.0,0.0,0.0
1439349092,3.0156581,0.31582966,-1.3483053,-0.022870092,0.0,0.008820277,0.38560137,-0.0018186569,-0.027343871,0.10448821,-6.675333,0.0,0.0,0.0
1439448460,3.024138,0.34822005,-1.3483053,-0.022870092,0.0,0.008815369,0.3853868,-0.0023784637,-0.026401497,0.08815865,-6.673739,0.0,0.0,0.0
1439548693,3.0317912,0.37906355,-1.3483053,-0.022870092,0.0,0.008859001,0.38729432,-0.0029533505,-0.014868753,0.09878513,-6.6485047,0.0,0.0,0.0
1439652760,3.0391502,0.41067246,-1.3483053,-0.022870092,0.0,0.008857171,0.38721433,-0.0031218529,-0.02223596,0.10544216,-6.6958423,0.0,0.0,0.0
1439753261,3.045539,0.44125754,-1.3483053,-0.022870092,0.0,0.008857207,0.3872159,-0.003262937,-0.024682317,0.113998555,-6.6616635,0.0,0.0,0.0
1439853529,3.0513718,0.4706074,-1.3483053,-0.022870092,0.0,0.008857212,0.3872161,-0.003370285,-0.032487758,0.11723938,-6.679866,0.0,0.0,0.0
1439957505,3.0573266,0.5024097,-1.3483053,-0.022870092,0.0,0.008835461,0.38626516,-0.0035232902,-0.023520038,0.1133901,-6.625919,0.0,0.0,0.0
1440057405,3.0626323,0.5345615,-1.3483053,-0.022870092,0.0,0.008848482,0.3868344,-0.0035054088,-0.03284017,0.11534988,-6.6963716,0.0,0.0,0.0
1440158085,3.067502,0.5678959,-1.3483053,-0.022870092,0.0,0.008858342,0.38726547,-0.0033625364,-0.026902078,0.12630814,-6.7117043,0.0,0.0,0.0
1440262014,3.0714025,0.6032366,-1.3483053,-0.022870092,0.0,0.00885723,0.38721687,-0.0030652285,-0.03540506,0.111568205,-6.6732063,0.0,0.0,0.0
1440362823,3.0741427,0.6380229,-1.3483053,-0.022870092,0.0,0.008835461,0.38626516,-0.0029130578,-0.03045826,0.11067789,-6.6852236,0.0,0.0,0.0
1440462043,3.0750804,0.6740442,-1.3483053,-0.022870092,0.0,0.008848482,0.3868344,-0.0028772354,-0.01988631,0.114926614,-6.6816025,0.0,0.0,0.0
1440566887,3.0757644,0.71213216,-1.3483053,-0.022870092,0.0,0.008859564,0.3873189,-0.0027694702,-0.025141839,0.09978855,-6.6970935,0.0,0.0,0.0
1440667140,3.0783057,0.74764496,-1.3483053,-0.022870092,0.0,0.008900704,0.38911748,-0.0026647449,-0.02387712,0.11096741,-6.7022195,0.0,0.0,0.0
1440766859,3.0842552,0.7833285,-1.3483053,-0.022870092,0.0,0.00894209,0.39092678,-0.0024875998,-0.03758732,0.109015286,-6.6879635,0.0,0.0,0.0
1440871618,3.0955315,0.8206991,-1.3483053,-0.022870092,0.0,0.009026496,0.3946168,-0.0019664764,-0.04442364,0.12631524,-6.6424,0.0,0.0,0.0
1440971837,3.1108468,0.8577521,-1.3483053,-0.022870092,0.0,0.009041137,0.39525685,-0.0012426972,-0.057242136,0.11519878,-6.625937,0.0,0.0,0.0
1441071669,3.1270537,0.89553857,-1.3483053,-0.022870092,0.0,0.009108915,0.39821994,-0.00053972006,-0.083900094,0.11212464,-6.6464634,0.0,0.0,0.0
1441175285,3.1428013,0.93601614,-1.3483053,-0.022870092,0.0,0.009107342,0.39815122,0.0004091859,-0.06537932,0.09520836,-6.6276255,0.0,0.0,0.0
1441275936,3.158082,0.97503215,-1.3483053,-0.022870092,0.0,0.009150773,0.4000499,0.001250267,-0.0688236,0.10052903,-6.609986,0.0,0.0,0.0
1441376316,3.173019,1.0132353,-1.3483053,-0.022870092,0.0,0.00914894,0.39996973,0.0019118786,-0.07047772,0.11563889,-6.641625,0.0,0.0,0.0
1441480508,3.190222,1.0393263,-1.3483053,-0.022870092,0.0,0.009191468,0.401829,0.0015881062,-0.014931134,0.08517147,-6.6833277,0.0,0.0,0.0
1441580886,3.19643,1.079296,-1.3483053,-0.022870092,0.0,0.009168947,0.4008444,0.001871407,-0.0026543334,0.0896475,-6.6176677,0.0,0.0,0.0
1441680382,3.2035418,1.1180944,-1.3483053,-0.022870092,0.0,0.00919054,0.4017884,0.0021630526,0.010376921,0.10740272,-6.638207,0.0,0.0,0.0
1441780580,3.2089574,1.1568866,-1.3483053,-0.022870092,0.0,0.00919068,0.40179452,0.002418816,-0.0024104565,0.10999191,-6.63517,0.0,0.0,0.0
1441885156,3.2141302,1.1979752,-1.3483053,-0.022870092,0.0,0.00919066,0.40179363,0.0026561618,-0.00073133165,0.10503268,-6.6118307,0.0,0.0,0.0
1441985264,3.2199695,1.2350767,-1.3483053,-0.022870092,0.0,0.0091893105,0.40173465,0.0026245713,-0.017725691,0.12079536,-6.6405635,0.0,0.0,0.0
1442089232,3.2269995,1.2712584,-1.3483053,-0.022870092,0.0,0.009190424,0.40178335,0.0027481318,-0.029244142,0.13435051,-6.660582,0.0,0.0,0.0
1442190767,3.2343724,1.2840934,-1.3483053,-0.022870092,0.0,0.009170256,0.40090162,0.0027403831,0.0072192177,0.09594418,-6.6701503,0.0,0.0,0.0
1442290015,3.2410243,1.3227067,-1.3483053,-0.022870092,0.0,0.009182008,0.40141544,0.0032405853,-0.00033124012,0.10596577,-6.6302595,0.0,0.0,0.0
1442394043,3.2523177,1.3574706,-1.3483053,-0.022870092,0.0,0.009178552,0.4012643,0.0038194656,-0.019672472,0.10899347,-6.635609,0.0,0.0,0.0
1442494806,3.2634635,1.3931965,-1.3483053,-0.022870092,0.0,0.009190441,0.4017841,0.0041656494,-0.034917865,0.105448425,-6.6526704,0.0,0.0,0.0
1442593998,3.2731109,1.4321885,-1.3483053,-0.022870092,0.0,0.009189313,0.40173477,0.004368961,-0.023442466,0.104338504,-6.664354,0.0,0.0,0.0
1442694903,3.282219,1.473753,-1.3483053,-0.022870092,0.0,0.00919058,0.40179014,0.0049725175,-0.017472789,0.10335205,-6.688727,0.0,0.0,0.0
1442798458,3.2896838,1.5178065,-1.3483053,-0.022870092,0.0,0.009190658,0.40179354,0.005310178,0.00212855,0.094545126,-6.6297626,0.0,0.0,0.0
1442899100,3.2953253,1.5612402,-1.3483053,-0.022870092,0.0,0.009182049,0.4014172,0.0057454705,-0.0058107716,0.082015686,-6.651401,0.0,0.0,0.0
1442999645,3.2998703,1.6050024,-1.3483053,-0.022870092,0.0,0.0091773225,0.40121055,0.0058808923,0.015020231,0.06172877,-6.637083,0.0,0.0,0.0
1443103616,3.3047762,1.6503469,-1.3483053,-0.022870092,0.0,0.009190446,0.40178427,0.0061139464,0.00438553,0.07212907,-6.6946707,0.0,0.0,0.0
1443203666,3.3090098,1.6929334,-1.3483053,-0.022870092,0.0,0.009189314,0.4017348,0.0063769817,0.0148017155,0.0658565,-6.6491823,0.0,0.0,0.0
1443307692,3.3108199,1.7362846,-1.3483053,-0.022870092,0.0,0.009176117,0.4011579,0.0065398216,0.02153001,0.07448802,-6.634576,0.0,0.0,0.0
1443407287,3.3095133,1.7782781,-1.3483053,-0.022870092,0.0,0.009145791,0.3998321,0.0065232515,0.029067982,0.062391594,-6.6478086,0.0,0.0,0.0
1443508503,3.2616258,1.8289009,-1.3483053,-0.022870092,0.0,0.009148944,0.39996994,0.006261587,-0.026535366,0.07753924,-6.6256223,0.0,0.0,0.0
1443608128,3.2720256,1.86906,-1.3483053,-0.022870092,0.0,0.009106487,0.39811382,0.0057345033,0.020215856,0.049204867,-6.689959,0.0,0.0,0.0
1443712613,3.2536535,1.9154527,-1.3483053,-0.022870092,0.0,0.009107258,0.39814752,0.004805863,0.0515204,0.058550134,-6.634367,0.0,0.0,0.0
1443812671,3.2375624,1.9556923,-1.3483053,-0.022870092,0.0,0.0089428555,0.39096022,0.003858149,0.056037378,0.061238572,-6.636725,0.0,0.0,0.0
1443913197,3.2263262,1.9941204,-1.3483053,-0.022870092,0.0,0.007440139,0.32526505,0.0030901432,0.05049146,-0.03210626,-6.694555,0.0,0.0,0.0
1444117156,3.229359,2.0592518,-1.3483053,-0.022870092,0.0,0.0015711895,0.068688646,0.0022901297,0.039084807,-0.36033624,-6.6615715,0.0,0.0,0.0
1444217264,3.226199,2.0902166,-1.3483053,-0.022870092,0.0,0.00055396557,-0.011872172,0.0016462803,0.03055154,-0.34264484,-6.795899,0.0,0.0,0.0
1444322327,3.226199,2.0902166,-1.3483053,-0.022870092,0.0,0.00925827,-0.056477666,0.0012090802,0.044282824,-0.43056932,-6.6656666,0.0,0.0,0.0
1444421703,3.226199,2.0902166,-1.3483053,-0.022870092,0.0,0.02387631,-0.10178697,0.0007953644,0.060963854,-0.41082582,-6.643312,0.0,0.0,0.0
1444522846,3.226199,2.0902166,-1.3483053,-0.022870092,0.0,0.038114905,-0.13970625,0.00045788288,0.08418979,-0.3857472,-6.6461067,0.0,0.0,0.0
1444626398,3.226199,2.0902166,-1.3483053,-0.022870092,0.0,0.051754475,-0.16626334,0.00012606382,0.10562366,-0.32693443,-6.634486,0.0,0.0,0.0
1444726507,3.226199,2.0902166,-1.3483053,-0.022870092,0.0,0.062874556,-0.17984855,-0.00013124943,0.11115159,-0.2569434,-6.6200924,0.0,0.0,0.0
1444827027,3.168394,2.2480872,-1.3483053,-0.022870092,0.0,0.021314748,-0.05473487,-0.0002770424,-0.1134909,0.43899694,-6.61237,0.0,0.0,0.0
1444931180,3.168394,2.2480872,-1.3483053,-0.022870092,0.0,-0.011225939,0.050129056,-0.0008896589,-0.014881722,0.19631422,-6.874348,0.0,0.0,0.0
1445030847,3.168394,2.2480872,-1.3483053,-0.022870092,0.0,0.00016880035,0.049489617,-0.0024861693,0.018076804,0.18661472,-6.9412613,0.0,0.0,0.0
1445131825,3.168394,2.2480872,-1.3483053,-0.022870092,0.0,0.014261842,0.035696268,-0.003898561,0.06568545,0.08282337,-6.8974843,0.0,0.0,0.0
1445235566,3.168394,2.2480872,-1.3483053,-0.022870092,0.0,0.030682325,0.01061368,-0.0050187707,0.110895775,-0.035382137,-6.824077,0.0,0.0,0.0
1445335668,3.168394,2.2480872,-1.3483053,-0.022870092,0.0,0.04567051,-0.018579125,-0.0058107376,0.10631203,-0.11515225,-6.8018517,0.0,0.0,0.0
1445435576,3.168394,2.2480872,-1.3483053,-0.022870092,0.0,0.058879137,-0.050488472,-0.006133437,0.14192006,-0.1571333,-6.88767,0.0,0.0,0.0
1445540736,3.168394,2.2480872,-1.3483053,-0.022870092,0.0,0.067581296,-0.07895887,-0.006476283,0.14946693,-0.15676202,-6.9106774,0.0,0.0,0.0
1445640614,3.168394,2.2480872,-1.3483053,-0.022870092,0.0,0.07237351,-0.09945989,-0.0068334937,0.13036552,-0.15161417,-6.854785,0.0,0.0,0.0
1445741175,3.168394,2.2480872,-1.3483053,-0.022870092,0.0,0.07459259,-0.11430645,-0.0068281293,0.13308407,-0.1423805,-6.8417583,0.0,0.0,0.0
1445845683,3.168394,2.2480872,-1.3483053,-0.022870092,0.0,0.07588613,-0.12578595,-0.0068674684,0.13380466,-0.15639198,-6.777569,0.0,0.0,0.0
1446053340,3.168394,2.2480872,-1.3483053,-0.022870092,0.0,0.07472491,-0.14252472,-0.006534219,0.110179864,-0.15771261,-6.8183017,0.0,0.0,0.0
1446152870,3.168394,2.2480872,-1.3483053,-0.022870092,0.0,0.07299793,-0.14869165,-0.0063714385,0.08894217,-0.15377401,-6.932313,0.0,0.0,0.0
1446257218,3.168394,2.2480872,-1.3483053,-0.022870092,0.0,0.0711658,-0.15509605,-0.006425798,0.10770911,-0.13536376,-6.944042,0.0,0.0,0.0
1446358721,3.168394,2.2480872,-1.3483053,-0.022870092,0.0,0.070611835,-0.1629796,-0.006570518,0.09848982,-0.1376119,-6.906194,0.0,0.0,0.0
1446458026,3.168394,2.2480872,-1.3483053,-0.022870092,0.0,0.07108247,-0.17060852,-0.0069850087,0.11677563,-0.18062674,-6.823607,0.0,0.0,0.0
1446561984,3.168394,2.2480872,-1.3483053,-0.022870092,0.0,0.07411516,-0.18095863,-0.007478416,0.119710885,-0.20228826,-6.7887897,0.0,0.0,0.0
1446662133,3.168394,2.2480872,-1.3483053,-0.022870092,0.0,0.077554464,-0.19043648,-0.007961214,0.11139039,-0.22446604,-6.827469,0.0,0.0,0.0
1446762767,3.1193979,2.3732157,-1.3483053,-0.022870092,0.0,-0.0077558756,0.012898922,-0.007859588,-0.040752795,0.15899688,-6.855396,0.0,0.0,0.0
1446867171,3.1193979,2.3732157,-1.3483053,-0.022870092,0.0,-0.011767745,0.01903689,-0.008392096,-0.024523605,0.123590924,-6.932149,0.0,0.0,0.0
1446971109,3.1193979,2.3732157,-1.3483053,-0.022870092,0.0,-0.0099931955,0.019634128,-0.009350777,0.016391743,0.099825904,-6.931222,0.0,0.0,0.0
1447071660,3.1193979,2.3732157,-1.3483053,-0.022870092,0.0,-0.0038137436,0.017827034,-0.010477424,0.038730167,0.057119682,-6.8880877,0.0,0.0,0.0
1447171539,3.1193979,2.3732157,-1.3483053,-0.022870092,0.0,-0.00065231323,0.011027098,-0.0115071535,0.042794324,-0.0005588269,-6.859568,0.0,0.0,0.0
1447276084,3.1193979,2.3732157,-1.3483053,-0.022870092,0.0,-0.0023331642,0.005262494,-0.012655556,0.029753847,-0.014596512,-6.7795978,0.0,0.0,0.0
1447375281,3.1193979,2.3732157,-1.3483053,-0.022870092,0.0,-0.009268284,0.0024461746,-0.013550818,0.013301474,-0.01491273,-6.906981,0.0,0.0,0.0
1447479665,3.1193979,2.3732157,-1.3483053,-0.022870092,0.0,-0.02053821,0.002427578,-0.014449775,0.005632718,0.0024598096,-6.8923683,0.0,0.0,0.0
1447580711,3.1193979,2.3732157,-1.3483053,-0.022870092,0.0,-0.033873796,0.00605464,-0.015329421,-0.031926222,0.04288423,-6.9110994,0.0,0.0,0.0
1447680433,3.1193979,2.3732157,-1.3483053,-0.022870092,0.0,-0.04362631,0.011185169,-0.016275346,-0.00066324516,0.034758378,-6.875088,0.0,0.0,0.0
1447781097,3.1193979,2.3732157,-1.3483053,-0.022870092,0.0,-0.051066756,0.018738627,-0.017015934,-0.012358302,0.015948016,-6.789751,0.0,0.0,0.0
1447884707,3.1571445,2.351777,-1.3483053,-0.022870092,0.0,-0.22196421,0.005077227,-0.01703304,-0.24417372,-0.034637414,-6.812239,0.0,0.0,0.0
1447985272,3.1553936,2.3527918,-1.3483053,-0.022870092,0.0,-0.31508824,0.007207354,-0.016964316,-0.33136365,-0.0032476003,-6.882845,0.0,0.0,0.0
1448086251,3.1525116,2.3449655,-1.3483053,-0.022870092,0.0,-0.32991093,0.0075464086,-0.017276645,-0.2904036,0.029104725,-6.86921,0.0,0.0,0.0
1448189544,3.1433215,2.337943,-1.3483053,-0.022870092,0.0,-0.33036116,0.0075567076,-0.017777205,-0.22027439,0.044047095,-6.902072,0.0,0.0,0.0
1448288855,3.1299558,2.3316498,-1.3483053,-0.022870092,0.0,-0.33306766,0.007618617,-0.018212974,-0.19764085,0.043071244,-6.853601,0.0,0.0,0.0
1448390038,3.1151733,2.325143,-1.3483053,-0.022870092,0.0,-0.33787265,0.007728526,-0.01848501,-0.17174529,0.022022668,-6.7759824,0.0,0.0,0.0
1448494007,3.0985422,2.3189027,-1.3483053,-0.022870092,0.0,-0.33942422,0.007764017,-0.01844871,-0.16727634,0.023715323,-6.839632,0.0,0.0,0.0
1448593954,3.0803542,2.3133993,-1.3483053,-0.022870092,0.0,-0.3431849,0.007850038,-0.018047392,-0.16007203,0.04432465,-6.9071975,0.0,0.0,0.0
