timestamp,rollspeed,pitchspeed,yawspeed,rollspeed_integ,pitchspeed_integ,yawspeed_integ,additional_integ1
1399021288,-0.016854305,-0.022311483,-0.020271787,0.0020208328,-0.03612674,0.033409216,0.0
1399049274,0.016663585,-0.03192293,-0.014092859,0.0019980266,-0.036142386,0.033409,0.0
1399081260,-0.063980155,-0.13800445,0.023056366,0.0020449504,-0.036097396,0.033401,0.0
1402206802,-0.018931676,-0.14399229,-0.0025778543,0.00027313526,-0.03316598,0.02986829,0.0
1402238841,-0.033869363,0.03761891,0.021266036,0.00023962706,-0.03315911,0.029837662,0.0
1402270846,-0.020485407,-0.030842252,-0.0014281813,0.00024365014,-0.033143792,0.02980913,0.0
1402302865,-0.0025372547,0.008638342,-0.035999432,0.00023534354,-0.033119112,0.029778846,0.0
1402334839,-0.024261512,-0.054088634,-0.002737397,0.00024085022,-0.033095475,0.029741595,0.0
1402366926,-0.037729923,0.07075905,0.0010939678,0.00029955723,-0.03308409,0.029699735,0.0
1402394839,0.002599578,0.022889309,0.011690336,0.00031173212,-0.033074852,0.02965896,0.0
1402426803,-0.0017414052,0.064552076,0.004833942,0.00033770344,-0.033064377,0.029607985,0.0
1402458789,0.005816736,-0.07784955,-0.009474178,0.0003887527,-0.033013124,0.029556341,0.0
1402490842,0.03774235,0.06351798,0.005444857,0.00041088916,-0.03298568,0.029497402,0.0
1402523587,0.010819415,-0.04099564,0.035068378,0.0004074086,-0.032930303,0.029417029,0.0
1402555593,0.05578905,0.054425042,0.027712142,0.00039120394,-0.03293146,0.029330954,0.0
1402587643,0.03504516,-0.05862906,0.021460501,0.00039820268,-0.032920897,0.029237201,0.0
1402619679,0.03581366,0.037236042,0.025475495,0.0004148207,-0.03290464,0.029131716,0.0
1402651597,0.039822936,0.03242188,0.02286851,0.00042892684,-0.032850444,0.029024085,0.0
1402683643,0.04639485,-0.097397655,0.010530245,0.000358354,-0.032776404,0.028916094,0.0
1402715597,0.0645182,0.09673434,-0.0015765681,0.00029512655,-0.032785885,0.028815638,0.0
1402747642,-0.005341278,-0.0036678985,0.024803458,0.00029140717,-0.032778595,0.028716892,0.0
1402779636,0.032345884,0.016927348,-0.007797956,0.000246881,-0.032790903,0.028632157,0.0
1402811648,0.03197437,-0.01909992,0.015424847,0.00020632087,-0.032808382,0.028538177,0.0
1402839593,0.025254898,-0.013367986,-0.0074201673,0.00018590706,-0.032821618,0.028461678,0.0
1402871627,0.018979046,-0.061802257,-0.006516584,0.00014000219,-0.03279303,0.02838386,0.0
1402903641,0.013493473,0.08191722,0.023151297,7.9009355e-05,-0.032793745,0.028301835,0.0
1402935638,-0.0063043926,-0.0886166,-0.008090734,6.978754e-05,-0.032773886,0.028236099,0.0
1402968445,0.016197214,0.035745673,-0.030969573,3.8090046e-05,-0.032785766,0.02817286,0.0
1403028457,-0.0043926947,-0.027567402,-0.02102598,-6.4314074e-05,-0.03263078,0.028065138,0.0
1403060448,-0.009622132,0.00299169,-0.016061451,-6.441589e-05,-0.03256169,0.028008817,0.0
1403092391,-0.0009928244,0.0120451385,-0.018598778,-9.246382e-05,-0.03254155,0.027959649,0.0
1403124443,-0.009737733,-0.025222486,-0.021592777,-0.00013186982,-0.03249822,0.0279117,0.0
1403156456,-0.013079732,0.10785133,-0.021988053,-0.00014946125,-0.032488924,0.027868034,0.0
1403220446,-0.012158173,0.0074023395,-0.00879829,-0.00027316783,-0.03240703,0.02779108,0.0
1403252446,-0.03825052,0.06857672,-0.016581364,-0.00025579048,-0.032418434,0.02775728,0.0
1403284446,-0.03206204,-0.05655132,-0.020908777,-0.00017784946,-0.032348655,0.027719686,0.0
1403316394,0.0003636976,0.024316775,-0.010044784,-0.0001955302,-0.032298703,0.027683564,0.0
1403348470,-0.019200435,0.039181363,-0.0110885,-0.00021746718,-0.03229011,0.027648875,0.0
1403380444,-0.010152424,0.08126463,-0.036715873,-0.00017874547,-0.032299466,0.027613271,0.0
1403413259,-0.0048526656,-0.08877032,0.012871223,-0.00016841161,-0.03224046,0.027570397,0.0
1403445287,0.0068397447,0.07048638,-0.0071200575,-0.00017741542,-0.03221347,0.027538972,0.0
1403477195,0.022470282,0.039093893,-0.017030094,-0.00016085229,-0.03219978,0.027515769,0.0
1403509260,0.013643628,-0.10219309,-0.007452225,-0.0001896509,-0.032166608,0.02747999,0.0
1403541253,-0.034257792,0.061519932,-0.007019287,-0.00022426789,-0.03216812,0.02745646,0.0
1403573295,-0.030233208,-0.009256287,-0.02472647,-0.00013891028,-0.03212775,0.027439814,0.0
1403605266,0.010795789,0.031034153,-0.04981836,-0.00010542352,-0.032081623,0.027431127,0.0
1403637256,0.0072966116,-0.042052522,0.0009385477,-0.00014745643,-0.032023255,0.027417349,0.0
1403669275,-0.018489195,0.07317093,-0.008395511,-0.00014231438,-0.032002844,0.027416576,0.0
1403701253,0.010756524,0.01831359,-0.01861773,-0.00012225893,-0.032004017,0.02742119,0.0
1403733193,-0.016605182,-0.120199,-0.021033065,-0.00013359236,-0.031951863,0.027426485,0.0
1403765194,-0.0069123823,0.07373181,-0.008766899,-0.00010778248,-0.031944837,0.027434196,0.0
1403797250,0.00570683,-0.061650842,-0.027088204,-0.00010110835,-0.031884506,0.027458064,0.0
1403829347,0.030888107,0.046582453,-0.041567054,-0.00014979356,-0.031868048,0.027487576,0.0
1403858000,0.014110626,0.036896333,-0.033799473,-0.00015102011,-0.031882614,0.027508512,0.0
1403890041,0.013700575,-0.043969914,-0.03640229,-0.00016360944,-0.031900547,0.02753964,0.0
1403922041,0.009880071,0.049784124,-0.023315402,-0.00018957509,-0.03191955,0.02757873,0.0
1403954039,-0.013368439,-0.058369618,-0.020360053,-0.000164673,-0.031892553,0.027617665,0.0
1403986049,-0.007995107,-0.005899339,-0.028185211,-0.00016476013,-0.0318898,0.027660007,0.0
1404018037,0.013400739,0.02551848,-0.019166572,-0.00014397588,-0.031879403,0.027696997,0.0
1404050043,-0.009186788,-0.13725011,-0.010416345,-0.00011733208,-0.03181213,0.027728636,0.0
1404082090,-0.019970614,-0.014980212,0.014076919,-0.00013068091,-0.0318364,0.027769027,0.0
1404110051,-0.015968427,-0.01739194,0.0072268816,-9.784641e-05,-0.031859018,0.027805785,0.0
1404142042,-0.0041921535,-0.046109267,0.007064416,-9.19163e-05,-0.031860854,0.027839532,0.0
1404173987,0.028561262,0.077358395,-0.02102619,-0.00011865258,-0.031896245,0.027883595,0.0
1404206045,-0.022706509,-0.1596494,-0.020782659,-7.3111005e-05,-0.031920157,0.027928999,0.0
1404238052,-0.0026079544,0.00034412905,-0.002796583,-3.609728e-05,-0.031970877,0.027976926,0.0
1404269990,0.007556313,-0.011382837,-0.008058792,-3.6750956e-05,-0.032003414,0.028033422,0.0
1404298789,-0.0056783957,-0.039513007,0.005183489,-3.992376e-05,-0.03206515,0.028085506,0.0
1404330840,0.019961633,0.005880939,-0.027958307,-2.7253578e-05,-0.03215358,0.02815499,0.0
1404362790,0.006536899,-0.09092649,-0.0335102,-2.8665243e-05,-0.032192253,0.028227787,0.0
1404394797,-0.012287175,0.018501056,-0.02079932,-8.559641e-06,-0.03221957,0.028303662,0.0
1404426842,-0.0014143004,-0.03643078,-0.015160426,1.5549213e-05,-0.03222357,0.028378058,0.0
1404458839,-0.018405935,-0.008638745,-0.015067503,3.271018e-05,-0.032263115,0.0284552,0.0
1404490843,-0.009030079,0.0077052666,-0.02451342,7.825298e-05,-0.03227708,0.028532237,0.0
1404522854,-0.017840102,-0.020344615,-0.026055066,0.00013695573,-0.032262683,0.02861087,0.0
1404550841,0.0039540464,0.02112462,-0.04384146,0.00017633122,-0.03226976,0.028679425,0.0
1404582830,0.0030953404,-0.054322153,0.000100028614,0.00017393386,-0.03225972,0.028746787,0.0
1404646848,-0.01739662,0.096875094,-0.00078044005,0.00023617275,-0.03225338,0.02889497,0.0
1404678800,-0.010696704,-0.09079491,-0.023693886,0.00029122565,-0.032184113,0.028977014,0.0
1404710865,-0.017304072,0.044166118,0.007458804,0.00032262132,-0.03220954,0.02906088,0.0
1404742844,-0.035546005,-0.04406467,0.010078367,0.00036905904,-0.03219346,0.029144624,0.0
1404771654,-0.0077607958,0.0120429825,-0.00026393172,0.00039264624,-0.03221702,0.029220905,0.0
1404803839,-0.0015132049,0.015178105,0.0018369482,0.00040688008,-0.032245878,0.029300096,0.0
1404835639,-0.026803197,-0.034499653,-0.0031174705,0.0004430158,-0.032267224,0.029382994,0.0
1404867592,0.013479003,0.08454204,-0.0067513427,0.00047853476,-0.03232922,0.029461313,0.0
1404899664,-0.018956186,-0.0900689,-0.015350249,0.00053885236,-0.03235352,0.02954241,0.0
1404931639,-0.009664293,0.034991313,0.011884477,0.00058278523,-0.032423835,0.02961165,0.0
1404963639,-0.015190627,0.0023142283,-0.003940083,0.0006408822,-0.032457102,0.029681364,0.0
1404995647,0.02028567,0.059392583,-0.023902597,0.00073425676,-0.032490876,0.029750474,0.0
1405055641,0.021324025,-0.13215685,-0.0073731644,0.0007980867,-0.032441985,0.029857034,0.0
1405087592,0.0026213909,0.052886564,0.014963118,0.00083416945,-0.032476444,0.029915322,0.0
1405119638,0.008913946,-0.0487248,0.019072298,0.0008817649,-0.032434195,0.029963933,0.0
1405151673,0.046344683,0.025660925,-0.0017203069,0.00092330074,-0.032394934,0.030010002,0.0
1405183594,0.008331388,-0.061424118,0.0021152361,0.0009736117,-0.032341257,0.030055532,0.0
1405212443,0.020555522,-0.036617503,0.0009631759,0.0010230418,-0.03230484,0.030094385,0.0
1405244441,0.025946412,0.081689626,-0.0019762563,0.0010800727,-0.03229479,0.030134235,0.0
1405276393,0.022903554,-0.120616525,0.02705372,0.0010995993,-0.032229174,0.030164935,0.0
1405308394,0.02731284,0.057141807,0.024818575,0.0011192026,-0.032210194,0.030200617,0.0
1405340397,0.029314129,-0.028319605,-0.0012461308,0.0011378053,-0.03215517,0.030252539,0.0
1405372441,0.025591724,-0.04303389,-0.032967523,0.0011191443,-0.03209637,0.030311206,0.0
1405404444,-0.0024468817,-0.037745904,0.012693872,0.0011158746,-0.032038875,0.030367304,0.0
1405436442,-0.017071567,0.024088997,-0.0061596977,0.0011532273,-0.031989943,0.03042902,0.0
1405464445,-0.017930169,-0.012735047,0.014053241,0.001163813,-0.031963557,0.030477451,0.0
1405496443,-0.0037161228,0.011797098,0.0071869525,0.001156002,-0.03195012,0.030532587,0.0
1405528406,-0.021275798,-0.060962617,0.0005446834,0.001170305,-0.031931195,0.030581579,0.0
1405592394,-0.015021687,-0.04226974,0.006765283,0.0012631917,-0.031921104,0.030637795,0.0
1405624443,-0.027489293,0.027943876,0.038751088,0.0013648901,-0.031907767,0.03064013,0.0
1405657472,-0.007890068,0.00510915,0.025660837,0.0014193837,-0.03184934,0.030635033,0.0
1405685301,0.0017086389,0.009952232,0.022356005,0.0014202117,-0.031816278,0.030630814,0.0
1405717258,0.005691729,0.14049526,0.0013294402,0.0014498908,-0.03182791,0.030632162,0.0
1405749190,-0.027769873,-0.1184876,0.01899384,0.0015031451,-0.031784542,0.030615589,0.0
1405781265,-0.010083726,0.07210833,0.04838387,0.0015352406,-0.031795543,0.030595174,0.0
1405813255,-0.0027551767,0.0037883346,0.040384304,0.0015668273,-0.03175331,0.030572953,0.0
1405877252,0.004471,0.027343523,0.022839498,0.0017002667,-0.031674277,0.03050083,0.0
1405909278,0.0015071323,0.038597148,0.031791147,0.0017310473,-0.031637028,0.030443942,0.0
1405937282,-0.010423182,0.023802701,0.030647673,0.0017369941,-0.031616513,0.03039533,0.0
1405969273,0.00028888532,0.08412568,0.027484426,0.0018226855,-0.031595718,0.03034066,0.0
1406001194,0.016359134,-0.050278403,0.006934255,0.0018478651,-0.031561676,0.030287854,0.0
1406033250,0.050377365,0.10733555,0.0064258547,0.0018353463,-0.031559624,0.030237114,0.0
1406066044,-0.0012679755,-0.008736141,0.023639034,0.0018733388,-0.031545203,0.030183768,0.0
1406097996,0.015039123,0.035150543,0.03525302,0.0018938098,-0.031573627,0.030131556,0.0
1406126070,0.014295431,0.07196635,0.014218816,0.0019302688,-0.031609457,0.03009104,0.0
1406158051,0.009969214,-0.017566273,0.023188679,0.0019748444,-0.031630676,0.03003633,0.0
1406190040,0.025047213,0.09917403,0.00025690367,0.002035526,-0.031682566,0.029980132,0.0
1406222041,0.012236869,-0.04573605,0.004303271,0.0020921703,-0.0316508,0.02993105,0.0
1406254042,-0.0014391247,-0.013400701,0.0046243127,0.002132529,-0.031605046,0.029880848,0.0
1406286050,0.03894962,0.069309354,-0.0031590736,0.0021365802,-0.03161793,0.029834941,0.0
1406318050,0.019296147,0.05022996,-0.030931057,0.0021579375,-0.03165482,0.029800955,0.0
1406350053,0.020560684,0.020865045,-0.011134996,0.0021714102,-0.031677634,0.02977018,0.0
1406378069,0.014801249,0.028052395,-0.03064565,0.0022178723,-0.03167904,0.02974441,0.0
1406409990,0.015617787,-0.10296285,0.0011874506,0.0022278074,-0.031661075,0.029721398,0.0
1406442039,0.01555287,0.10974193,0.0029172343,0.0022085928,-0.031701427,0.029694935,0.0
1406474050,0.013923648,-0.032296013,-0.01619744,0.0022125586,-0.03171151,0.029677581,0.0
1406506787,0.0066958186,-0.025739206,0.0070446674,0.002219752,-0.031724785,0.029650899,0.0
1406538854,-0.009872378,-0.042614076,0.019602373,0.0022259906,-0.031735357,0.029623503,0.0
1406570997,0.0064607454,0.058026295,-0.010624111,0.0022359572,-0.031788304,0.029602017,0.0
1406602844,-0.009546887,-0.081943534,-0.027024074,0.0022759193,-0.03179,0.029581733,0.0
1406634839,-0.022418339,0.0077618007,-0.008176849,0.0023564543,-0.03180767,0.029552773,0.0
1406667046,-0.006472025,0.022291217,0.010681355,0.0024697746,-0.03178935,0.029515544,0.0
1406698894,0.027587049,-0.033692703,-0.0031447972,0.0025020882,-0.031754903,0.029479373,0.0
1406730845,0.03456523,-0.005995768,0.0023309733,0.002503648,-0.031757105,0.029446611,0.0
1406762841,0.011604679,-0.052246265,0.0062994217,0.0025182555,-0.03173971,0.029416801,0.0
1406790843,0.0046915347,-0.06341747,-0.012630333,0.0025470385,-0.031708565,0.029402861,0.0
1406822850,0.031062145,0.06763595,0.008044693,0.0025791258,-0.031690966,0.029371485,0.0
1406854830,-0.014324339,-0.12746775,0.011790912,0.0026038971,-0.03163386,0.029354103,0.0
1406886787,0.018788157,0.037941396,-0.010207642,0.0026423016,-0.0315921,0.029338658,0.0
1406918789,0.018405272,0.0017679369,-0.025951585,0.0026971025,-0.031522103,0.029325387,0.0
1406950839,0.011481958,0.030822355,-0.031233605,0.0027501604,-0.03151022,0.029320102,0.0
1406982838,0.024328522,-0.01372816,-0.0031173704,0.0027760742,-0.03149015,0.029311683,0.0
1407011717,-0.012959785,-0.06150531,0.005827006,0.0027757022,-0.031452734,0.02930624,0.0
1407043641,-0.0056041386,0.10653315,-0.010834222,0.0028242,-0.031437475,0.02929698,0.0
1407075642,0.020875504,0.02687319,-0.020734183,0.0028702354,-0.03139394,0.029290069,0.0
1407107589,-0.026244115,-0.070933804,-0.0005179732,0.0029326947,-0.03132958,0.02926936,0.0
1407139597,-0.0018207919,0.05561439,0.033267237,0.003026244,-0.03131403,0.02924088,0.0
1407171644,0.023501113,-0.0047323713,0.016447555,0.0030203483,-0.031280316,0.029212302,0.0
1407203639,0.024530908,0.0735069,-0.022573035,0.003010893,-0.031294465,0.029191863,0.0
1407235645,-0.010255393,-0.07180962,-0.0020674695,0.0030423815,-0.031290047,0.029160487,0.0
1407267743,0.0017461588,0.12385729,0.011320837,0.003061885,-0.03133469,0.029130137,0.0
1407299643,0.0028603727,-0.012930031,0.0070209806,0.0030652906,-0.031332023,0.029093765,0.0
1407331641,-0.009278574,-0.004954952,-0.010774855,0.0030790165,-0.03130117,0.029057806,0.0
1407363654,-0.02152686,-0.00078856037,0.013772577,0.003123716,-0.03126292,0.029013328,0.0
1407395607,-0.023031529,-0.008950701,0.025545273,0.0031583519,-0.031265676,0.02896367,0.0
1407423650,-0.014403733,0.016322814,0.015720148,0.003170436,-0.031309746,0.028925234,0.0
1407456445,0.00050370925,-0.043276697,0.015933942,0.003164963,-0.03130395,0.028879022,0.0
1407488444,-0.0065829945,-0.084860384,-0.0008262686,0.0031625722,-0.03129825,0.028838284,0.0
1407520446,8.0342405e-05,0.0635284,-0.0036533587,0.0031714367,-0.031334326,0.028796624,0.0
1407552392,-0.052364483,-0.095656164,-0.0028547733,0.0032199828,-0.031297073,0.028754547,0.0
1407584427,0.01862903,0.010613821,-0.0058267056,0.0032362828,-0.031266194,0.028726125,0.0
1407616454,-0.004207831,-0.016972229,-0.014925251,0.0032216893,-0.0312183,0.0287015,0.0
1407648440,-0.013076565,0.046449747,-0.01752176,0.0032711425,-0.031198842,0.02867152,0.0
1407676466,0.03232574,0.09540388,-0.024323175,0.003260868,-0.03120309,0.02865053,0.0
1407708441,-0.0076295463,-0.03751718,-0.0059647076,0.0032412123,-0.031169593,0.028622737,0.0
1407740446,-0.03663394,-0.054436944,0.013464123,0.0032900632,-0.031130413,0.028588554,0.0
1407772457,-0.004467585,0.052277595,0.021493098,0.0033309397,-0.031128405,0.028545562,0.0
1407804391,0.0010739677,-0.032920443,-0.011807567,0.0033411111,-0.031105353,0.028510083,0.0
1407836457,0.007428314,-0.0088189505,0.0049522836,0.0033658368,-0.031123249,0.028467612,0.0
1407868449,-0.015195518,-0.036557645,0.017574888,0.0033449898,-0.031115301,0.028424941,0.0
1407897278,-0.04818619,-0.07301517,0.018486891,0.0033614272,-0.031075863,0.02838698,0.0
1407929193,0.004480236,0.123209596,0.0071658012,0.0032809344,-0.031114288,0.028344233,0.0
1407961198,-0.15094413,-0.10981965,-0.021015711,0.0031981047,-0.031154722,0.028300503,0.0
1407993258,-0.12505342,-0.06027472,-0.0042684916,0.0034450348,-0.03110442,0.028259594,0.0
1408025253,0.005421888,-0.04080834,0.01730417,0.0034850738,-0.03097672,0.028218858,0.0
1408057250,-0.015510156,-0.031370044,-0.013755689,0.0034602138,-0.030850125,0.028191658,0.0
1408089245,-0.011481628,-0.0096360445,-0.002791388,0.0035247174,-0.0308147,0.028165927,0.0
1408121293,-0.002938881,-0.03309156,-0.009289976,0.0035855055,-0.030786455,0.028139252,0.0
1408149212,-5.319662e-05,-0.07628178,-0.009474262,0.0035866408,-0.030754665,0.028118758,0.0
1408181278,0.022390528,0.079522274,0.0034412504,0.0035973964,-0.030745126,0.028097684,0.0
1408213253,0.011778371,-0.08374216,-0.02057975,0.0035652956,-0.03066295,0.028087962,0.0
1408245250,0.03691883,0.057991378,-0.023218133,0.0035205113,-0.030638786,0.028079933,0.0
1408277267,-0.015307328,0.0154148415,-0.02953202,0.0035343783,-0.030632867,0.028080722,0.0
1408310054,0.01871284,0.036987025,-0.011752222,0.0035262103,-0.030638361,0.028080404,0.0
1408338075,0.0060180067,0.05798865,-0.02141388,0.003505182,-0.030646259,0.028086562,0.0
1408370042,-0.021097248,-0.041374024,-0.010891043,0.0035293126,-0.030630274,0.02809537,0.0
1408402039,0.0016184354,0.07357916,-0.014043206,0.0035348646,-0.03065221,0.028101565,0.0
1408433989,0.013598223,0.021817371,-0.022770282,0.0035330353,-0.030652544,0.028110307,0.0
1408466048,0.00022882776,-0.07156063,-0.0036262407,0.0036710773,-0.030623809,0.028114783,0.0
1408498041,0.07289938,0.012866701,0.017143376,0.003618125,-0.030669674,0.028112225,0.0
1408530108,0.047560237,0.0072861467,-0.008043196,0.0034751236,-0.030712867,0.028118923,0.0
1408561999,0.0018472506,0.04934873,-0.041293312,0.0034013512,-0.03071697,0.02812439,0.0
1408590079,-0.01655837,0.06765162,-0.006813442,0.0033333227,-0.03072319,0.028129581,0.0
1408622039,-0.086339004,-0.12334824,-0.018059285,0.003242143,-0.030710278,0.028139405,0.0
1408654040,-0.10693614,0.06606802,-0.00034699432,0.0031498536,-0.030760957,0.028150363,0.0
1408686042,-0.14462307,-0.006678604,-0.0015074087,0.003164179,-0.030744864,0.028160436,0.0
1408717990,-0.11462184,0.0044437274,-0.023413539,0.003231183,-0.030738762,0.028160809,0.0
1408750849,-0.11452277,-0.034314193,0.016861554,0.0032855235,-0.030743254,0.028148409,0.0
1408778942,-0.05711881,-0.023568584,-0.0069524846,0.0033008177,-0.030782463,0.028141888,0.0
1408810850,-0.06657933,0.062342674,0.011048245,0.0033497317,-0.030851167,0.028121112,0.0
1408843032,-0.021206943,-0.000110830646,0.014176536,0.0034095787,-0.030863384,0.028097916,0.0
1408874926,-0.010682954,-0.07214432,0.009191986,0.0034054057,-0.030845223,0.028072892,0.0
1408906839,0.008776484,0.029874481,0.008366575,0.0034388797,-0.030842781,0.028047545,0.0
1408938807,-0.004882982,-0.070237376,0.02132538,0.0035321543,-0.030804511,0.02800987,0.0
1408970837,0.041665066,0.021943416,0.010694595,0.003543248,-0.030795664,0.027976712,0.0
1409002842,0.032553293,-0.046515573,0.0076605105,0.0035419648,-0.030761076,0.027939545,0.0
1409030839,0.031533524,-0.09253918,0.016196722,0.003564146,-0.030740583,0.027907178,0.0
1409062841,0.056854177,0.081700794,-0.0123251425,0.003549794,-0.030731276,0.027876826,0.0
1409094843,0.032906044,0.021703284,-0.011496631,0.0035648064,-0.030697841,0.027838225,0.0
1409126787,0.03232459,-0.030584784,0.0020536846,0.0035567814,-0.03065655,0.027802391,0.0
1409158998,0.047551926,0.061265785,0.013767948,0.0035265125,-0.03066764,0.027768046,0.0
1409190871,0.02189873,0.018714124,0.0037830696,0.003507125,-0.03070054,0.027736863,0.0
1409223647,0.054941196,0.0034253774,0.0024079052,0.0035187479,-0.03074307,0.02770943,0.0
1409251647,0.07301271,0.047298487,-0.020464411,0.003521064,-0.030771874,0.027689278,0.0
1409283641,0.019339355,-0.15159495,0.026579803,0.0034974217,-0.030755153,0.027663367,0.0
1409315639,0.044049956,0.060622524,-0.0005799309,0.0034712162,-0.030782977,0.027646722,0.0
1409347655,0.051339842,-0.0107697435,-0.02985347,0.0034074185,-0.030780379,0.027651042,0.0
1409379606,0.016197184,-0.021504635,-0.05806817,0.0033634054,-0.030789899,0.027673215,0.0
1409411639,0.02055162,-0.011511621,-0.025608119,0.0033345714,-0.03080562,0.027710816,0.0
1409443663,0.0077305553,0.026895326,-0.038681228,0.0032630283,-0.030815598,0.027765643,0.0
1409475656,0.021649837,0.028275225,-0.055458974,0.003200028,-0.030819008,0.02783832,0.0
1409507635,0.009012692,-0.010156769,-0.051079128,0.0033017665,-0.030451724,0.027911272,0.0
1409539589,0.03688669,0.1956766,-0.026549414,0.0031845905,-0.030570101,0.027994564,0.0
1409571651,-0.04667485,-0.04976908,-0.041718967,0.003103915,-0.03072106,0.028109344,0.0
1409603664,-0.035910923,-0.014594967,-0.038671702,0.0031331368,-0.03078137,0.028237939,0.0
1409635608,-0.005153049,-0.034341246,-0.06272706,0.0031507565,-0.030728579,0.028379934,0.0
1409664445,0.009308315,0.0016340611,-0.053277474,0.0031227479,-0.03069252,0.028516784,0.0
1409696448,0.009519224,0.02339683,-0.07010233,0.003065964,-0.030680662,0.028679669,0.0
1409728448,-0.016400762,-0.12839012,-0.042475555,0.003058171,-0.030657694,0.02884726,0.0
1409760442,-0.02790786,0.09661169,-0.0312943,0.003069394,-0.030672131,0.029013751,0.0
1409792447,-0.016967196,-0.09481314,-0.055817913,0.003081836,-0.030596787,0.02919308,0.0
1409824451,-0.0020261733,0.08969104,-0.052706234,0.003070982,-0.030575614,0.029376093,0.0
1409856391,-0.012399221,0.012659802,-0.05486911,0.0030703037,-0.030527866,0.029558674,0.0
1409888444,0.0126524195,0.02669828,-0.028937778,0.0030529792,-0.030555913,0.029736763,0.0
1409920434,-0.019202143,-0.0073927343,-0.008911673,0.0030199848,-0.030565681,0.029917005,0.0
1409952473,0.02236976,0.1610718,-0.029618615,0.0029882712,-0.03060278,0.030103382,0.0
1409984448,-0.023256699,-0.07913186,-0.036209326,0.0029776222,-0.03057012,0.030287234,0.0
1410016446,-0.0004111515,0.107537165,-0.034651555,0.0030102981,-0.030631647,0.030480644,0.0
1410048445,0.005123007,-0.062311534,-0.020010058,0.0029898481,-0.03069389,0.030674834,0.0
1410080455,-0.0045540566,-0.03758679,-0.0066643003,0.0029511037,-0.030757787,0.030876612,0.0
1410109269,-0.011292297,-0.076225385,-0.0071800877,0.0029542744,-0.030746855,0.031068755,0.0
1410141193,-0.016100772,-0.022128617,-0.015986336,0.0029341688,-0.030685745,0.031283684,0.0
1410173191,-0.0053271893,0.03345519,-0.026965763,0.0029580456,-0.030653188,0.031501066,0.0
1410205255,0.0040642163,-0.09062592,-0.02047961,0.0029552989,-0.030603021,0.031709403,0.0
1410237255,0.00982543,0.020844648,-0.023445873,0.0029255596,-0.03060859,0.031928148,0.0
1410269252,-0.03233225,-0.15100919,-0.01512892,0.0029394962,-0.030521562,0.03215454,0.0
1410301267,-0.013845356,-0.028051885,0.014046477,0.0029112003,-0.03048438,0.032372884,0.0
1410333279,-0.054653984,-0.00048869196,-0.020529324,0.0027879747,-0.029844115,0.032602362,0.0
1410361211,-0.13343519,0.25276005,-0.0067294533,0.0029784678,-0.029834379,0.032808818,0.0
1410393201,0.099899895,0.18233404,-0.0065197186,0.0028496494,-0.030191092,0.033021864,0.0
1410425258,-0.05510961,0.015028309,0.0056878733,0.0027966346,-0.030500839,0.033245668,0.0
1410457255,0.008219794,0.073292285,0.0110288365,0.0029226788,-0.030715588,0.03345644,0.0
1410489263,-0.011334384,-0.14575352,-0.020778397,0.0029594135,-0.030650504,0.03366977,0.0
1410522054,-0.024993433,-0.05251102,0.03491843,0.0029885315,-0.030690879,0.033878867,0.0
1410554039,0.03338589,-0.18731762,0.009044985,0.002949806,-0.03142963,0.03406702,0.0
1410585993,0.015941847,-0.4030352,0.013870732,0.0029625236,-0.031045023,0.034251757,0.0
1410618084,0.026979348,-0.029595174,0.0055656116,0.002965905,-0.030688865,0.034419738,0.0
1410649979,-0.024762413,-0.12126243,0.0058699367,0.0030048857,-0.030452758,0.034576826,0.0
1410682041,0.040529925,0.059537843,0.04805666,0.0030057256,-0.030410066,0.03471135,0.0
1410714050,-5.3706928e-05,0.09877221,0.04308673,0.002991716,-0.030505292,0.03483869,0.0
1410745997,0.028418794,0.09632732,0.023599684,0.0030497191,-0.030633878,0.034951318,0.0
1410774050,0.058642004,0.05580909,0.04019485,0.0030014021,-0.030725084,0.03504526,0.0
1410806042,0.0075862887,-0.048179563,0.042192273,0.0029292044,-0.030791618,0.035149574,0.0
1410837989,0.064531334,0.14191942,0.017213937,0.0029000042,-0.030910838,0.035253637,0.0
1410870050,0.011589912,-0.123058155,0.0025372817,0.0029034803,-0.030949721,0.03535904,0.0
1410902039,0.054848496,0.042802315,0.029889338,0.0027983694,-0.031018037,0.035472132,0.0
1410934789,-0.0013784305,-0.013570509,0.00033106862,0.0027189986,-0.03105046,0.035598192,0.0
1410962838,-0.063123114,-0.02949802,0.013713816,0.0027732446,-0.031065226,0.035697944,0.0
1410994789,0.033862367,-0.0011237905,-0.00029026333,0.0028235146,-0.031074869,0.035813857,0.0
1411026850,0.016342066,0.0339486,-0.009998982,0.0027651256,-0.031109793,0.03593329,0.0
1411058792,0.026932215,0.043566007,-0.012984042,0.0026923814,-0.031193394,0.036056984,0.0
1411090849,-0.038976282,-0.023319311,0.012972988,0.0027666737,-0.0312287,0.036184467,0.0
1411122840,0.02203005,0.084564485,0.008327734,0.002717166,-0.031343117,0.036317084,0.0
1411155000,0.0031336693,0.036108963,-0.009482041,0.0028582308,-0.031173037,0.036454964,0.0
1411186855,0.18097095,0.13920581,0.021695528,0.0028402992,-0.031155817,0.03655686,0.0
1411214839,0.047976766,0.0901321,0.007442317,0.0026302494,-0.031419173,0.03664238,0.0
1411246850,-0.058966037,0.12157803,-0.016064834,0.0026898272,-0.031659108,0.03677355,0.0
1411278787,-0.0038049156,-0.06502677,-0.045571566,0.002762731,-0.031762395,0.036918566,0.0
1411310841,0.0022656424,0.00918299,-0.018654546,0.0027657594,-0.0318797,0.037082836,0.0
1411342789,-0.004547702,-0.024452262,-0.013020598,0.0027869514,-0.031983975,0.03725307,0.0
1411374840,0.050845,0.06538143,-0.03615222,0.0027680132,-0.032072593,0.0374319,0.0
1411406838,-0.0068400297,-0.11115857,-0.036014196,0.002712925,-0.03208648,0.03762113,0.0
1411435646,-0.0304961,-0.016184691,-0.040156092,0.0027351289,-0.03207567,0.037794128,0.0
1411467590,-0.0017224774,-0.03611683,-0.043841317,0.0027970711,-0.032022607,0.037997127,0.0
1411499725,0.022697724,-0.03631339,-0.050427843,0.0027833018,-0.031934872,0.038204182,0.0
1411531642,-0.018387014,-0.034619402,-0.020857533,0.0027741587,-0.03189395,0.03841444,0.0
1411563640,-0.012050957,0.030067468,-0.034106776,0.002786895,-0.031862196,0.038634576,0.0
1411595658,-0.0048945863,-0.038651578,-0.02011903,0.0028093415,-0.031802822,0.038859922,0.0
1411627640,0.010601955,0.13567285,-0.03829769,0.0028005813,-0.031785633,0.03909545,0.0
1411659644,0.015291206,-0.09172926,-0.04799643,0.0027827555,-0.03171141,0.039334144,0.0
1411691653,-0.0017928982,0.08975075,-0.038216975,0.0027761173,-0.031697214,0.039578293,0.0
1411723640,-0.021660764,-0.05948318,-0.048061095,0.0027590124,-0.031688873,0.03983169,0.0
1411755594,0.01059717,0.028919982,-0.02171327,0.002703446,-0.031694993,0.040092934,0.0
1411787655,-0.036658026,-0.028446391,-0.011196766,0.0026446509,-0.031673066,0.040357046,0.0
1411819639,-0.03253797,0.054850936,-0.021932041,0.0026398539,-0.031669747,0.040627737,0.0
1411851645,-0.021778183,0.013639158,-0.020734143,0.0026436883,-0.03162078,0.040899303,0.0
1411884399,0.03532844,-0.08189428,-0.040618636,0.0026872507,-0.031842127,0.041190136,0.0
1411916443,0.03770702,-0.11893522,-0.035840873,0.0025883946,-0.03175229,0.04147334,0.0
1411948446,-0.032679286,-0.0774269,-0.016133964,0.0025061064,-0.031589534,0.041761804,0.0
1411980409,-0.055271238,-0.026093941,-0.012666597,0.0024930527,-0.031521726,0.042046722,0.0
1412012443,-0.04921725,0.0068134363,0.007377369,0.0024768887,-0.031530906,0.04233148,0.0
1412072440,-0.023449305,0.07305507,-0.023831688,0.0023605016,-0.03157594,0.04288832,0.0
1412104447,-0.07714028,-0.011724453,-0.013240744,0.002345935,-0.03159318,0.043189663,0.0
1412136446,-0.02354183,0.097994365,-0.027630929,0.0023529201,-0.03161378,0.043487757,0.0
1412168393,-0.029711725,0.034735862,-0.030066477,0.002409343,-0.031604856,0.04379724,0.0
1412200453,0.0037363034,0.047566373,-0.015930943,0.0024149674,-0.03164932,0.044099562,0.0
1412232444,0.0642776,0.056898307,-0.041407622,0.002309814,-0.031682745,0.044408668,0.0
1412264441,-0.028909633,-0.040766876,-0.023645638,0.0022299374,-0.031719588,0.044718355,0.0
1412296443,0.012868315,0.077327415,-0.030474657,0.0021766177,-0.031787526,0.04502249,0.0
1412325256,-0.007938809,-0.06103612,-0.016161732,0.0021473102,-0.03180733,0.04530091,0.0
1412357191,-0.039152432,-0.06836289,0.0011021055,0.0021226467,-0.03179848,0.045598596,0.0
1412389197,0.0074958364,-0.08080274,0.007905068,0.0020746577,-0.031798568,0.045894448,0.0
1412421255,-0.020737512,-0.01899761,0.021060824,0.0020442917,-0.031813487,0.046186414,0.0
1412453190,-0.018307025,-0.043230586,0.031040085,0.0019850899,-0.031812504,0.04647545,0.0
1412485252,-0.022864196,-0.0013902122,0.020162731,0.0019656678,-0.031792104,0.04675823,0.0
1412549290,0.006407745,-0.024694487,0.008992826,0.00189797,-0.03177664,0.04731149,0.0
1412581204,-0.011770719,0.0025164506,0.014904135,0.0018947677,-0.031739518,0.04757449,0.0
1412613344,-0.024676168,-0.07413073,0.007861027,0.0018944716,-0.03169667,0.047833234,0.0
1412645263,-0.0062316507,-0.008989519,0.02839579,0.0019142661,-0.0316587,0.048077837,0.0
1412677266,0.00388369,-0.03477887,0.042282578,0.0018732816,-0.031665057,0.048319053,0.0
1412709255,-0.00066542753,0.0122276405,0.03989349,0.0017729452,-0.031697858,0.048563894,0.0
1412741280,-0.023578133,0.016873337,0.029189859,0.0017566327,-0.03171399,0.048802134,0.0
1412774041,0.02149705,-0.065258935,0.018495524,0.0017307409,-0.031723626,0.049044453,0.0
1412806056,0.036689047,0.04640368,0.014518502,0.0017344962,-0.03167715,0.04927253,0.0
1412837987,-0.019546011,-0.14439856,0.0080413595,0.001697035,-0.03161116,0.049502898,0.0
1412869989,-0.023838425,0.013811892,0.032269474,0.0017054986,-0.031582028,0.04973044,0.0
1412902052,0.010806514,-0.048081525,0.034075465,0.0016893988,-0.03155112,0.0499414,0.0
1412930068,-0.0015657204,-0.0031149043,-0.0065373415,0.0016331419,-0.031567022,0.050134353,0.0
1412962053,-0.01871926,-0.003946241,0.033682775,0.0015906723,-0.03159804,0.05033575,0.0
1412994039,-0.004810493,0.07053761,0.023305539,0.0015491236,-0.031654213,0.050532892,0.0
1413026043,0.002316304,-0.049821336,0.020241877,0.0016811796,-0.031824116,0.050733604,0.0
1413058051,0.084418826,0.082683206,0.02034155,0.001581744,-0.03183437,0.050932586,0.0
1413090038,-0.017415484,-0.06452611,0.008049594,0.0015369672,-0.031711895,0.051128943,0.0
1413122054,0.0075886836,0.06952922,0.028239194,0.001549854,-0.031702947,0.05130708,0.0
1413154071,-0.021797068,-0.012516374,0.011562604,0.0014917555,-0.031685095,0.051476732,0.0
1413186839,-0.029115342,-0.007161349,0.055161163,0.0014757751,-0.031692266,0.051628925,0.0
1413218842,0.014019009,0.14013268,0.03350987,0.0014781264,-0.031746045,0.05177338,0.0
1413250990,-0.009925686,-0.06214193,0.049174134,0.0014402792,-0.031736214,0.051896486,0.0
1413282839,0.01892522,0.18359612,0.030796356,0.0013771894,-0.031790752,0.052014068,0.0
1413314867,-0.014850382,-0.1173426,0.020695569,0.0013475702,-0.031785358,0.05212954,0.0
1413346997,0.0015275672,0.052877035,0.04112665,0.001327286,-0.031825855,0.052231263,0.0
1413378839,0.00043005357,-0.019696908,0.038970754,0.0012713297,-0.03186377,0.05232396,0.0
1413410841,-0.006546349,-0.01312547,0.059584916,0.0012161167,-0.03190906,0.052413654,0.0
1413442839,0.027476873,0.07598478,0.020821944,0.0011581044,-0.03194013,0.052498244,0.0
1413474819,-0.026970025,-0.05572198,0.02672567,0.0011685132,-0.03192209,0.052570697,0.0
1413506994,0.038157377,0.045343507,0.02418796,0.001149438,-0.03191767,0.052641753,0.0
1413566842,-0.041251928,-0.058686998,0.0039572306,0.0010614486,-0.031890683,0.052771665,0.0
1413598790,-0.009980522,0.0085963495,0.020316107,0.0011589201,-0.03188336,0.052834462,0.0
1413630817,0.054118447,-0.039032973,0.022609973,0.0011196292,-0.0319073,0.052894857,0.0
1413663668,0.13050641,-0.10286584,0.017124562,0.0011209873,-0.032155894,0.052987248,0.0
1413695641,0.08581391,-0.043609716,0.0025403027,0.0008718916,-0.031938903,0.053070392,0.0
1413727639,-0.082176656,-0.051015995,-0.004915131,0.0008694369,-0.031703,0.053139072,0.0
1413759602,-0.000612499,0.014817972,0.0052536083,0.00087212556,-0.031529836,0.05320007,0.0
1413787656,0.007751059,0.1195974,0.013385378,0.0008240778,-0.03146815,0.053245362,0.0
1413819599,-0.012481999,0.013076682,-0.006624179,0.0008682469,-0.031413175,0.053296655,0.0
1413851649,0.0044874055,0.049453657,0.0047238832,0.000804752,-0.03139933,0.053343505,0.0
1413883588,-0.032191247,0.028188039,0.031538785,0.00072542246,-0.03141156,0.053380366,0.0
1413915658,-0.07761823,0.048691407,0.031203497,0.0007162116,-0.031425793,0.053407796,0.0
1413947646,-0.08386214,-0.0053005656,0.045317896,0.00072918355,-0.031403262,0.053427447,0.0
1413979649,-0.041225757,0.13571292,0.015287886,0.0006769236,-0.03138358,0.053448994,0.0
1414011602,-0.094759494,-0.101381,0.01757564,0.00074229034,-0.031247506,0.0534649,0.0
1414039644,-0.067897685,-0.07408007,0.028062608,0.00079961267,-0.031166844,0.05346981,0.0
1414071652,-0.012266599,0.113468826,0.03232686,0.00083124463,-0.031142836,0.053463783,0.0
1414104391,-0.046592068,-0.030962208,0.0023469198,0.0009286943,-0.031002847,0.05345381,0.0
1414136462,0.005627511,0.03212507,0.034065366,0.0009940107,-0.030947866,0.053430654,0.0
1414168448,0.043397013,0.047177825,0.019449307,0.0009380025,-0.030907974,0.053409792,0.0
1414200442,-0.0038901956,0.021860017,0.03703919,0.0008912755,-0.03090272,0.05338897,0.0
1414228449,-0.008188684,-0.08541369,0.034035664,0.0008927248,-0.030879399,0.053371035,0.0
1414260398,-0.021657249,0.1044677,0.026761707,0.00094091176,-0.030864973,0.0533517,0.0
1414292442,0.050434493,-0.03372786,0.007732881,0.00094799785,-0.030817261,0.053325307,0.0
1414324444,0.04842059,0.1218651,0.012596486,0.00087713153,-0.030838449,0.05329398,0.0
1414356442,0.0055256966,-0.030386973,-0.017143507,0.00085637096,-0.030782852,0.053280678,0.0
1414388391,0.010911303,0.0022429735,-0.004334028,0.0008418352,-0.030751374,0.05326674,0.0
1414420447,0.0065477504,-0.006002583,0.0120659415,0.0008221549,-0.030713994,0.05324922,0.0
1414452396,0.0050229323,0.07359733,0.0008068636,0.00080499693,-0.030723674,0.053238742,0.0
1414480482,0.0057368493,0.0038403498,-0.004429574,0.000791312,-0.03071514,0.0532323,0.0
1414512443,-0.0070319735,-0.10193739,0.023726266,0.00074171746,-0.030650422,0.053215906,0.0
1414545249,0.031735364,0.073994935,-0.0054883775,0.0007131298,-0.030605044,0.05320414,0.0
1414609194,0.0057385038,0.102823846,0.002398026,0.0006870231,-0.030526558,0.05317134,0.0
1414641245,-0.048405014,-0.080436416,-0.004249138,0.0007344183,-0.030490018,0.05314557,0.0
1414673276,-0.0065274457,0.034506634,0.031604387,0.0007732722,-0.030464904,0.053118203,0.0
1414705270,0.009532685,0.025598781,-0.00031555153,0.00075828173,-0.030426335,0.05308834,0.0
1414737253,0.02192216,0.031820722,0.023631629,0.00072050514,-0.03043334,0.053045575,0.0
1414769256,0.000372166,0.075166814,0.0035407576,0.00071082264,-0.030440379,0.053001393,0.0
1414801270,0.010605879,-0.031077707,-0.0075673955,0.00070700655,-0.030417476,0.052956007,0.0
1414833283,-0.021124024,-0.0432188,0.0172256,0.00071845343,-0.030346228,0.0528977,0.0
1414865312,0.007789244,0.068662584,0.029416695,0.00074178237,-0.030366804,0.052841086,0.0
1414897279,0.013447508,-0.018277325,0.021894958,0.00066122843,-0.030364601,0.052784093,0.0
1414925279,-0.03927395,-0.0063897483,0.007718826,0.0006778991,-0.030397356,0.05273216,0.0
1414957264,-0.011472913,0.04791001,0.025265412,0.0006946112,-0.030437462,0.052668273,0.0
1414990050,0.038092457,0.080118336,-0.007325863,0.00063904235,-0.03047054,0.05260024,0.0
1415022041,-0.019198626,-0.061874356,0.019888526,0.00065075164,-0.030493299,0.05252664,0.0
1415054041,0.0046403874,0.04808017,0.026833652,0.0006570721,-0.030561479,0.05244585,0.0
1415086051,-0.004440751,-0.11885789,0.0378437,0.0006466865,-0.030579312,0.052357826,0.0
1415114015,0.008391234,-0.11683205,-0.0022185794,0.0006447044,-0.030583905,0.052289512,0.0
1415146040,0.011271151,0.019972565,0.03007472,0.0006372843,-0.030576978,0.05220484,0.0
1415178027,0.017046401,0.003150642,0.014397932,0.0005677495,-0.030555425,0.052125372,0.0
1415209990,0.0049190847,0.058473196,-0.0014951045,0.0005524434,-0.030574434,0.0520495,0.0
1415242054,0.015509613,-0.021838386,0.0047176294,0.0005536135,-0.030602444,0.051971313,0.0
1415274077,0.016467825,0.044710256,-0.011065739,0.00055075996,-0.030636463,0.05189511,0.0
1415305987,0.028433321,-0.169554,0.013018463,0.0004979689,-0.030613307,0.05182754,0.0
1415338073,-0.023768675,0.08964815,0.017440537,0.0005311912,-0.030640397,0.051763974,0.0
1415370041,0.01833856,-0.06544708,0.005851016,0.0006306368,-0.030593172,0.051704496,0.0
1415402787,0.11271372,0.039238386,-0.021355001,0.00052733626,-0.030574346,0.05165129,0.0
1415434883,0.030526048,-0.061489876,-0.0258831,0.00041812597,-0.030564614,0.051603284,0.0
1415466842,-0.0007637764,-0.0030475853,-0.0085811075,0.00040979125,-0.03060216,0.051557727,0.0
1415498839,-0.010554323,-0.045168187,0.011584063,0.00039751607,-0.030651962,0.051515333,0.0
1415526852,-0.0050605787,-0.1095167,0.014678239,0.00035855517,-0.030686552,0.05147788,0.0
1415558844,-0.0050786473,0.062692545,0.024382666,0.00036208497,-0.030741174,0.051432878,0.0
1415590839,0.010523369,-0.120560765,0.014575735,0.00037831903,-0.03070872,0.051376518,0.0
1415622789,0.06024713,0.11598196,0.034096498,0.00068632496,-0.030522283,0.05132066,0.0
1415654787,0.27834913,0.10130702,0.008589531,0.0005058504,-0.030566009,0.05123163,0.0
1415686862,0.016572116,0.02368462,-0.011274446,0.00020810742,-0.03078052,0.051171873,0.0
1415718843,-0.096850716,-0.0480474,0.013113831,0.00029255432,-0.030925266,0.051118024,0.0
1415750839,-0.0035175516,-0.0032122238,0.0032795726,0.00029667187,-0.03100959,0.051069688,0.0
1415779636,0.0056890845,-0.04285999,0.0111326,0.0002675449,-0.031023249,0.051016733,0.0
1415811639,-0.04548534,-0.06453723,0.013621859,0.00026781496,-0.031056402,0.05096402,0.0
1415843654,0.040140375,0.027319722,0.0063707978,0.00022311075,-0.031118283,0.050914854,0.0
1415907638,-0.026644066,-0.033227716,0.0035727993,0.00019491294,-0.031158647,0.050822947,0.0
1415971669,-0.022420755,-0.055261876,0.008484047,0.00015842944,-0.031167064,0.050719403,0.0
1416003638,-0.030033544,-0.02022665,-0.0021657802,0.00014043131,-0.031152222,0.050670035,0.0
1416035655,0.005672057,0.043143254,-0.02420746,0.00012094467,-0.031174276,0.0506269,0.0
1416067648,-0.051818155,-0.14706615,-0.017196827,0.00010388925,-0.03118078,0.050583143,0.0
1416099652,-0.004945795,0.05558658,0.002584241,7.988486e-05,-0.031245168,0.050535686,0.0
1416131598,-0.057437677,-0.061721563,-0.0024744677,7.439636e-05,-0.03129891,0.050483182,0.0
1416163654,-0.021374717,0.023477148,0.004658935,4.5152705e-05,-0.031376194,0.050429907,0.0
1416195657,-0.011969766,0.019015545,-0.013035358,1.4413488e-05,-0.0314014,0.050379645,0.0
1416227587,-0.01794919,0.02475534,-0.022497997,-8.510335e-06,-0.031426135,0.050331417,0.0
1416259589,-0.061296113,-0.07388466,-0.0025908381,3.30446e-05,-0.031458937,0.0502746,0.0
1416292398,-0.010672699,0.07713843,0.005884988,8.496525e-05,-0.031551234,0.050217737,0.0
1416324442,0.0028201032,-0.012805361,0.008518762,6.936575e-05,-0.031589977,0.050158508,0.0
1416356445,-0.0034799934,0.030998228,0.004785729,5.6440113e-05,-0.03162053,0.050104443,0.0
1416384442,0.024761869,0.030929528,0.0025063332,2.670844e-05,-0.031621274,0.05006003,0.0
1416416453,0.015402155,0.06627511,-0.03616444,-4.752156e-05,-0.031650677,0.05002538,0.0
1416448443,0.009258479,0.01004426,-0.03119408,-0.000100640005,-0.031699512,0.049991533,0.0
1416480393,-0.022019204,0.04131389,-0.01850253,-9.819444e-05,-0.031771198,0.04996088,0.0
1416512444,0.017715981,0.06820339,-0.009500371,-0.00013615169,-0.031849228,0.049937077,0.0
1416544445,-0.011487123,0.024326658,-0.009479335,-0.00021066146,-0.031920858,0.04992102,0.0
1416576443,-0.029260088,0.06312932,-0.0036150706,-0.00017738904,-0.031989414,0.04990067,0.0
1416608448,0.01403351,0.0007787503,-0.043818906,-0.00015665921,-0.031994913,0.049885124,0.0
1416636445,0.041230533,0.048766565,-0.036238454,-0.00020877442,-0.032028742,0.049864147,0.0
1416668446,-0.01460369,-0.04146203,-0.01407049,-0.00024832814,-0.032058947,0.04984453,0.0
1416700411,-0.0055427495,0.02427299,-0.014133669,-0.00025857566,-0.03207681,0.049819883,0.0
1416733201,-0.027282227,-0.07236662,0.0054774843,-0.00026547414,-0.03207425,0.04980157,0.0
1416765251,0.007650715,0.13491559,0.0050152093,-0.00027952922,-0.03215366,0.049780354,0.0
1416797249,0.013098346,0.0072681094,-0.02183777,-0.00027259634,-0.03216575,0.049758106,0.0
1416829275,-0.0038810228,0.025247311,-0.020567367,-0.00023676525,-0.032188818,0.049734443,0.0
1416857278,0.008699805,0.07847872,-0.011942191,-0.00022235248,-0.032263786,0.04970591,0.0
1416889190,-0.007967542,-0.029251931,-0.01161334,-0.0002107554,-0.032314003,0.049675833,0.0
1416921199,0.010550098,0.05167638,-0.012655064,-0.0002023475,-0.032338187,0.049647514,0.0
1416953253,-0.01998695,-0.13682817,0.011643758,-0.0002063348,-0.032317646,0.04961328,0.0
1417017275,0.0014471612,-0.024631115,-0.009805783,-0.00019524913,-0.032430887,0.049543314,0.0
1417049191,0.06124618,0.064075544,-0.010566381,-0.00024844948,-0.032482393,0.049520515,0.0
1417077262,-0.0038924727,0.015578344,-0.00091506203,-0.00027432243,-0.03251707,0.04949572,0.0
1417109987,-0.002122034,-0.0042672493,-0.017158633,-0.00026010338,-0.032527555,0.04946821,0.0
1417141991,0.013320631,-0.016037857,-0.014427325,-0.00027251107,-0.032550972,0.04944235,0.0
1417174049,-0.030836044,-0.044661835,0.010114637,-0.00030825875,-0.032599512,0.049419347,0.0
1417205987,0.013541294,0.08103883,-0.0029331013,-0.00030114592,-0.032672696,0.049399715,0.0
1417238038,0.024149226,-0.08916469,-0.023270417,-0.00036897397,-0.032610808,0.049397778,0.0
1417269998,6.727176e-05,0.03836603,-0.025221428,-0.0004218153,-0.03258144,0.04939493,0.0
1417298236,0.0028259929,-0.00087147707,0.0007507673,-0.00042296987,-0.03256313,0.04938477,0.0
1417330041,5.4739998e-05,0.028355204,-0.026380926,-0.00043454277,-0.03258095,0.049380276,0.0
1417362052,0.01091589,-0.05374261,-0.01763067,-0.000460034,-0.032594454,0.049374446,0.0
1417394040,-0.017904002,-0.035491105,-0.0051686526,-0.00043932238,-0.032574948,0.049370114,0.0
1417426042,0.0045512146,0.036651816,-0.0071886373,-0.00042291216,-0.032561734,0.04936991,0.0
1417457988,-0.010687024,-0.008279184,-0.004857512,-0.0004312846,-0.03255634,0.049364433,0.0
1417490039,0.008424919,0.06894523,-0.005581984,-0.00042059162,-0.03259191,0.04935542,0.0
1417522079,0.01275632,-0.0033448096,-0.035767235,-0.0004240301,-0.03259855,0.049352787,0.0
1417550051,0.01577427,0.016064413,-0.024150359,-0.00045370223,-0.032616384,0.04934257,0.0
1417582863,-0.018541304,-0.078945406,-0.0014160034,-0.0004592264,-0.032624777,0.04933156,0.0
1417614838,0.019118235,0.07407638,0.008106155,-0.0004579718,-0.03271007,0.04931857,0.0
1417646869,0.0154119115,-0.105359904,0.020775186,-0.0004426533,-0.03276708,0.049301695,0.0
1417678842,0.0810594,0.11077268,0.013802205,-0.00043182605,-0.032828975,0.049287323,0.0
1417710844,0.05321769,-0.060992252,-0.013339449,-0.00029546738,-0.032767918,0.049266633,0.0
1417738849,0.116514735,-0.0714556,0.016275786,1.2889525e-05,-0.03272369,0.04925165,0.0
1417770841,0.14366136,0.026375497,-0.0005106325,-0.00020272368,-0.03264533,0.049239386,0.0
1417802790,0.12851128,-0.023869392,-0.012239804,0.00030721727,-0.03272341,0.049244493,0.0
1417834842,0.406115,0.023993142,-0.018665308,0.00029141284,-0.03275259,0.04923252,0.0
1417866839,0.15046702,-0.15672122,0.03206081,9.6715565e-05,-0.032749962,0.04919619,0.0
1417898846,0.15819094,0.07514962,0.023375714,8.657909e-05,-0.032778375,0.049170975,0.0
1417930856,0.17570609,-0.0345191,-0.01449638,-0.00011181595,-0.03273278,0.049152587,0.0
1417962839,0.079311386,0.05785345,-0.013505543,-0.00025645344,-0.032813594,0.04913767,0.0
1417991642,0.04581882,0.021430628,0.0015834717,-0.00030186775,-0.032863233,0.04912663,0.0
1418023650,0.011043204,-0.06471259,-0.0065130917,-0.00033630064,-0.032833397,0.04910964,0.0
1418055594,0.002671386,-0.049023543,0.018136678,-0.00038154848,-0.03280592,0.04908406,0.0
1418087660,-0.041517723,-0.033246033,0.020376569,-0.0004135258,-0.03278743,0.049056996,0.0
1418119651,-0.03720551,0.095557876,-0.00042706332,-0.00039592502,-0.032805458,0.049027465,0.0
1418151639,-0.033684134,-0.08291784,0.0042499993,-0.00038189077,-0.032773394,0.048990704,0.0
1418183646,-0.023319844,0.09536743,0.0043142065,-0.00037357755,-0.03282045,0.048951354,0.0
1418211655,-0.072104976,0.049087815,0.031878468,-0.00026903758,-0.032821454,0.048904542,0.0
1418243648,0.0073534045,-0.015071569,-0.0019020389,-0.00018989676,-0.032792237,0.048851397,0.0
1418275638,-0.009400427,-0.04333986,0.04193132,-0.00018285582,-0.032782163,0.048781887,0.0
1418307597,-0.04806163,0.019199299,0.02226966,-0.00013878793,-0.03278425,0.048722852,0.0
1418339653,-0.019136783,0.0608289,-0.0026055048,-6.6184104e-05,-0.032805298,0.04866895,0.0
1418371638,-0.008961463,-0.039786957,-0.0011899036,-3.6157093e-05,-0.03277317,0.048615277,0.0
1418403639,-0.029721085,0.08369403,-0.006862157,1.5753732e-05,-0.032781836,0.0485606,0.0
1418431639,-0.023672793,0.037788715,0.017138159,0.0001291344,-0.03274016,0.048508488,0.0
1418464444,0.002319811,-0.031166844,-0.028687024,0.0002177239,-0.032667283,0.04846071,0.0
1418496446,-0.008332192,-0.03995084,0.0068777627,0.00025880183,-0.032623243,0.048409935,0.0
1418528443,-0.038071252,0.048534747,-0.005844168,0.0003380247,-0.03261666,0.04836952,0.0
1418560452,-0.0050706267,-0.0026350834,-0.013391994,0.00044393184,-0.0325822,0.048332777,0.0
1418592445,-0.014470032,0.03842059,-0.029479975,0.000493552,-0.03256816,0.048309818,0.0
1418624442,0.006194542,0.041331917,-0.027040353,0.0005525193,-0.03255477,0.048293706,0.0
1418652467,-0.027362881,0.026325889,-0.015702192,0.00063278346,-0.0325278,0.04828016,0.0
1418684457,0.013104509,0.028214743,-0.047337875,0.0006851266,-0.032550823,0.048276015,0.0
1418716393,-0.048527695,-0.02209874,-0.019719709,0.00077374623,-0.032578308,0.04826854,0.0
1418748446,-0.016158324,0.061640702,-0.006074112,0.00086622185,-0.032638293,0.048260048,0.0
1418812396,-0.02034218,0.088444866,0.0031068034,0.0010509614,-0.032670658,0.04823843,0.0
1418844447,-0.0028141732,0.011860479,-0.015149012,0.0011293794,-0.032686472,0.04822939,0.0
1418876440,-0.03450742,0.011031213,-0.027832286,0.0012114185,-0.03271326,0.048221722,0.0
1418909190,-0.055299684,-0.084384546,0.009902161,0.0013351853,-0.03271004,0.048207745,0.0
1418941265,-0.025714928,0.02645938,0.012735347,0.0014036837,-0.032729674,0.048200607,0.0
1418973255,-0.048565056,-0.09713395,0.020983908,0.0014889658,-0.03271531,0.04818964,0.0
1419005299,-0.0104398485,0.10481481,0.01180292,0.0015841781,-0.032734923,0.048179474,0.0
1419037196,-0.033785537,-0.07927206,-0.01701664,0.0016688053,-0.032697577,0.048169028,0.0
1419069254,-0.049260907,0.0002834138,0.011185019,0.001748866,-0.03273775,0.048145954,0.0
1419101208,-0.08085258,-0.020643065,0.02153084,0.0018843737,-0.03274647,0.048108693,0.0
1419133252,-0.032605354,0.03109478,0.018385546,0.0019756842,-0.032776937,0.048065204,0.0
1419165198,-0.04385265,0.0021834655,0.012860019,0.0020256734,-0.03280665,0.048013538,0.0
1419197259,-0.03537906,0.11551507,0.011465744,0.0021195165,-0.032865167,0.047958337,0.0
1419229193,-0.052784044,-0.048552725,0.0007918048,0.0022512763,-0.032844953,0.047899567,0.0
1419261264,-0.058690358,0.007570845,0.05228614,0.0023542389,-0.03285742,0.047819797,0.0
1419293269,-0.06405817,0.0314336,0.043566458,0.0024930125,-0.03283387,0.047724202,0.0
1419326042,-0.018420437,-0.05214744,0.03503719,0.0025793484,-0.032798957,0.047616787,0.0
1419358235,-0.029653307,0.035144936,0.024050796,0.0026344515,-0.032803744,0.047507044,0.0
1419390054,-0.04829658,-0.021386305,0.036172844,0.0026950787,-0.03284155,0.047385514,0.0
1419422042,-0.064293765,-0.004767533,0.028495243,0.0028373154,-0.032839555,0.0472605,0.0
1419454065,-0.019994978,0.036242437,0.037111614,0.002913172,-0.032845307,0.047130384,0.0
1419486039,-0.023390798,0.069384724,0.0061478866,0.002971802,-0.032851875,0.04700611,0.0
1419517993,-0.048032716,-0.035041768,0.012050308,0.0030835902,-0.032802306,0.046870705,0.0
1419550039,-0.06145267,0.0034072844,0.03460416,0.0032139763,-0.032767676,0.0467322,0.0
1419582053,-0.019204348,0.052305058,0.040959533,0.0033275245,-0.03272546,0.046594802,0.0
1419614042,-0.013400944,-0.0094218,0.0208422,0.003387267,-0.03268399,0.04645555,0.0
1419645996,-0.0038840265,0.03733195,0.022385081,0.0034608194,-0.03269044,0.046319325,0.0
1419678052,-0.028791126,0.030900698,0.008188147,0.0035718142,-0.03268838,0.046182267,0.0
1419705997,-0.0066792564,0.05578869,0.01675692,0.0036613331,-0.032696463,0.046054445,0.0
1419738954,-0.03773485,-0.06833526,0.025946086,0.003772056,-0.032683402,0.045902506,0.0
1419770927,-0.022614427,0.031795014,0.030658813,0.003893728,-0.032686006,0.045748882,0.0
1419834850,-0.013700445,0.047492996,-0.020935265,0.0040349117,-0.032757808,0.045450374,0.0
1419866841,0.009038098,-0.012000756,-0.0010802707,0.004126422,-0.03281571,0.0453012,0.0
1419898849,-0.017098472,0.015767539,0.016688297,0.0041848877,-0.032869495,0.045152474,0.0
1419930839,-0.019776015,0.032661326,0.010030923,0.0042769248,-0.03288263,0.045009416,0.0
1419962796,0.019221658,-0.074162655,0.0030633798,0.0043282043,-0.032879103,0.044869307,0.0
1419994839,0.009663181,-0.012865143,-0.0032423788,0.004348392,-0.032893818,0.04473727,0.0
1420026797,-0.010264061,-0.07663414,-0.00485403,0.0044078794,-0.03288307,0.044609614,0.0
1420058841,-0.025481096,-0.05102027,0.0035876571,0.004467127,-0.032840982,0.044489007,0.0
1420090859,-0.0253401,-0.07326619,-0.011522915,0.0044887476,-0.032762405,0.044373583,0.0
1420123016,0.012538336,0.14079303,-0.03387092,0.0045205094,-0.032676302,0.044275325,0.0
1420154843,-0.038729135,-0.071665354,-0.039189026,0.0046350737,-0.03262517,0.044176064,0.0
1420187658,-0.025640422,0.03293849,0.00844443,0.0047786506,-0.032647263,0.04408399,0.0
1420219639,-0.0021862274,-0.024665318,-0.0036817088,0.004884723,-0.03259827,0.044001635,0.0
1420251602,0.051524986,0.033424124,-0.015269601,0.0049010604,-0.03259522,0.04391811,0.0
1420283644,0.0081032,-0.0803661,-0.020579703,0.004900492,-0.03257371,0.043842316,0.0
1420315685,0.0050087534,0.068622455,-0.02848086,0.00489813,-0.032625012,0.043771554,0.0
1420347641,-0.044584103,-0.11598011,-0.025102062,0.004921677,-0.032611214,0.04370841,0.0
1420379587,-0.008881463,0.035353906,-0.019572433,0.0049456814,-0.03262588,0.04365438,0.0
1420411661,-0.0066660075,0.012240509,-0.033199344,0.0049337083,-0.032587186,0.0436137,0.0
1420443592,-0.022380562,0.03520275,-0.057670236,0.0049807252,-0.03253776,0.04358257,0.0
1420475640,-0.057698727,-0.13037977,-0.025355257,0.0050592655,-0.032458074,0.04354995,0.0
1420507602,-0.017503608,0.07950157,-0.020897988,0.0051218257,-0.03239354,0.04352715,0.0
1420535647,-0.011813363,0.090070814,-0.038158868,0.0051444448,-0.032305393,0.043515,0.0
1420568442,-0.0505129,-0.06728337,-0.02059708,0.0051962626,-0.032195155,0.043501314,0.0
1420600454,-0.015721356,0.04487033,-0.011504811,0.0052763843,-0.032122847,0.04349263,0.0
1420632463,0.0049063875,0.01334903,-0.024347099,0.0052921423,-0.032008935,0.04349003,0.0
1420664447,0.0016168416,0.035057522,-0.037193302,0.0053353775,-0.03190952,0.043494906,0.0
1420696391,-0.03188776,-0.10153953,-0.016350744,0.005433055,-0.031772215,0.043493256,0.0
1420724445,0.017881142,-0.036678415,-0.023142165,0.0054709525,-0.031708386,0.043498177,0.0
1420756447,0.037821703,0.13459626,-0.030968087,0.0054469984,-0.031675033,0.043505926,0.0
1420788392,-0.0048365975,-0.097681075,-0.031185884,0.0054781106,-0.031592973,0.043520298,0.0
1420820444,0.013088224,0.018836524,0.0035542361,0.005487889,-0.031566937,0.043541566,0.0
1420852456,0.0017033436,-0.015775055,-0.0020519497,0.0055186376,-0.031502005,0.043566253,0.0
1420884474,0.046937797,0.048070446,-0.031591855,0.005520867,-0.031441063,0.04360072,0.0
1420916411,0.019538071,-0.034520328,-0.019447464,0.005509342,-0.031350046,0.043637864,0.0
1420948447,0.021226246,0.118360214,-0.040477455,0.0055371174,-0.0313236,0.043677446,0.0
1420980401,0.019631369,-0.14052922,-0.039354134,0.0055740443,-0.031222284,0.04371875,0.0
1421012443,0.026581997,0.063759275,-0.01183398,0.005569559,-0.031162793,0.04376052,0.0
1421044447,0.037214845,0.0043256385,-0.019716421,0.005556423,-0.031081878,0.04381426,0.0
1421077252,0.041393507,0.09387484,-0.008741814,0.005517009,-0.031092798,0.043866634,0.0
1421109252,0.014823658,0.02184144,-0.028177904,0.0055232854,-0.03110905,0.0439244,0.0
1421141213,0.04297079,-0.008924522,-0.03432542,0.005484955,-0.031094661,0.043988198,0.0
1421169218,0.03741339,0.028033458,-0.034311365,0.005456808,-0.03107929,0.044050973,0.0
1421201251,-0.018369235,-0.08111075,-0.02570863,0.0055136457,-0.030980071,0.044117827,0.0
1421233264,0.05639304,0.04437813,-0.007918898,0.0055296603,-0.030970957,0.044183798,0.0
1421265191,0.0154388575,-0.07598346,-0.0144152725,0.0055173957,-0.030916715,0.044247646,0.0
1421297200,2.515741e-05,0.03924344,0.012134748,0.0055221175,-0.030925544,0.044305474,0.0
1421329261,0.05335224,0.001515067,-0.014929777,0.0054829293,-0.030905101,0.04436935,0.0
1421361190,0.041741706,-0.023174245,-0.0019620354,0.0054121027,-0.030886123,0.044430736,0.0
1421393293,0.015112983,-0.04687921,-0.015040936,0.0053429944,-0.03082644,0.044500746,0.0
1421421270,0.002693957,0.035783194,-0.016094094,0.0053183823,-0.030785661,0.04455869,0.0
1421453253,0.033293497,-0.00669385,-0.020499418,0.005310018,-0.030735001,0.04462579,0.0
1421485191,-0.026562188,-0.093210384,-0.0015217471,0.005315656,-0.030649804,0.04467368,0.0
1421518038,0.016731143,-0.044161662,0.014684403,0.005308309,-0.030608563,0.044728708,0.0
1421549989,0.03983957,-0.009615452,0.0020224038,0.0052203275,-0.030569065,0.044792026,0.0
1421582051,0.02304594,-0.013172994,0.009651792,0.005149063,-0.030532444,0.044855528,0.0
1421614038,0.032289132,0.03630279,-0.028452044,0.0050732465,-0.030530324,0.04492828,0.0
1421646009,-0.016426723,-0.11031363,0.0022158884,0.005035684,-0.030491984,0.04498907,0.0
1421677995,0.0050113257,0.035683516,-0.002632023,0.005002931,-0.03047723,0.04504912,0.0
1421710039,-0.007645159,-0.108550586,0.003541039,0.004953333,-0.03039506,0.04510848,0.0
1421741993,-0.0050065415,0.06932217,0.006452399,0.004954589,-0.03034876,0.04517294,0.0
1421774039,0.023169309,0.022122175,-0.008271888,0.004899144,-0.030282857,0.045238618,0.0
1421806073,0.036156192,0.03706154,-0.021676945,0.0047977585,-0.030241834,0.04530315,0.0
1421834052,-0.008926107,0.036367547,0.012105237,0.0047819056,-0.030256087,0.045346703,0.0
1421866054,0.0041953083,-0.0070022955,0.00960451,0.0048315465,-0.03027938,0.045400944,0.0
1421898851,0.07905785,0.012246801,-0.0218992,0.0049364073,-0.030332614,0.045462392,0.0
1421930844,0.064642996,-0.17946792,0.011803231,0.004843516,-0.030398058,0.045509476,0.0
1421962838,0.054239854,0.005044977,0.008790835,0.0047575603,-0.030522889,0.045566563,0.0
1421994843,0.038320266,-0.19957776,0.003148984,0.004647746,-0.030492127,0.04562376,0.0
1422022839,-0.043600023,-0.21308571,0.015008074,0.0046027782,-0.030479748,0.045668457,0.0
1422054833,-0.019254586,-0.11743375,0.024695449,0.004615641,-0.030484188,0.0457181,0.0
1422086840,0.0035543642,-0.1139601,0.009083517,0.0045927702,-0.030426346,0.04576259,0.0
1422118843,-0.0027430959,-0.07711796,0.0029773563,0.0045520235,-0.030348454,0.045797046,0.0
1422150836,-0.038130898,-0.13798015,0.002613226,0.004563054,-0.030257449,0.045821913,0.0
1422182904,-0.01043833,0.0017320344,0.015517822,0.004540156,-0.030215515,0.045836817,0.0
1422214854,-0.054936737,-0.16340488,0.027734196,0.004518095,-0.030108994,0.045843974,0.0
1422246848,-0.056694876,0.11197139,0.032810498,0.004556163,-0.030070303,0.045844793,0.0
1422274839,-0.024405148,0.022031335,0.031077977,0.0045648003,-0.030015372,0.045848977,0.0
1422306843,-0.04517845,-0.036115892,0.025125079,0.004548501,-0.02999661,0.045845084,0.0
1422338982,-0.005114992,0.07397989,0.032060735,0.004553594,-0.030026168,0.045839585,0.0
1422371654,-0.033629913,0.07727702,0.012623964,0.004570325,-0.030047664,0.045831356,0.0
1422403652,0.023963723,0.065235525,0.004475765,0.0045660473,-0.030068086,0.045819394,0.0
1422435640,-0.035909716,-0.054289877,0.027391292,0.0045995777,-0.030051406,0.045796383,0.0
1422467660,-0.001871761,0.12476229,0.034227084,0.004597353,-0.030093383,0.04576982,0.0
1422499668,-0.009344698,-0.017903587,0.019006131,0.0045751547,-0.030117722,0.04574759,0.0
1422531662,-0.0029444536,0.10128727,0.02497894,0.004560308,-0.030183595,0.04573405,0.0
1422563589,-0.026077433,0.052254274,0.015064834,0.0045991885,-0.030230826,0.045716424,0.0
1422595671,0.018973837,0.04615278,0.00900853,0.004593726,-0.030330084,0.04568973,0.0
1422627679,-0.015849978,-0.07351113,0.041429453,0.004569921,-0.030398404,0.04565761,0.0
1422659658,-0.016744608,0.13937712,0.041614547,0.0046007624,-0.030533584,0.045620926,0.0
1422691605,0.009021155,-0.04798506,0.03049716,0.004913533,-0.03048253,0.0455731,0.0
1422719644,0.19766968,0.03253162,0.04282352,0.0049522067,-0.03052549,0.045505755,0.0
1422751651,0.09502734,0.12788016,0.045405753,0.004622157,-0.030814406,0.045428228,0.0
1422783587,-0.06098109,0.030385269,0.027785148,0.0045937,-0.03107165,0.045366336,0.0
1422816449,-0.016401365,-0.01201994,0.016187858,0.0046300185,-0.03125521,0.045306552,0.0
1422880448,-0.03432672,0.023479788,0.040330824,0.004724419,-0.03150233,0.04515201,0.0
1422908464,0.030130617,-0.010828778,0.043821756,0.004729069,-0.031607,0.045085263,0.0
1422940442,0.03224462,-0.016912825,0.027935166,0.0046370127,-0.031689268,0.04501029,0.0
1422972397,0.00799361,-0.064966045,0.011781225,0.004598573,-0.03174318,0.044943117,0.0
1423004446,-0.028505825,-0.021604842,-0.005937185,0.004634356,-0.031816516,0.044886038,0.0
1423068442,-0.04245692,-0.06462297,0.005719696,0.004638769,-0.03199977,0.044758994,0.0
1423100443,-0.008472279,0.029854013,0.016032113,0.0047001457,-0.03210248,0.044692807,0.0
1423132466,0.023692885,0.044475872,-0.014308333,0.0047361525,-0.03222346,0.044634752,0.0
1423160444,-0.00320642,0.00094343815,0.01855269,0.0047288276,-0.032289423,0.044575803,0.0
1423192445,-0.0057020597,-0.018800015,0.0012899314,0.0047618193,-0.032356862,0.044521544,0.0
1423225255,-0.012754443,-0.04339641,-0.010934069,0.004839124,-0.0323978,0.044464875,0.0
1423257267,0.016573194,-0.040003255,0.008277518,0.004855014,-0.032436274,0.044410694,0.0
1423289246,0.0019902303,0.03371599,-0.015477482,0.0048765223,-0.032472912,0.044356775,0.0
1423321246,0.0063374704,-0.006074162,0.0016212284,0.0049309786,-0.032548383,0.044303548,0.0
1423353274,0.015295828,0.09213216,-0.016425656,0.004979677,-0.032662474,0.044249192,0.0
1423381282,0.00092094246,0.08755329,-0.0013760802,0.0050201877,-0.032733995,0.04419784,0.0
1423413259,0.0036393527,0.019661449,-0.0211327,0.005089915,-0.032800883,0.044157308,0.0
1423445251,0.0363999,0.0037019497,-0.026035987,0.005109681,-0.03286753,0.044107594,0.0
1423477328,0.008026717,-0.030286334,0.010114623,0.005098345,-0.0329655,0.044056512,0.0
1423509265,-0.020936437,0.09499747,-0.0022793869,0.0051131537,-0.033071864,0.044009797,0.0
1423541247,0.019544292,-0.020818468,-0.007848898,0.0051549105,-0.033086833,0.043962505,0.0
1423573197,0.018444134,0.015066484,-0.016997442,0.005139358,-0.03309255,0.04391707,0.0
1423605370,-0.0116315875,0.011466457,-0.006639619,0.0051530637,-0.033121556,0.04386441,0.0
1423670038,-0.0047395644,-0.033993654,0.023480587,0.0052529518,-0.033276256,0.043762695,0.0
1423701994,0.037564535,0.11534656,0.009284586,0.0052479524,-0.033407863,0.04371588,0.0
1423734094,0.010416937,-0.05230098,-0.008139934,0.0052399104,-0.03348887,0.04366797,0.0
1423766068,-0.009948899,-0.035778876,-0.00032814007,0.0052649584,-0.03357915,0.04361393,0.0
