timestamp,vel_pos_innov[0],vel_pos_innov[1],vel_pos_innov[2],vel_pos_innov[3],vel_pos_innov[4],vel_pos_innov[5],mag_innov[0],mag_innov[1],mag_innov[2],heading_innov,airspeed_innov,beta_innov,flow_innov[0],flow_innov[1],hagl_innov,vel_pos_innov_var[0],vel_pos_innov_var[1],vel_pos_innov_var[2],vel_pos_innov_var[3],vel_pos_innov_var[4],vel_pos_innov_var[5],mag_innov_var[0],mag_innov_var[1],mag_innov_var[2],heading_innov_var,airspeed_innov_var,beta_innov_var,flow_innov_var[0],flow_innov_var[1],hagl_innov_var,output_tracking_error[0],output_tracking_error[1],output_tracking_error[2],drag_innov[0],drag_innov[1],drag_innov_var[0],drag_innov_var[1],aux_vel_innov[0],aux_vel_innov[1]
1398989500,0.0,0.0,0.0,-0.001614321,0.0098972395,0.0045900345,0.0,0.0,0.0,-0.071645334,0.0,0.0,-0.014803577,-0.017281054,-0.004439354,0.0,0.0,0.0,0.011487013,0.011487034,0.01256104,0.0,0.0,0.0,0.090275005,0.0,0.0,0.039904896,0.039905112,0.033552516,0.0008405732,0.008395878,0.0065233177,0.0,0.0,0.0,0.0,0.0,0.0
1402175188,0.0,0.0,0.0,-0.0030895662,-0.022333413,0.0004892349,0.0,0.0,0.0,-0.063590795,0.0,0.0,-0.00023160409,-0.005563796,0.006548047,0.0,0.0,0.0,0.011159792,0.011159763,0.012389619,0.0,0.0,0.0,0.090274625,0.0,0.0,0.028841823,0.028842077,0.03383585,0.0008755823,0.0077529354,0.008955365,0.0,0.0,0.0,0.0,0.0,0.0
1402375013,0.0,0.0,0.0,-0.0048555955,0.008071199,0.0030722618,0.0,0.0,0.0,-0.05643657,0.0,0.0,0.019511051,0.006203803,0.001550436,0.0,0.0,0.0,0.011143822,0.011143787,0.012402045,0.0,0.0,0.0,0.09027459,0.0,0.0,0.031087535,0.031087782,0.03387886,0.00078994175,0.005102086,0.0033851555,0.0,0.0,0.0,0.0,0.0,0.0
1402579974,0.0,0.0,0.0,0.0058254623,0.0036298484,0.006618142,0.0,0.0,0.0,-0.075254306,0.0,0.0,0.0039004162,-0.008161627,-0.0011336803,0.0,0.0,0.0,0.011152739,0.011152692,0.012406741,0.0,0.0,0.0,0.09027464,0.0,0.0,0.029284691,0.02928478,0.033914983,0.0010305984,0.016167967,0.01037298,0.0,0.0,0.0,0.0,0.0,0.0
1402784028,0.0,0.0,0.0,0.016410585,-0.007505968,0.002770424,0.0,0.0,0.0,-0.050440457,0.0,0.0,-0.040035453,-0.06051886,0.0042220354,0.0,0.0,0.0,0.01114258,0.011142517,0.012411933,0.0,0.0,0.0,0.090274714,0.0,0.0,0.026552714,0.026552793,0.03394739,0.0009513244,0.008732118,0.0060928734,0.0,0.0,0.0,0.0,0.0,0.0
1402984768,0.0,0.0,0.0,-0.018804101,-0.00270544,0.0053777695,0.0,0.0,0.0,-0.056024488,0.0,0.0,-0.014363865,-0.012941891,0.006020069,0.0,0.0,0.0,0.011134599,0.011134516,0.0124110505,0.0,0.0,0.0,0.09027464,0.0,0.0,0.028295714,0.028295785,0.034011617,0.0007170913,0.007920323,0.006775521,0.0,0.0,0.0,0.0,0.0,0.0
1403188864,0.0,0.0,0.0,-0.011653828,-0.0091242045,0.0045552254,0.0,0.0,0.0,-0.051790882,0.0,0.0,0.027907752,-0.009222879,-0.00016212463,0.0,0.0,0.0,0.011138989,0.011138911,0.012413591,0.0,0.0,0.0,0.09027475,0.0,0.0,0.03246388,0.03246387,0.0343163,0.0009149127,0.008471835,0.0072200974,0.0,0.0,0.0,0.0,0.0,0.0
1403388778,0.0,0.0,0.0,-0.008612694,0.010572121,0.0059554577,0.0,0.0,0.0,-0.03521216,0.0,0.0,0.05121507,-0.0012318855,-0.0021095276,0.0,0.0,0.0,0.0113873985,0.011387334,0.012410604,0.0,0.0,0.0,0.090274766,0.0,0.0,0.032216113,0.032216135,0.0339938,0.0007435799,0.011295441,0.008122804,0.0,0.0,0.0,0.0,0.0,0.0
1403589491,0.0,0.0,0.0,-0.0047943927,0.0020074844,0.0023702383,0.0,0.0,0.0,-0.07875939,0.0,0.0,0.0074824546,-0.01609172,0.00242877,0.0,0.0,0.0,0.011275086,0.011275054,0.012409381,0.0,0.0,0.0,0.09027475,0.0,0.0,0.030575668,0.030575672,0.0339816,0.00082452875,0.005918268,0.0058644623,0.0,0.0,0.0,0.0,0.0,0.0
1403793451,0.0,0.0,0.0,0.02185127,0.0048087835,0.004115224,0.0,0.0,0.0,-0.055330537,0.0,0.0,-0.004838582,0.00032301387,0.00069725513,0.0,0.0,0.0,0.011168354,0.011168338,0.01241059,0.0,0.0,0.0,0.090274885,0.0,0.0,0.031978928,0.031978976,0.034010284,0.00084331795,0.009185317,0.005904007,0.0,0.0,0.0,0.0,0.0,0.0
1403998418,0.0,0.0,0.0,0.021220438,-0.0049355477,0.010494709,0.0,0.0,0.0,-0.04915512,0.0,0.0,-0.0038280012,0.009088311,-0.003918767,0.0,0.0,0.0,0.0111336,0.011133591,0.01240817,0.0,0.0,0.0,0.09027501,0.0,0.0,0.031402953,0.031403054,0.034054194,0.0008999703,0.013804515,0.0120594865,0.0,0.0,0.0,0.0,0.0,0.0
1404198696,0.0,0.0,0.0,0.018396797,0.0057190806,0.010439038,0.0,0.0,0.0,-0.060558304,0.0,0.0,0.04891586,0.013434476,-0.0023885965,0.0,0.0,0.0,0.0111455815,0.011145577,0.012409579,0.0,0.0,0.0,0.09027513,0.0,0.0,0.034244977,0.034245044,0.03409525,0.0007839499,0.012368128,0.0125214765,0.0,0.0,0.0,0.0,0.0,0.0
1404403488,0.0,0.0,0.0,0.0058846083,-0.015897632,0.0019848347,0.0,0.0,0.0,-0.056362063,0.0,0.0,-0.03945688,-0.023169018,0.0027018785,0.0,0.0,0.0,0.0111467,0.011146705,0.0124073755,0.0,0.0,0.0,0.09027503,0.0,0.0,0.030922566,0.030922633,0.034026403,0.0006752638,0.006201216,0.0073993187,0.0,0.0,0.0,0.0,0.0,0.0
1404607083,0.0,0.0,0.0,-0.0057794694,-0.015731558,0.009110212,0.0,0.0,0.0,-0.04771149,0.0,0.0,-0.0046793018,-0.00013779476,-0.0014876127,0.0,0.0,0.0,0.01117173,0.011171729,0.0124091655,0.0,0.0,0.0,0.09027491,0.0,0.0,0.029905995,0.029905984,0.03411637,0.000744534,0.0058507444,0.0061361264,0.0,0.0,0.0,0.0,0.0,0.0
1404807838,0.0,0.0,0.0,0.014119122,-0.0011855364,0.0066218376,0.0,0.0,0.0,-0.024917707,0.0,0.0,0.012092916,0.044240624,0.0014407635,0.0,0.0,0.0,0.011100202,0.011100177,0.012407148,0.0,0.0,0.0,0.090274915,0.0,0.0,0.03326937,0.03326936,0.03410317,0.00062637636,0.005802823,0.006024806,0.0,0.0,0.0,0.0,0.0,0.0
1405011968,0.0,0.0,0.0,0.021096226,0.01828684,0.00886035,0.0,0.0,0.0,-0.021429867,0.0,0.0,0.017833658,-0.017057896,0.00049877167,0.0,0.0,0.0,0.011125718,0.011125687,0.012409857,0.0,0.0,0.0,0.090274915,0.0,0.0,0.031286165,0.03128607,0.034483157,0.0006765901,0.011402322,0.007265781,0.0,0.0,0.0,0.0,0.0,0.0
1405212826,0.0,0.0,0.0,0.022797812,-0.014264077,0.007659197,0.0,0.0,0.0,-0.049975473,0.0,0.0,0.02987193,-0.018383853,-0.0010092258,0.0,0.0,0.0,0.011111219,0.011111199,0.012407638,0.0,0.0,0.0,0.09027506,0.0,0.0,0.03035001,0.030349856,0.034136284,0.00075151795,0.013306371,0.010423499,0.0,0.0,0.0,0.0,0.0,0.0
1405412813,0.0,0.0,0.0,-0.0013029315,-0.021282077,0.0059432983,0.0,0.0,0.0,-0.053595103,0.0,0.0,-0.0076024216,0.016353132,0.0018246174,0.0,0.0,0.0,0.011149134,0.011149125,0.012410152,0.0,0.0,0.0,0.09027508,0.0,0.0,0.028919203,0.028919006,0.034480527,0.0007885603,0.011030743,0.011807693,0.0,0.0,0.0,0.0,0.0,0.0
1405616857,0.0,0.0,0.0,-0.009403866,-0.01303044,0.003694892,0.0,0.0,0.0,-0.057531714,0.0,0.0,0.02658888,-0.043331593,0.0018770695,0.0,0.0,0.0,0.011122868,0.011122863,0.012407734,0.0,0.0,0.0,0.09027506,0.0,0.0,0.03322185,0.03322179,0.03412466,0.0007265438,0.006873018,0.008572139,0.0,0.0,0.0,0.0,0.0,0.0
1405821667,0.0,0.0,0.0,-0.024483448,0.009394601,0.0011724234,0.0,0.0,0.0,-0.049938194,0.0,0.0,-0.00802724,-0.010138234,-0.000228405,0.0,0.0,0.0,0.011096472,0.011096487,0.012390315,0.0,0.0,0.0,0.090275094,0.0,0.0,0.028484415,0.028484458,0.033031262,0.00060281,0.011507937,0.011061548,0.0,0.0,0.0,0.0,0.0,0.0
1406021599,0.0,0.0,0.0,-0.006289359,0.0120871365,0.0030225515,0.0,0.0,0.0,-0.05113016,0.0,0.0,0.01046962,-0.007143244,0.0016827583,0.0,0.0,0.0,0.011323166,0.011323227,0.012387179,0.0,0.0,0.0,0.09027517,0.0,0.0,0.02822068,0.028220685,0.03255484,0.00075631373,0.010169143,0.009831736,0.0,0.0,0.0,0.0,0.0,0.0
1406226382,0.0,0.0,0.0,0.0075675193,0.0009724349,0.0049049854,0.0,0.0,0.0,-0.05576025,0.0,0.0,-0.0029781256,0.054130167,-0.0011423826,0.0,0.0,0.0,0.01119109,0.011191172,0.012396968,0.0,0.0,0.0,0.09027531,0.0,0.0,0.029407112,0.029407052,0.034383994,0.0007234175,0.013829203,0.011579563,0.0,0.0,0.0,0.0,0.0,0.0
1406430425,0.0,0.0,0.0,0.011557186,0.0023516417,0.001992941,0.0,0.0,0.0,-0.05547161,0.0,0.0,-0.02300659,-0.09527786,0.007825017,0.0,0.0,0.0,0.011175562,0.0111756325,0.012399768,0.0,0.0,0.0,0.090275384,0.0,0.0,0.03620941,0.036209337,0.034094293,0.00072252576,0.0046616537,0.0031956017,0.0,0.0,0.0,0.0,0.0,0.0
1406631177,0.0,0.0,0.0,0.005794001,0.032707468,-0.0020563602,0.0,0.0,0.0,-0.040528603,0.0,0.0,-0.01912221,-0.0012354674,0.0046333075,0.0,0.0,0.0,0.011485566,0.011485608,0.012401712,0.0,0.0,0.0,0.090275414,0.0,0.0,0.038464483,0.038464412,0.03401545,0.0005825466,0.007915884,0.006907734,0.0,0.0,0.0,0.0,0.0,0.0
1406835013,0.0,0.0,0.0,-0.01256062,0.004297614,0.008416891,0.0,0.0,0.0,-0.015641818,0.0,0.0,-0.05198779,0.05645764,-0.006972909,0.0,0.0,0.0,0.011235676,0.011235669,0.012421791,0.0,0.0,0.0,0.09027553,0.0,0.0,0.035817932,0.03581782,0.0340921,0.00045578257,0.010120112,0.010185092,0.0,0.0,0.0,0.0,0.0,0.0
1407036020,0.0,0.0,0.0,-0.02656607,-0.0029781014,0.010060191,0.0,0.0,0.0,-0.040084425,0.0,0.0,0.023030132,-0.0016507944,-0.0062953234,0.0,0.0,0.0,0.011150911,0.011150907,0.012414237,0.0,0.0,0.0,0.090275526,0.0,0.0,0.03673917,0.03673884,0.03407187,0.00061284174,0.014298888,0.012834564,0.0,0.0,0.0,0.0,0.0,0.0
1407236014,0.0,0.0,0.0,0.013905225,-0.00785587,0.0038164854,0.0,0.0,0.0,-0.036445666,0.0,0.0,-0.009712143,-0.0092463605,0.0036491156,0.0,0.0,0.0,0.011156385,0.011156402,0.012415357,0.0,0.0,0.0,0.09027553,0.0,0.0,0.033691153,0.03369078,0.03440547,0.0005039328,0.00570935,0.006973508,0.0,0.0,0.0,0.0,0.0,0.0
1407436773,0.0,0.0,0.0,0.0028363634,0.013416432,-0.0020577908,0.0,0.0,0.0,-0.027400909,0.0,0.0,-0.017595494,0.021784075,0.0011646748,0.0,0.0,0.0,0.011138658,0.011138692,0.012409756,0.0,0.0,0.0,0.09027552,0.0,0.0,0.037296835,0.03729663,0.033959113,0.0004730625,0.004634313,0.004903286,0.0,0.0,0.0,0.0,0.0,0.0
1407640777,0.0,0.0,0.0,-0.0059696995,-0.002393648,-0.0042803288,0.0,0.0,0.0,-0.04547531,0.0,0.0,0.025478091,-0.012284638,0.013864875,0.0,0.0,0.0,0.011099257,0.011099297,0.012375239,0.0,0.0,0.0,0.09027554,0.0,0.0,0.032800272,0.032800104,0.033904593,0.00056396605,0.008316223,0.007575755,0.0,0.0,0.0,0.0,0.0,0.0
1407840821,0.0,0.0,0.0,0.018280465,-0.0044111386,-1.3611915,0.0,0.0,0.0,-0.02567639,0.0,0.0,0.025478091,-0.012284638,1.4607002,0.0,0.0,0.0,0.011150761,0.011150802,0.012953777,0.0,0.0,0.0,0.09027557,0.0,0.0,0.032800272,0.032800104,0.05074499,0.0005627874,0.0019952527,0.002150681,0.0,0.0,0.0,0.0,0.0,0.0
1408041447,0.0,0.0,0.0,-0.0064241495,0.020553015,0.005759239,0.0,0.0,0.0,-0.033559546,0.0,0.0,0.0024740659,-0.00071520265,-0.0038583279,0.0,0.0,0.0,0.013564876,0.013564883,0.01327415,0.0,0.0,0.0,0.09027557,0.0,0.0,0.053151585,0.053152174,0.035985444,0.0010000204,0.013912526,0.02485428,0.0,0.0,0.0,0.0,0.0,0.0
1408245649,0.0,0.0,0.0,-0.018954076,-0.008569956,0.0047471523,0.0,0.0,0.0,-0.03761541,0.0,0.0,0.007269618,-0.0044067614,-0.0032349825,0.0,0.0,0.0,0.01181453,0.011814529,0.012839478,0.0,0.0,0.0,0.09027557,0.0,0.0,0.03550468,0.035504073,0.034493998,0.00020943995,0.00334921,0.002360177,0.0,0.0,0.0,0.0,0.0,0.0
1408446396,0.0,0.0,0.0,-0.007853802,-0.0031623691,0.008369803,0.0,0.0,0.0,-0.033399303,0.0,0.0,-0.003628897,-0.00094086165,-0.0033102036,0.0,0.0,0.0,0.011792656,0.011792657,0.013308482,0.0,0.0,0.0,0.09027559,0.0,0.0,0.05009736,0.050095733,0.055518452,0.00049478,0.01560432,0.006988771,0.0,0.0,0.0,0.0,0.0,0.0
1408646434,0.0,0.0,0.0,0.0049046557,0.0059624165,0.0020136833,0.0,0.0,0.0,-0.021907076,0.0,0.0,0.005046792,0.004034949,0.009701252,0.0,0.0,0.0,0.01230192,0.012301907,0.012846162,0.0,0.0,0.0,0.0902756,0.0,0.0,0.039276946,0.03927669,0.034624223,0.0003493196,0.0022865322,0.0051143058,0.0,0.0,0.0,0.0,0.0,0.0
1408847021,0.0,0.0,0.0,-0.007999504,0.00163652,0.0019363165,0.0,0.0,0.0,-0.014801595,0.0,0.0,-0.008902492,-0.051828943,-0.002020955,0.0,0.0,0.0,0.011618081,0.011618058,0.012609534,0.0,0.0,0.0,0.090275735,0.0,0.0,0.035873145,0.035873078,0.03422532,0.00033860825,0.009330203,0.006544723,0.0,0.0,0.0,0.0,0.0,0.0
1409051373,0.0,0.0,0.0,-0.008363447,0.0033928007,-0.0019909143,0.0,0.0,0.0,-0.01800735,0.0,0.0,0.0020992458,-0.05603643,0.0013158321,0.0,0.0,0.0,0.011394615,0.011394629,0.012509096,0.0,0.0,0.0,0.09027586,0.0,0.0,0.031312805,0.031313553,0.034092106,0.00030671238,0.0021300057,0.002308298,0.0,0.0,0.0,0.0,0.0,0.0
1409251975,0.0,0.0,0.0,0.030188773,0.004121557,0.0018752813,0.0,0.0,0.0,-0.028829522,0.0,0.0,0.014262248,0.0055464497,0.0077302456,0.0,0.0,0.0,0.011352011,0.0113520045,0.012445398,0.0,0.0,0.0,0.0902759,0.0,0.0,0.029590389,0.029590584,0.034083612,0.00027859528,0.003977008,0.004794867,0.0,0.0,0.0,0.0,0.0,0.0
1409452008,0.0,0.0,0.0,0.025400171,-0.0046472475,0.0023477077,0.0,0.0,0.0,-0.029995937,0.0,0.0,-0.03347946,-0.0039509847,0.0013846159,0.0,0.0,0.0,0.01133792,0.011337813,0.0130044855,0.0,0.0,0.0,0.090275906,0.0,0.0,0.03209108,0.032091133,0.055513777,0.00039823732,0.012049261,0.011476332,0.0,0.0,0.0,0.0,0.0,0.0
1409860825,0.0,0.0,0.0,-0.0024013277,0.006613843,-0.00024712086,0.0,0.0,0.0,-0.028887432,0.0,0.0,-0.019797847,0.027779147,0.0014117956,0.0,0.0,0.0,0.011723849,0.0117237605,0.01255697,0.0,0.0,0.0,0.090275876,0.0,0.0,0.038645506,0.03864558,0.033112504,0.00035934785,0.021610504,0.00814884,0.0,0.0,0.0,0.0,0.0,0.0
1410060772,0.0,0.0,0.0,0.0038895626,0.010138689,-0.0009872913,0.0,0.0,0.0,-0.03266093,0.0,0.0,0.025829315,-0.14747599,0.005118966,0.0,0.0,0.0,0.011463041,0.011462888,0.012476998,0.0,0.0,0.0,0.090275764,0.0,0.0,0.031566814,0.031566855,0.034036152,0.00033675806,0.013465464,0.004863908,0.0,0.0,0.0,0.0,0.0,0.0
1410265450,0.0,0.0,0.0,0.0162705,-0.0043590516,-0.004305482,0.0,0.0,0.0,-0.034143128,0.0,0.0,0.036274992,0.04295882,0.0036240816,0.0,0.0,0.0,0.011449945,0.011449746,0.013031808,0.0,0.0,0.0,0.090275764,0.0,0.0,0.034618936,0.03461939,0.055437934,0.0003249748,0.013708706,0.011115335,0.0,0.0,0.0,0.0,0.0,0.0
1410465575,0.0,0.0,0.0,0.02006391,0.008671686,-0.0013767481,0.0,0.0,0.0,-0.011867259,0.0,0.0,-0.0037340447,-0.0010708645,-0.00178051,0.0,0.0,0.0,0.0135801,0.0135801025,0.013517456,0.0,0.0,0.0,0.0902759,0.0,0.0,0.05364852,0.053649098,0.056225233,0.000244939,0.024353623,0.022005517,0.0,0.0,0.0,0.0,0.0,0.0
1410666442,0.0,0.0,0.0,0.011822328,0.006024681,0.0019314289,0.0,0.0,0.0,-0.032535456,0.0,0.0,0.0062968805,0.020938285,-0.0027358532,0.0,0.0,0.0,0.012660602,0.012660577,0.013184972,0.0,0.0,0.0,0.090275764,0.0,0.0,0.0370582,0.037058383,0.035458885,0.0002493037,0.019919837,0.039678924,0.0,0.0,0.0,0.0,0.0,0.0
1410870431,0.0,0.0,0.0,-0.006824918,-0.010359414,0.0034093857,0.0,0.0,0.0,-0.024188124,0.0,0.0,-0.0032308623,-0.014115877,-0.0014064312,0.0,0.0,0.0,0.011636749,0.011636648,0.0127907945,0.0,0.0,0.0,0.09027578,0.0,0.0,0.032225996,0.032226358,0.034342565,0.00071417785,0.012991241,0.018680496,0.0,0.0,0.0,0.0,0.0,0.0
1411075080,0.0,0.0,0.0,0.014678381,-0.0014328063,-1.352176,0.0,0.0,0.0,-0.024836123,0.0,0.0,0.018133946,-0.012147935,1.4613142,0.0,0.0,0.0,0.011462699,0.0114624975,0.012543818,0.0,0.0,0.0,0.09027589,0.0,0.0,0.031687517,0.031687867,0.027747348,0.00034417864,0.005594531,0.008940869,0.0,0.0,0.0,0.0,0.0,0.0
1411275321,0.0,0.0,0.0,0.011695795,-0.015532479,0.005404711,0.0,0.0,0.0,-0.025609631,0.0,0.0,0.0388605,-0.028593253,0.00062799454,0.0,0.0,0.0,0.0134865865,0.013486549,0.012915011,0.0,0.0,0.0,0.09027588,0.0,0.0,0.042977795,0.04297872,0.03513917,0.00031852772,0.025233552,0.02620754,0.0,0.0,0.0,0.0,0.0,0.0
1411479839,0.0,0.0,0.0,0.00353463,-0.007962272,0.008413434,0.0,0.0,0.0,-0.026601475,0.0,0.0,-0.009396456,0.013403092,-0.00357306,0.0,0.0,0.0,0.011828413,0.011828238,0.01265626,0.0,0.0,0.0,0.09027587,0.0,0.0,0.03930092,0.039301693,0.034251336,0.00013135401,0.006738782,0.015430202,0.0,0.0,0.0,0.0,0.0,0.0
1411683941,0.0,0.0,0.0,-0.00015631318,-0.0069087744,-0.00031745434,0.0,0.0,0.0,-0.014277399,0.0,0.0,-0.031173714,0.011012564,0.0023725033,0.0,0.0,0.0,0.011437235,0.011436916,0.01252507,0.0,0.0,0.0,0.09027587,0.0,0.0,0.032114096,0.03211469,0.034372292,0.00024887384,0.0063319504,0.006938662,0.0,0.0,0.0,0.0,0.0,0.0
1411884623,0.0,0.0,0.0,0.013831109,0.0067800432,0.008266687,0.0,0.0,0.0,-0.0046561584,0.0,0.0,-0.0023732558,-0.00048693083,-0.0060720444,0.0,0.0,0.0,0.011472354,0.011472052,0.013059899,0.0,0.0,0.0,0.09027595,0.0,0.0,0.063054584,0.06305665,0.05521387,0.00042761338,0.03658823,0.011918809,0.0,0.0,0.0,0.0,0.0,0.0
1412088617,0.0,0.0,0.0,0.006599933,0.0032140017,0.008914471,0.0,0.0,0.0,-0.010186024,0.0,0.0,-0.00821916,0.010785954,-0.0026043653,0.0,0.0,0.0,0.012751879,0.012751836,0.012710124,0.0,0.0,0.0,0.090275854,0.0,0.0,0.044373542,0.04437287,0.033153154,0.00025037976,0.011474605,0.010408193,0.0,0.0,0.0,0.0,0.0,0.0
1412292771,0.0,0.0,0.0,-0.008222744,0.00017741323,0.004552603,0.0,0.0,0.0,-0.007896572,0.0,0.0,0.035047494,0.0011095954,0.003201127,0.0,0.0,0.0,0.011669295,0.011669094,0.012557137,0.0,0.0,0.0,0.09027598,0.0,0.0,0.038903024,0.03890327,0.034206744,0.00023315813,0.0019402001,0.0039071403,0.0,0.0,0.0,0.0,0.0,0.0
1412493461,0.0,0.0,0.0,0.0062255263,0.011719227,0.0037392378,0.0,0.0,0.0,-0.017366193,0.0,0.0,0.018845208,0.017059496,0.0032628775,0.0,0.0,0.0,0.0114208115,0.011420535,0.0124755,0.0,0.0,0.0,0.09027576,0.0,0.0,0.037239313,0.037240032,0.034135755,0.00024256662,0.011749627,0.006601515,0.0,0.0,0.0,0.0,0.0,0.0
1412697615,0.0,0.0,0.0,-0.012038097,0.010816187,0.004482746,0.0,0.0,0.0,-0.016381793,0.0,0.0,-0.009787895,-0.0073408554,0.001183629,0.0,0.0,0.0,0.011389929,0.011389641,0.01243799,0.0,0.0,0.0,0.09027585,0.0,0.0,0.030426364,0.030427465,0.03410753,0.00011697925,0.008781615,0.00914547,0.0,0.0,0.0,0.0,0.0,0.0
1412902434,0.0,0.0,0.0,0.00517191,-0.009207964,-1.3665332,0.0,0.0,0.0,-0.011514239,0.0,0.0,0.0010343716,-0.0011109877,1.4711493,0.0,0.0,0.0,0.011290742,0.011290438,0.012418789,0.0,0.0,0.0,0.090275735,0.0,0.0,0.028346231,0.02834744,0.029160252,0.00018199986,0.0040905606,0.0069452897,0.0,0.0,0.0,0.0,0.0,0.0
1413102379,0.0,0.0,0.0,0.0029558688,0.0007613301,0.0036617517,0.0,0.0,0.0,-0.019675989,0.0,0.0,-0.0038948208,-0.00025495188,0.0056288242,0.0,0.0,0.0,0.013523642,0.013523629,0.012827929,0.0,0.0,0.0,0.0902757,0.0,0.0,0.050972395,0.0509766,0.035237987,0.00053751667,0.023298526,0.008797079,0.0,0.0,0.0,0.0,0.0,0.0
1413307183,0.0,0.0,0.0,-0.003794238,0.010706842,0.0023440123,0.0,0.0,0.0,0.004142575,0.0,0.0,-0.049657583,0.02828383,0.0018131733,0.0,0.0,0.0,0.01188656,0.011886424,0.012632018,0.0,0.0,0.0,0.09027584,0.0,0.0,0.035838824,0.035838883,0.034345787,0.00018093015,0.011937414,0.0064336616,0.0,0.0,0.0,0.0,0.0,0.0
1413507339,0.0,0.0,0.0,-0.02089496,0.022085845,-1.366141,0.0,0.0,0.0,-0.006650761,0.0,0.0,0.03551691,-0.042165928,1.4673233,0.0,0.0,0.0,0.011495034,0.011494763,0.01252171,0.0,0.0,0.0,0.09027573,0.0,0.0,0.038323876,0.0383244,0.029322313,0.00013049532,0.017243354,0.0150369555,0.0,0.0,0.0,0.0,0.0,0.0
1413708303,0.0,0.0,0.0,0.0013732389,-0.004238248,0.00283885,0.0,0.0,0.0,-0.0085833,0.0,0.0,-0.004545167,0.0006874036,0.0047752857,0.0,0.0,0.0,0.01507188,0.0150718745,0.0129112825,0.0,0.0,0.0,0.09027571,0.0,0.0,0.057318028,0.057325535,0.035343874,0.000870478,0.0437295,0.023154598,0.0,0.0,0.0,0.0,0.0,0.0
1413911844,0.0,0.0,0.0,-0.007312417,-0.00643456,0.0067373514,0.0,0.0,0.0,-0.0034046955,0.0,0.0,-0.008570522,-0.020993322,-0.0025188923,0.0,0.0,0.0,0.011986447,0.011986267,0.012665762,0.0,0.0,0.0,0.0902757,0.0,0.0,0.033263247,0.033262674,0.034418132,0.00021430723,0.011968133,0.018937169,0.0,0.0,0.0,0.0,0.0,0.0
1414116915,0.0,0.0,0.0,-0.016424276,0.0059574246,0.00045645237,0.0,0.0,0.0,-0.014453817,0.0,0.0,-0.014840215,-0.0028393003,0.0046806335,0.0,0.0,0.0,0.011487829,0.011487326,0.01252855,0.0,0.0,0.0,0.09027571,0.0,0.0,0.028663669,0.028664086,0.034219537,0.00013001797,0.00770456,0.014515459,0.0,0.0,0.0,0.0,0.0,0.0
1414316767,0.0,0.0,0.0,0.0056513175,-0.010280013,0.004050851,0.0,0.0,0.0,-0.00486177,0.0,0.0,-0.02461221,-0.013886408,-0.0010370016,0.0,0.0,0.0,0.01135198,0.011351281,0.012460808,0.0,0.0,0.0,0.090275705,0.0,0.0,0.027844954,0.0278463,0.034476805,0.00020102068,0.008579312,0.009016135,0.0,0.0,0.0,0.0,0.0,0.0
1414521583,0.0,0.0,0.0,-0.0057775825,-0.0026280284,0.0077267885,0.0,0.0,0.0,-0.0008088723,0.0,0.0,-0.015968889,-0.014253762,-0.0024323463,0.0,0.0,0.0,0.011289639,0.0112888245,0.0124253165,0.0,0.0,0.0,0.09027584,0.0,0.0,0.03716703,0.037168365,0.03413555,0.00019449882,0.006912148,0.008492817,0.0,0.0,0.0,0.0,0.0,0.0
1414721618,0.0,0.0,0.0,-0.01372546,-0.015630603,0.00010240078,0.0,0.0,0.0,-0.020787114,0.0,0.0,0.0048217177,0.0137560535,0.0036754608,0.0,0.0,0.0,0.011232046,0.0112311635,0.012434784,0.0,0.0,0.0,0.09027567,0.0,0.0,0.032847453,0.03284919,0.034657985,0.0004494519,0.010840535,0.012420265,0.0,0.0,0.0,0.0,0.0,0.0
1414925647,0.0,0.0,0.0,-0.02100972,-0.012732387,0.004860401,0.0,0.0,0.0,-0.00913645,0.0,0.0,0.059783563,0.028617958,-0.0030395985,0.0,0.0,0.0,0.011235708,0.011234855,0.012426706,0.0,0.0,0.0,0.09027563,0.0,0.0,0.030292086,0.03029425,0.03412221,0.0005500886,0.012454271,0.01538133,0.0,0.0,0.0,0.0,0.0,0.0
1415126263,0.0,0.0,0.0,0.0045980886,0.0034401417,-0.0015597343,0.0,0.0,0.0,0.0027635936,0.0,0.0,-0.009191692,-0.013257944,0.0016877651,0.0,0.0,0.0,0.011213108,0.011212116,0.012416782,0.0,0.0,0.0,0.09027556,0.0,0.0,0.030799475,0.030802762,0.034025908,0.00020326066,0.0035504613,0.0064319395,0.0,0.0,0.0,0.0,0.0,0.0
1415330441,0.0,0.0,0.0,0.014148526,0.0019908547,-0.0005745888,0.0,0.0,0.0,-0.0042519234,0.0,0.0,0.06255439,0.013075963,0.0013086796,0.0,0.0,0.0,0.011168515,0.011167618,0.012414931,0.0,0.0,0.0,0.09027536,0.0,0.0,0.03271287,0.032717086,0.03402742,0.00055049907,0.013013124,0.0056183618,0.0,0.0,0.0,0.0,0.0,0.0
1415531219,0.0,0.0,0.0,0.00017976761,0.037072897,-1.3629125,0.0,0.0,0.0,0.010917605,0.0,0.0,0.015828893,0.021597486,1.4661036,0.0,0.0,0.0,0.011204159,0.011203417,0.012411083,0.0,0.0,0.0,0.0902754,0.0,0.0,0.033128224,0.03313372,0.029138096,0.00078867463,0.019442506,0.012552187,0.0,0.0,0.0,0.0,0.0,0.0
1415735384,0.0,0.0,0.0,0.0059757084,-0.0058381557,0.010406733,0.0,0.0,0.0,0.0069076912,0.0,0.0,-0.029772535,-0.014539514,-0.0033415556,0.0,0.0,0.0,0.013499896,0.013499847,0.012806748,0.0,0.0,0.0,0.090275325,0.0,0.0,0.040563382,0.040567644,0.03518935,0.00045576403,0.030574331,0.033396766,0.0,0.0,0.0,0.0,0.0,0.0
1415940026,0.0,0.0,0.0,0.0032967478,-0.039307,0.0030525923,0.0,0.0,0.0,-0.0062325373,0.0,0.0,0.00096069276,-0.03098346,0.00077807903,0.0,0.0,0.0,0.011772844,0.01177218,0.012621498,0.0,0.0,0.0,0.0902754,0.0,0.0,0.03900786,0.03900875,0.034314908,0.00046180762,0.024574343,0.008675056,0.0,0.0,0.0,0.0,0.0,0.0
1416139975,0.0,0.0,0.0,0.02585572,-0.03376758,0.0007773638,0.0,0.0,0.0,0.010689174,0.0,0.0,-0.007852092,0.104924634,0.0038841963,0.0,0.0,0.0,0.011587951,0.011587136,0.012515567,0.0,0.0,0.0,0.09027537,0.0,0.0,0.03933557,0.039336815,0.034202907,0.00022760413,0.018040357,0.01911008,0.0,0.0,0.0,0.0,0.0,0.0
1416344814,0.0,0.0,0.0,-0.010344848,0.01170969,0.0014928579,0.0,0.0,0.0,-0.012017102,0.0,0.0,0.032788545,0.055323526,0.0005235672,0.0,0.0,0.0,0.011375599,0.011374654,0.012453448,0.0,0.0,0.0,0.09027539,0.0,0.0,0.029982682,0.02998483,0.03409723,0.00034178898,0.009934426,0.0100072,0.0,0.0,0.0,0.0,0.0,0.0
1416548826,0.0,0.0,0.0,0.0021934062,0.0014058352,0.0118637085,0.0,0.0,0.0,-0.00014121085,0.0,0.0,-0.009803146,0.0074608247,-0.004290223,0.0,0.0,0.0,0.011353891,0.011353079,0.012425633,0.0,0.0,0.0,0.09027534,0.0,0.0,0.03589693,0.03590092,0.034502503,0.00017690887,0.008707742,0.0022818625,0.0,0.0,0.0,0.0,0.0,0.0
1416749753,0.0,0.0,0.0,-0.008944966,-0.017384648,0.010298252,0.0,0.0,0.0,0.011230104,0.0,0.0,0.00096797943,0.00025588367,-0.0040005445,0.0,0.0,0.0,0.0112806475,0.011279944,0.012410108,0.0,0.0,0.0,0.0902752,0.0,0.0,0.046000026,0.046005048,0.034152225,6.773594e-05,0.005397047,0.002408583,0.0,0.0,0.0,0.0,0.0,0.0
1416953623,0.0,0.0,0.0,0.01096563,-0.025384545,-0.0028545856,0.0,0.0,0.0,0.019811159,0.0,0.0,0.05848241,-0.0020188242,0.0069425106,0.0,0.0,0.0,0.011286244,0.011285745,0.012428407,0.0,0.0,0.0,0.09027512,0.0,0.0,0.041394994,0.041400492,0.03466725,0.0002850404,0.0022150613,0.0052503175,0.0,0.0,0.0,0.0,0.0,0.0
1417154395,0.0,0.0,0.0,0.007015139,-0.0025180578,0.0045467615,0.0,0.0,0.0,0.005973581,0.0,0.0,0.019625455,0.0010552797,-0.004961014,0.0,0.0,0.0,0.011214307,0.011213839,0.012417709,0.0,0.0,0.0,0.09027503,0.0,0.0,0.028961578,0.028967699,0.03409499,0.00020539691,0.0040666503,0.0019415426,0.0,0.0,0.0,0.0,0.0,0.0
1417354446,0.0,0.0,0.0,0.015216455,-0.0052948,0.0049031973,0.0,0.0,0.0,0.008309189,0.0,0.0,-0.054356843,0.02539225,0.0021452904,0.0,0.0,0.0,0.01119205,0.011191664,0.012414442,0.0,0.0,0.0,0.09027502,0.0,0.0,0.03403496,0.034041595,0.034153588,0.00042588142,0.005570455,0.0055099875,0.0,0.0,0.0,0.0,0.0,0.0
1417559239,0.0,0.0,0.0,0.011817619,-0.002855301,0.011178136,0.0,0.0,0.0,0.015915774,0.0,0.0,-0.00988245,0.0092396885,-0.008565664,0.0,0.0,0.0,0.011170027,0.011169622,0.012409531,0.0,0.0,0.0,0.09027494,0.0,0.0,0.027539639,0.027545849,0.034132883,0.00060193957,0.009211591,0.009048023,0.0,0.0,0.0,0.0,0.0,0.0
1417763135,0.0,0.0,0.0,0.008860201,-0.00869596,-0.0030219555,0.0,0.0,0.0,0.012963789,0.0,0.0,-0.0035807341,0.0111177005,0.0114097595,0.0,0.0,0.0,0.011188224,0.011187872,0.012410568,0.0,0.0,0.0,0.0902747,0.0,0.0,0.03152712,0.031533007,0.034443118,0.00073239795,0.012216083,0.01225355,0.0,0.0,0.0,0.0,0.0,0.0
1417963249,0.0,0.0,0.0,-0.0017319322,0.010380268,0.00834167,0.0,0.0,0.0,0.00279939,0.0,0.0,0.009539202,-0.0018690471,-0.0075917244,0.0,0.0,0.0,0.01118542,0.011185085,0.012407314,0.0,0.0,0.0,0.0902745,0.0,0.0,0.033538897,0.03354433,0.03410699,0.00017770569,0.0055793584,0.0036942125,0.0,0.0,0.0,0.0,0.0,0.0
1418167871,0.0,0.0,0.0,-0.003953561,0.00892067,-0.003394127,0.0,0.0,0.0,0.0024823956,0.0,0.0,0.050811455,0.07761017,0.0037704706,0.0,0.0,0.0,0.011196332,0.01119616,0.012369552,0.0,0.0,0.0,0.09027456,0.0,0.0,0.041238397,0.041243378,0.032730434,0.00080142875,0.018006504,0.01063097,0.0,0.0,0.0,0.0,0.0,0.0
1418372005,0.0,0.0,0.0,0.02892311,0.032288194,1.1920929e-06,0.0,0.0,0.0,0.041005023,0.0,0.0,-0.0028495863,-0.017383885,-0.0045183897,0.0,0.0,0.0,0.01119601,0.011196081,0.012381833,0.0,0.0,0.0,0.09027453,0.0,0.0,0.041322954,0.041328963,0.0339321,0.00075112813,0.021266513,0.017156685,0.0,0.0,0.0,0.0,0.0,0.0
1418572789,0.0,0.0,0.0,0.009468541,0.013273478,0.007935882,0.0,0.0,0.0,0.033009294,0.0,0.0,-0.017034013,0.0034735138,-0.0059810877,0.0,0.0,0.0,0.011185194,0.011185256,0.012434522,0.0,0.0,0.0,0.09027446,0.0,0.0,0.03394709,0.033953268,0.03596578,0.00089955813,0.019974234,0.0185722,0.0,0.0,0.0,0.0,0.0,0.0
1418776772,0.0,0.0,0.0,-0.006840363,0.004617214,0.013731837,0.0,0.0,0.0,0.0068770107,0.0,0.0,-0.014465814,0.0078194495,-0.0098629,0.0,0.0,0.0,0.01120192,0.011201707,0.012391428,0.0,0.0,0.0,0.09027444,0.0,0.0,0.04178354,0.041788228,0.03396958,0.00043432965,0.013082984,0.014236909,0.0,0.0,0.0,0.0,0.0,0.0
1418981605,0.0,0.0,0.0,0.0058579445,-0.004951358,0.008409619,0.0,0.0,0.0,0.021380091,0.0,0.0,-0.044628263,-0.029096197,-0.003326416,0.0,0.0,0.0,0.0112861525,0.011285647,0.012395856,0.0,0.0,0.0,0.090274505,0.0,0.0,0.042296518,0.042299308,0.034043804,0.0002943763,0.004251355,0.005592741,0.0,0.0,0.0,0.0,0.0,0.0
1419181626,0.0,0.0,0.0,0.0072665066,0.00052416325,0.0014641285,0.0,0.0,0.0,0.01071454,0.0,0.0,-0.03826259,0.01723529,0.004875064,0.0,0.0,0.0,0.011214391,0.011213644,0.012401455,0.0,0.0,0.0,0.090274476,0.0,0.0,0.038506612,0.038507693,0.03437456,0.00039558666,0.0042615905,0.0015353366,0.0,0.0,0.0,0.0,0.0,0.0
1419386386,0.0,0.0,0.0,-0.010906786,0.015670657,0.00048589706,0.0,0.0,0.0,0.020419452,0.0,0.0,-0.051394045,-0.013253287,0.0006636381,0.0,0.0,0.0,0.011139796,0.0111389905,0.0124019245,0.0,0.0,0.0,0.09027459,0.0,0.0,0.02817166,0.028171763,0.033988606,0.00048833963,0.009672329,0.007761902,0.0,0.0,0.0,0.0,0.0,0.0
1419590434,0.0,0.0,0.0,-0.022457331,0.014444947,0.0009822845,0.0,0.0,0.0,0.022177793,0.0,0.0,-0.047202244,-0.009507537,0.0008314848,0.0,0.0,0.0,0.011142919,0.011142126,0.012405964,0.0,0.0,0.0,0.09027449,0.0,0.0,0.037273858,0.037273817,0.034318674,0.00054773566,0.009794845,0.010429924,0.0,0.0,0.0,0.0,0.0,0.0
1419791228,0.0,0.0,0.0,0.01563625,-0.011592865,0.0015454292,0.0,0.0,0.0,0.018143985,0.0,0.0,-0.030583113,-0.028460322,0.001218915,0.0,0.0,0.0,0.011132044,0.011131444,0.012404282,0.0,0.0,0.0,0.090274625,0.0,0.0,0.029946793,0.029947095,0.033980466,0.0003310389,0.0040137866,0.0058675827,0.0,0.0,0.0,0.0,0.0,0.0
1419995256,0.0,0.0,0.0,0.012622461,-0.009101272,-1.3617688,0.0,0.0,0.0,0.001211422,0.0,0.0,-0.060619645,-0.012134388,1.4681369,0.0,0.0,0.0,0.011148876,0.01114855,0.012427074,0.0,0.0,0.0,0.0902747,0.0,0.0,0.03525558,0.035256315,0.029725902,0.00061862986,0.011704795,0.009702353,0.0,0.0,0.0,0.0,0.0,0.0
1420196022,0.0,0.0,0.0,-0.007086247,0.0008202791,0.0016790628,0.0,0.0,0.0,0.009875109,0.0,0.0,0.019017987,0.025936972,0.003910899,0.0,0.0,0.0,0.013461616,0.013461623,0.012849171,0.0,0.0,0.0,0.09027476,0.0,0.0,0.04130638,0.04130796,0.03518382,0.00079355505,0.011829179,0.010892475,0.0,0.0,0.0,0.0,0.0,0.0
1420395984,0.0,0.0,0.0,-0.0077675134,-0.014577627,0.0021127462,0.0,0.0,0.0,0.021556081,0.0,0.0,-0.0068682134,-0.017539188,0.0032624006,0.0,0.0,0.0,0.011870173,0.011870216,0.012644491,0.0,0.0,0.0,0.0902748,0.0,0.0,0.031613518,0.031614486,0.03464646,0.00033947104,0.021059541,0.019488852,0.0,0.0,0.0,0.0,0.0,0.0
1420596826,0.0,0.0,0.0,-0.0045073777,0.004066348,0.002136469,0.0,0.0,0.0,0.029014993,0.0,0.0,-0.060094576,-0.0050522527,0.0031533241,0.0,0.0,0.0,0.011507407,0.011507476,0.012521421,0.0,0.0,0.0,0.09027499,0.0,0.0,0.03223811,0.032238975,0.034178264,0.00025104685,0.016030356,0.014280091,0.0,0.0,0.0,0.0,0.0,0.0
1420800807,0.0,0.0,0.0,-0.00711821,0.0060828924,0.0038087368,0.0,0.0,0.0,0.017270453,0.0,0.0,-0.026195273,0.0011512861,-0.0029370785,0.0,0.0,0.0,0.0113981515,0.011398263,0.012418197,0.0,0.0,0.0,0.09027505,0.0,0.0,0.03117127,0.031172516,0.032787383,0.0002569659,0.010040848,0.009881705,0.0,0.0,0.0,0.0,0.0,0.0
1421205440,0.0,0.0,0.0,0.019350752,-0.0042105913,-4.7326088e-05,0.0,0.0,0.0,0.026249578,0.0,0.0,-0.01124024,0.006057065,0.0041987896,0.0,0.0,0.0,0.011201592,0.011201593,0.01239353,0.0,0.0,0.0,0.090275,0.0,0.0,0.02837184,0.028372684,0.033991527,0.00031160994,0.010346492,0.007545561,0.0,0.0,0.0,0.0,0.0,0.0
1421409589,0.0,0.0,0.0,0.012111008,-0.0048879385,0.0016927719,0.0,0.0,0.0,0.034897495,0.0,0.0,-0.024594903,0.022833563,0.0017849207,0.0,0.0,0.0,0.011150125,0.011149991,0.012414181,0.0,0.0,0.0,0.09027524,0.0,0.0,0.02521272,0.025213465,0.03404076,0.00034418117,0.0072429283,0.008047436,0.0,0.0,0.0,0.0,0.0,0.0
1421610443,0.0,0.0,0.0,-0.008052498,-0.008326411,0.0029985905,0.0,0.0,0.0,0.025025107,0.0,0.0,-0.011523647,-0.01834229,-0.0012433529,0.0,0.0,0.0,0.011110517,0.011110255,0.012409589,0.0,0.0,0.0,0.09027512,0.0,0.0,0.026818674,0.026819257,0.033994332,0.0003756451,0.004248985,0.005526327,0.0,0.0,0.0,0.0,0.0,0.0
1421810696,0.0,0.0,0.0,0.018979624,-0.01373589,-1.3612062,0.0,0.0,0.0,0.02989472,0.0,0.0,-0.008118223,-0.008927746,1.4606533,0.0,0.0,0.0,0.011107003,0.011106623,0.012410374,0.0,0.0,0.0,0.090275265,0.0,0.0,0.027266594,0.027267016,0.029111832,0.00041739977,0.003974849,0.0048175044,0.0,0.0,0.0,0.0,0.0,0.0
1422015213,0.0,0.0,0.0,-0.012254417,-0.0006188154,0.0037617683,0.0,0.0,0.0,0.03228425,0.0,0.0,-0.008706598,-0.0020943955,0.0008933544,0.0,0.0,0.0,0.020015236,0.020015236,0.012836268,0.0,0.0,0.0,0.090275295,0.0,0.0,0.04922882,0.0492259,0.035154134,0.001327197,0.0047662403,0.023823325,0.0,0.0,0.0,0.0,0.0,0.0
1422219380,0.0,0.0,0.0,-0.02796796,-0.003661871,0.0065551996,0.0,0.0,0.0,0.0109202415,0.0,0.0,-0.050008543,-0.0015334906,-0.0027518272,0.0,0.0,0.0,0.011980331,0.011980252,0.012596891,0.0,0.0,0.0,0.09027536,0.0,0.0,0.034463402,0.034460127,0.032698076,0.00028359107,0.018218528,0.010953554,0.0,0.0,0.0,0.0,0.0,0.0
1422420178,0.0,0.0,0.0,-0.011174768,-0.018685222,0.0055873394,0.0,0.0,0.0,0.016374135,0.0,0.0,0.002863705,-0.013240784,-0.002452612,0.0,0.0,0.0,0.011492322,0.011491954,0.012496227,0.0,0.0,0.0,0.09027541,0.0,0.0,0.028937645,0.028932663,0.034153942,0.00016468142,0.009119027,0.013033104,0.0,0.0,0.0,0.0,0.0,0.0
1422620025,0.0,0.0,0.0,0.0025029033,0.019924164,0.005793214,0.0,0.0,0.0,0.024019863,0.0,0.0,-0.013038437,-0.022072442,-0.00051522255,0.0,0.0,0.0,0.011427397,0.011426982,0.013041787,0.0,0.0,0.0,0.09027547,0.0,0.0,0.028032592,0.028029578,0.05563695,0.00031684426,0.0038552461,0.0025396666,0.0,0.0,0.0,0.0,0.0,0.0
1422824840,0.0,0.0,0.0,0.009625763,-0.0050501823,0.0005117655,0.0,0.0,0.0,0.030257154,0.0,0.0,-0.024042431,-0.0069215596,0.0039772987,0.0,0.0,0.0,0.013488293,0.013488217,0.012868205,0.0,0.0,0.0,0.09027545,0.0,0.0,0.040648717,0.04064446,0.035245474,0.00040254314,0.020794645,0.013641865,0.0,0.0,0.0,0.0,0.0,0.0
1423024809,0.0,0.0,0.0,0.011900999,-0.0051693916,0.0030697584,0.0,0.0,0.0,0.016345482,0.0,0.0,-0.017195214,0.01032652,6.830692e-05,0.0,0.0,0.0,0.01182978,0.0118297795,0.012646416,0.0,0.0,0.0,0.090275645,0.0,0.0,0.039781548,0.03978264,0.03467467,0.00028693385,0.0114520965,0.011651527,0.0,0.0,0.0,0.0,0.0,0.0
1423229488,0.0,0.0,0.0,0.014024328,0.024039984,0.001147747,0.0,0.0,0.0,0.018264744,0.0,0.0,-0.06434788,0.007542759,-0.00078475475,0.0,0.0,0.0,0.011452887,0.011453117,0.012519551,0.0,0.0,0.0,0.090275615,0.0,0.0,0.03675843,0.036757812,0.03415042,0.00035120925,0.016591543,0.018184327,0.0,0.0,0.0,0.0,0.0,0.0
1423429573,0.0,0.0,0.0,-0.0070970138,0.017279983,-0.0037255287,0.0,0.0,0.0,0.025090242,0.0,0.0,-0.066407114,-0.004203275,0.002858162,0.0,0.0,0.0,0.011386153,0.011386547,0.012456609,0.0,0.0,0.0,0.09027571,0.0,0.0,0.03598782,0.035985947,0.034361295,0.0004273048,0.010620866,0.014237792,0.0,0.0,0.0,0.0,0.0,0.0
1423629626,0.0,0.0,0.0,-0.0012410395,0.001198411,0.0010379553,0.0,0.0,0.0,0.003732061,0.0,0.0,-0.03538014,0.014664471,-0.0009262562,0.0,0.0,0.0,0.011313827,0.011314562,0.01242298,0.0,0.0,0.0,0.09027556,0.0,0.0,0.035454832,0.035452288,0.033996828,0.00037101368,0.00867392,0.008989464,0.0,0.0,0.0,0.0,0.0,0.0
1424030386,0.0,0.0,0.0,0.018025488,-0.027312994,-0.004226804,0.0,0.0,0.0,0.017416803,0.0,0.0,-0.05027366,-0.0076192617,0.0030215979,0.0,0.0,0.0,0.011185352,0.011186272,0.012400148,0.0,0.0,0.0,0.09027556,0.0,0.0,0.037100054,0.03709512,0.033860013,0.0005251836,0.01033338,0.0073905434,0.0,0.0,0.0,0.0,0.0,0.0
1424235357,0.0,0.0,0.0,0.021362051,-0.02195692,-0.0012645721,0.0,0.0,0.0,0.006197568,0.0,0.0,-0.028949065,0.041142955,-0.000854373,0.0,0.0,0.0,0.011209561,0.0112103745,0.012425187,0.0,0.0,0.0,0.09027546,0.0,0.0,0.035979096,0.035973575,0.034516703,0.00074481487,0.015917154,0.0155885015,0.0,0.0,0.0,0.0,0.0,0.0
1424435176,0.0,0.0,0.0,0.013841331,-0.024782538,-0.001413703,0.0,0.0,0.0,0.00640981,0.0,0.0,0.031123571,0.042660534,0.004830718,0.0,0.0,0.0,0.011160484,0.01116127,0.012417728,0.0,0.0,0.0,0.09027531,0.0,0.0,0.03252368,0.03251749,0.03397545,0.00049299374,0.010748669,0.014717713,0.0,0.0,0.0,0.0,0.0,0.0
1424640013,0.0,0.0,0.0,0.023658633,-0.008701563,-0.0018138885,0.0,0.0,0.0,0.012381753,0.0,0.0,0.026209867,0.03961067,0.0014984608,0.0,0.0,0.0,0.011188889,0.011189626,0.012380922,0.0,0.0,0.0,0.090275,0.0,0.0,0.033046536,0.03303951,0.033823654,0.00031713687,0.006583378,0.012672408,0.0,0.0,0.0,0.0,0.0,0.0
1424840315,0.0,0.0,0.0,-0.0070276856,-0.006941676,-0.000518322,0.0,0.0,0.0,0.019490536,0.0,0.0,0.036523823,-0.050934717,0.0019338131,0.0,0.0,0.0,0.01118484,0.011185553,0.012393272,0.0,0.0,0.0,0.090274855,0.0,0.0,0.036989953,0.03698244,0.033944655,0.00039018007,0.0033618321,0.007940056,0.0,0.0,0.0,0.0,0.0,0.0
1425244772,0.0,0.0,0.0,-0.019813597,-0.00059366226,-0.008753777,0.0,0.0,0.0,0.013723114,0.0,0.0,-0.010054564,-0.002118498,0.010937214,0.0,0.0,0.0,0.015073165,0.015073167,0.012829956,0.0,0.0,0.0,0.09027452,0.0,0.0,0.08529887,0.08526811,0.035062857,0.0015972249,0.034161493,0.015741343,0.0,0.0,0.0,0.0,0.0,0.0
1425445591,0.0,0.0,0.0,0.0022946596,0.002277851,-0.0014256239,0.0,0.0,0.0,0.0023405151,0.0,0.0,-0.023592431,-0.005464405,-0.0038850307,0.0,0.0,0.0,0.012069954,0.012070252,0.012632525,0.0,0.0,0.0,0.0902744,0.0,0.0,0.05077714,0.050774083,0.03415347,0.00031902522,0.026245696,0.027630262,0.0,0.0,0.0,0.0,0.0,0.0
1425645642,0.0,0.0,0.0,-0.02952671,0.004390359,0.0008519888,0.0,0.0,0.0,0.020500103,0.0,0.0,-0.030280776,0.022330433,-0.0032172203,0.0,0.0,0.0,0.011694455,0.011695543,0.012520068,0.0,0.0,0.0,0.09027448,0.0,0.0,0.0372813,0.03727887,0.034044776,0.0002436338,0.024763506,0.024614591,0.0,0.0,0.0,0.0,0.0,0.0
1425846404,0.0,0.0,0.0,-0.028721094,0.019359708,-0.0022902489,0.0,0.0,0.0,0.002534788,0.0,0.0,-0.018334838,-0.012590557,0.0017360449,0.0,0.0,0.0,0.011572805,0.011574068,0.013057191,0.0,0.0,0.0,0.090274215,0.0,0.0,0.033451382,0.033446323,0.055131964,0.00033837114,0.031978793,0.028279027,0.0,0.0,0.0,0.0,0.0,0.0
1426050436,0.0,0.0,0.0,0.005971968,-0.0049482584,0.007438898,0.0,0.0,0.0,-3.9894134e-05,0.0,0.0,-0.004486382,0.0018904805,-0.007286191,0.0,0.0,0.0,0.012740759,0.012740884,0.012882657,0.0,0.0,0.0,0.09027417,0.0,0.0,0.053017937,0.053012677,0.035436448,0.00024271542,0.0066518676,0.035291623,0.0,0.0,0.0,0.0,0.0,0.0
1426251056,0.0,0.0,0.0,-0.0064128637,-0.032957315,0.005964637,0.0,0.0,0.0,0.020559195,0.0,0.0,-0.009359939,-0.10764618,-0.0027213097,0.0,0.0,0.0,0.011794615,0.011795146,0.012648417,0.0,0.0,0.0,0.09027419,0.0,0.0,0.053564098,0.053559817,0.034217544,0.00010679031,0.022910753,0.0061056237,0.0,0.0,0.0,0.0,0.0,0.0
1426455201,0.0,0.0,0.0,-0.0007548332,-0.021027207,0.0002603531,0.0,0.0,0.0,0.016055394,0.0,0.0,0.055759225,0.03694746,0.00027918816,0.0,0.0,0.0,0.0115579525,0.011558985,0.012483497,0.0,0.0,0.0,0.09027422,0.0,0.0,0.034319468,0.03431587,0.032737333,0.00013529848,0.007980376,0.0074185105,0.0,0.0,0.0,0.0,0.0,0.0
1426660012,0.0,0.0,0.0,-0.013507128,0.00040268898,0.0036987066,0.0,0.0,0.0,0.014851993,0.0,0.0,-0.010271789,0.00021728873,-0.0025693178,0.0,0.0,0.0,0.020026404,0.020026404,0.013020338,0.0,0.0,0.0,0.090274185,0.0,0.0,0.08643538,0.0864138,0.055089243,0.00035302393,0.049740262,0.007452041,0.0,0.0,0.0,0.0,0.0,0.0
1426860292,0.0,0.0,0.0,0.0,0.0,0.00019872189,0.0,0.0,0.0,0.01411906,0.0,0.0,-0.010624925,-0.0008729845,0.0023334026,0.0,0.0,0.0,0.020000001,0.020000001,0.013504093,0.0,0.0,0.0,0.09027427,0.0,0.0,0.073234595,0.07320527,0.056595214,0.0013318907,0.053006697,0.009703456,0.0,0.0,0.0,0.0,0.0,0.0
1427060183,0.0,0.0,0.0,0.011044025,-0.011914372,0.00047814846,0.0,0.0,0.0,0.015850104,0.0,0.0,-0.027768645,0.025096744,0.0008788109,0.0,0.0,0.0,0.01206697,0.012067169,0.012943377,0.0,0.0,0.0,0.09027445,0.0,0.0,0.048192274,0.048189327,0.03455965,0.00034173156,0.020728713,0.0032376756,0.0,0.0,0.0,0.0,0.0,0.0
1427264625,0.0,0.0,0.0,0.014119267,0.015408039,0.00036144257,0.0,0.0,0.0,0.01728734,0.0,0.0,0.01933897,-0.12673666,-0.00077450275,0.0,0.0,0.0,0.011740827,0.0117413085,0.012661702,0.0,0.0,0.0,0.090274274,0.0,0.0,0.048180223,0.04817739,0.034177504,0.00048911845,0.035964143,0.015357567,0.0,0.0,0.0,0.0,0.0,0.0
1427468997,0.0,0.0,0.0,-0.010171175,-0.009342909,-1.3497342,0.0,0.0,0.0,0.028057676,0.0,0.0,0.01975575,0.092250764,1.4475919,0.0,0.0,0.0,0.011594255,0.011595076,0.0125201475,0.0,0.0,0.0,0.09027435,0.0,0.0,0.043689664,0.04368704,0.029253107,0.00028889734,0.018194312,0.014506725,0.0,0.0,0.0,0.0,0.0,0.0
1427669576,0.0,0.0,0.0,0.00524652,-0.0007802248,-0.0064213276,0.0,0.0,0.0,0.02903533,0.0,0.0,-0.042954206,0.037574798,0.004116297,0.0,0.0,0.0,0.0135949915,0.013595021,0.012899708,0.0,0.0,0.0,0.09027431,0.0,0.0,0.058859803,0.05885283,0.035010785,0.0009551582,0.023757463,0.012133219,0.0,0.0,0.0,0.0,0.0,0.0
1427874262,0.0,0.0,0.0,-0.0074691772,0.027568698,-0.00024616718,0.0,0.0,0.0,0.026755083,0.0,0.0,-0.008914037,0.001300618,-0.00390625,0.0,0.0,0.0,0.012222303,0.0122225955,0.013383174,0.0,0.0,0.0,0.09027444,0.0,0.0,0.06906679,0.06906032,0.0557763,0.0010191029,0.20332617,0.022468925,0.0,0.0,0.0,0.0,0.0,0.0
1428078414,0.0,0.0,0.0,-0.028597355,0.0036810637,0.007081032,0.0,0.0,0.0,0.039166495,0.0,0.0,0.019888448,0.06846461,-0.003893137,0.0,0.0,0.0,0.012421596,0.0124216145,0.012890218,0.0,0.0,0.0,0.09027448,0.0,0.0,0.06025922,0.060255893,0.0347816,0.0002962316,0.040965836,0.030813912,0.0,0.0,0.0,0.0,0.0,0.0
1428278282,0.0,0.0,0.0,-0.049645424,0.008759141,0.0025687218,0.0,0.0,0.0,0.044254925,0.0,0.0,-0.012400183,0.09341906,0.00025510788,0.0,0.0,0.0,0.011773998,0.011773903,0.012636544,0.0,0.0,0.0,0.09027449,0.0,0.0,0.055365767,0.05535238,0.03411175,0.0004333543,0.04918164,0.036901336,0.0,0.0,0.0,0.0,0.0,0.0
1428687254,0.0,0.0,0.0,-0.020769954,0.011653662,-0.004895687,0.0,0.0,0.0,0.036378574,0.0,0.0,-0.045567416,-0.10250817,0.0020660162,0.0,0.0,0.0,0.011533747,0.0115347225,0.012408288,0.0,0.0,0.0,0.09027407,0.0,0.0,0.04557363,0.045562517,0.032217383,0.00071260164,0.01997278,0.028206278,0.0,0.0,0.0,0.0,0.0,0.0
1428887988,0.0,0.0,0.0,0.018893957,0.0060255527,-0.0024780035,0.0,0.0,0.0,0.037383102,0.0,0.0,-0.04338617,-0.0054659247,-0.0001386404,0.0,0.0,0.0,0.011340265,0.011341522,0.012400024,0.0,0.0,0.0,0.09027368,0.0,0.0,0.028987516,0.028972289,0.034101084,0.00077015517,0.0034079324,0.011216424,0.0,0.0,0.0,0.0,0.0,0.0
1429092002,0.0,0.0,0.0,0.0055527687,0.009342074,-0.0013810396,0.0,0.0,0.0,0.04678408,0.0,0.0,-0.070564434,-0.17451863,-0.0011554956,0.0,0.0,0.0,0.011248557,0.011249913,0.012399858,0.0,0.0,0.0,0.09027315,0.0,0.0,0.03143519,0.03142138,0.033747263,0.0014960826,0.035253443,0.016812379,0.0,0.0,0.0,0.0,0.0,0.0
1429292789,0.0,0.0,0.0,-0.02857995,0.019009352,0.003775835,0.0,0.0,0.0,0.05150688,0.0,0.0,-0.04374694,0.014897317,-0.00067818165,0.0,0.0,0.0,0.011517063,0.011518802,0.012403984,0.0,0.0,0.0,0.090272985,0.0,0.0,0.03742582,0.037413504,0.03381208,0.00077994267,0.022409393,0.016779728,0.0,0.0,0.0,0.0,0.0,0.0
1429492810,0.0,0.0,0.0,-0.018286943,0.01971817,0.005170226,0.0,0.0,0.0,0.042647187,0.0,0.0,-0.05638851,-0.0010660589,-0.0008611679,0.0,0.0,0.0,0.011357719,0.011358686,0.012410879,0.0,0.0,0.0,0.09027276,0.0,0.0,0.030914454,0.030897921,0.03387526,0.0013067948,0.010230164,0.007733113,0.0,0.0,0.0,0.0,0.0,0.0
1429697689,0.0,0.0,0.0,-0.0057616234,0.0021392107,-0.001257062,0.0,0.0,0.0,0.05216726,0.0,0.0,-0.0036819559,-0.0018045604,0.0020195246,0.0,0.0,0.0,0.011246628,0.011247383,0.012411445,0.0,0.0,0.0,0.0902725,0.0,0.0,0.036653414,0.036635898,0.03380785,0.0008718899,0.012667693,0.008276728,0.0,0.0,0.0,0.0,0.0,0.0
1429901664,0.0,0.0,0.0,0.041312218,-0.031405807,-0.0020610094,0.0,0.0,0.0,0.04066917,0.0,0.0,-0.041484565,-0.0015232563,0.0031727552,0.0,0.0,0.0,0.011212281,0.01121277,0.012413965,0.0,0.0,0.0,0.09027238,0.0,0.0,0.038294815,0.03827811,0.033869702,0.0010134181,0.024447434,0.019443963,0.0,0.0,0.0,0.0,0.0,0.0
1430102232,0.0,0.0,0.0,0.055225372,-0.044852734,-0.0035181046,0.0,0.0,0.0,0.051471107,0.0,0.0,0.00040437328,-0.05718355,-0.0002593994,0.0,0.0,0.0,0.011202716,0.011203097,0.012410902,0.0,0.0,0.0,0.09027225,0.0,0.0,0.037205826,0.03719613,0.033784866,0.0023049107,0.053200457,0.044404935,0.0,0.0,0.0,0.0,0.0,0.0
1430306256,0.0,0.0,0.0,0.0141580105,-0.022087932,-0.004437804,0.0,0.0,0.0,0.03814891,0.0,0.0,0.0046309717,-0.053135555,0.0006788969,0.0,0.0,0.0,0.011187937,0.01118801,0.012433499,0.0,0.0,0.0,0.090272225,0.0,0.0,0.039331168,0.039324347,0.034356553,0.0018588526,0.048165314,0.044469267,0.0,0.0,0.0,0.0,0.0,0.0
1430507502,0.0,0.0,0.0,0.023303032,-0.030545592,-0.0011321306,0.0,0.0,0.0,0.039432395,0.0,0.0,-0.009812174,0.0019389298,-0.0023456812,0.0,0.0,0.0,0.011218936,0.011218805,0.012421339,0.0,0.0,0.0,0.0902722,0.0,0.0,0.034110975,0.034105405,0.033770446,0.0010461971,0.038060904,0.040434238,0.0,0.0,0.0,0.0,0.0,0.0
1430707212,0.0,0.0,0.0,-0.008536577,0.010347724,0.00022220612,0.0,0.0,0.0,0.04231386,0.0,0.0,-0.01088472,0.0031935796,-0.0015975237,0.0,0.0,0.0,0.02000234,0.02000234,0.012994558,0.0,0.0,0.0,0.090272315,0.0,0.0,0.07008862,0.070090495,0.055259578,0.0022423796,0.11149628,0.03945195,0.0,0.0,0.0,0.0,0.0,0.0
1430912123,0.0,0.0,0.0,0.010057688,-0.024555802,0.0023976564,0.0,0.0,0.0,0.033034995,0.0,0.0,-0.0025875606,0.0420976,0.00058496,0.0,0.0,0.0,0.012027605,0.012027674,0.012693072,0.0,0.0,0.0,0.09027248,0.0,0.0,0.04453257,0.04453138,0.034087356,0.0004126957,0.04645626,0.021839242,0.0,0.0,0.0,0.0,0.0,0.0
1431116046,0.0,0.0,0.0,0.041110754,-0.032665372,0.02476132,0.0,0.0,0.0,0.031516053,0.0,0.0,0.014033456,0.032462247,-0.01800239,0.0,0.0,0.0,0.011650918,0.011651002,0.01255578,0.0,0.0,0.0,0.090272464,0.0,0.0,0.03497854,0.034978345,0.03446798,0.00043941624,0.01350677,0.015255201,0.0,0.0,0.0,0.0,0.0,0.0
1431316124,0.0,0.0,0.0,0.058962822,-0.014892459,-0.006696701,0.0,0.0,0.0,0.038618214,0.0,0.0,-0.00836242,0.0023500249,0.020902634,0.0,0.0,0.0,0.011574068,0.011574128,0.013088078,0.0,0.0,0.0,0.09027252,0.0,0.0,0.0573185,0.057317536,0.055168666,0.000807299,0.11065641,0.05015487,0.0,0.0,0.0,0.0,0.0,0.0
1431516774,0.0,0.0,0.0,-0.02940774,0.017691731,-0.0046185255,0.0,0.0,0.0,0.04819648,0.0,0.0,-0.014481649,-0.01004,0.0023726225,0.0,0.0,0.0,0.012354424,0.012354414,0.012758422,0.0,0.0,0.0,0.09027261,0.0,0.0,0.042575628,0.042576324,0.03423695,0.00044922056,0.023743121,0.02633966,0.0,0.0,0.0,0.0,0.0,0.0
1431720654,0.0,0.0,0.0,0.022662401,-0.014264345,0.007990599,0.0,0.0,0.0,0.019128922,0.0,0.0,-0.033450887,-0.018894503,-0.00926435,0.0,0.0,0.0,0.011704156,0.01170415,0.012596732,0.0,0.0,0.0,0.090272784,0.0,0.0,0.03419568,0.034196265,0.03409247,0.0004707626,0.0050355745,0.012331249,0.0,0.0,0.0,0.0,0.0,0.0
1431921672,0.0,0.0,0.0,0.040258884,-0.028214931,-1.2993813e-05,0.0,0.0,0.0,0.041125674,0.0,0.0,0.046446703,0.03647917,0.00026464462,0.0,0.0,0.0,0.011453981,0.0114540085,0.012491001,0.0,0.0,0.0,0.09027296,0.0,0.0,0.033097826,0.03309804,0.033905953,0.0005336018,0.03028349,0.030798312,0.0,0.0,0.0,0.0,0.0,0.0
1432125487,0.0,0.0,0.0,-0.029932022,0.021383047,0.001079917,0.0,0.0,0.0,0.022992067,0.0,0.0,0.052371837,0.061538756,-0.00020444393,0.0,0.0,0.0,0.011355434,0.011355464,0.01242519,0.0,0.0,0.0,0.09027317,0.0,0.0,0.029006252,0.0290058,0.03380668,0.00054922746,0.0143407695,0.009705484,0.0,0.0,0.0,0.0,0.0,0.0
1432330414,0.0,0.0,0.0,0.018377542,-0.00021326542,0.0011552572,0.0,0.0,0.0,0.0606642,0.0,0.0,0.028734714,-0.0044754986,-0.00025439262,0.0,0.0,0.0,0.011290944,0.011290936,0.012406186,0.0,0.0,0.0,0.09027336,0.0,0.0,0.029310895,0.029310448,0.033836745,0.0007664455,0.026361357,0.015734708,0.0,0.0,0.0,0.0,0.0,0.0
1432530226,0.0,0.0,0.0,0.018529654,-0.0015616417,-1.3513092,0.0,0.0,0.0,0.040784292,0.0,0.0,0.0059521785,0.054081313,1.4504193,0.0,0.0,0.0,0.011233095,0.011233104,0.012404289,0.0,0.0,0.0,0.09027355,0.0,0.0,0.030338174,0.030338034,0.029042393,0.0005810768,0.01215108,0.009306408,0.0,0.0,0.0,0.0,0.0,0.0
1432735021,0.0,0.0,0.0,0.030019999,-0.014184594,0.0011575222,0.0,0.0,0.0,0.016231492,0.0,0.0,-0.007388114,0.00013905577,0.0005327463,0.0,0.0,0.0,0.0150954425,0.015095554,0.012858037,0.0,0.0,0.0,0.09027374,0.0,0.0,0.05269469,0.05274843,0.0356078,0.000948585,0.058891043,0.0076070987,0.0,0.0,0.0,0.0,0.0,0.0
1432939175,0.0,0.0,0.0,0.028037786,-0.0003862381,0.0066040754,0.0,0.0,0.0,0.024200497,0.0,0.0,-0.008126423,0.030419204,-0.0059933662,0.0,0.0,0.0,0.011998019,0.011998697,0.012648151,0.0,0.0,0.0,0.0902739,0.0,0.0,0.036016762,0.036030784,0.03420865,0.000394319,0.016469127,0.023854434,0.0,0.0,0.0,0.0,0.0,0.0
1433140022,0.0,0.0,0.0,-0.038680315,0.016833544,0.002003312,0.0,0.0,0.0,0.035571348,0.0,0.0,-0.0008098334,-0.010890624,-0.00053834915,0.0,0.0,0.0,0.011540359,0.011541201,0.012526365,0.0,0.0,0.0,0.09027395,0.0,0.0,0.03967894,0.039678276,0.034070384,0.00044649237,0.021398138,0.010409556,0.0,0.0,0.0,0.0,0.0,0.0
1433343971,0.0,0.0,0.0,-0.058143854,0.042819977,-1.3589414,0.0,0.0,0.0,0.04051167,0.0,0.0,-0.02085419,-0.014361415,1.4637291,0.0,0.0,0.0,0.011471622,0.011472013,0.0124621,0.0,0.0,0.0,0.09027385,0.0,0.0,0.03820881,0.038207054,0.029219655,0.00089906505,0.05909287,0.043087505,0.0,0.0,0.0,0.0,0.0,0.0
1433548787,0.0,0.0,0.0,-0.0060214996,-0.00327003,-1.3581795,0.0,0.0,0.0,0.034764238,0.0,0.0,-0.011581853,7.802155e-07,1.4559325,0.0,0.0,0.0,0.020018399,0.0200184,0.012865832,0.0,0.0,0.0,0.09027382,0.0,0.0,0.060141314,0.06015978,0.030423839,0.0017474081,0.07154206,0.025036339,0.0,0.0,0.0,0.0,0.0,0.0
1433748857,0.0,0.0,0.0,0.006508827,0.0011376143,0.0011976957,0.0,0.0,0.0,0.023002986,0.0,0.0,-0.011083558,-0.0011002421,0.0031328201,0.0,0.0,0.0,0.015092056,0.01509205,0.013150771,0.0,0.0,0.0,0.090273984,0.0,0.0,0.08871562,0.08874173,0.035512134,0.0013548222,0.06702697,0.010225181,0.0,0.0,0.0,0.0,0.0,0.0
1433953616,0.0,0.0,0.0,-0.019916058,0.0071618557,0.0045437813,0.0,0.0,0.0,0.027829457,0.0,0.0,-0.016975075,0.057903793,-0.0040774345,0.0,0.0,0.0,0.01216916,0.012168792,0.012770135,0.0,0.0,0.0,0.090273984,0.0,0.0,0.06148401,0.061483722,0.034394894,0.0008306172,0.020849653,0.02845955,0.0,0.0,0.0,0.0,0.0,0.0
1434153751,0.0,0.0,0.0,-0.055457592,0.055722117,0.008679628,0.0,0.0,0.0,0.03074975,0.0,0.0,-0.0670903,-0.015565183,-0.0041879416,0.0,0.0,0.0,0.011823077,0.011822371,0.012680568,0.0,0.0,0.0,0.09027409,0.0,0.0,0.04362907,0.043629438,0.034897186,0.00051153667,0.046410117,0.04404161,0.0,0.0,0.0,0.0,0.0,0.0
1434354389,0.0,0.0,0.0,-0.02832055,0.036609888,-0.0005520582,0.0,0.0,0.0,0.020438699,0.0,0.0,0.04307869,-0.042349398,0.0029349327,0.0,0.0,0.0,0.011568681,0.011567736,0.0125282565,0.0,0.0,0.0,0.090273984,0.0,0.0,0.035096936,0.035097357,0.034090865,0.00093508227,0.06254123,0.058117796,0.0,0.0,0.0,0.0,0.0,0.0
1434558679,0.0,0.0,0.0,-0.0034155846,0.009958625,-0.0010631084,0.0,0.0,0.0,0.013497012,0.0,0.0,-0.025023043,-0.017218892,-0.003194809,0.0,0.0,0.0,0.011455323,0.011454501,0.012417165,0.0,0.0,0.0,0.09027407,0.0,0.0,0.037033655,0.037035402,0.032649335,0.00049511745,0.023796448,0.033757083,0.0,0.0,0.0,0.0,0.0,0.0
1434759493,0.0,0.0,0.0,0.0018291473,-0.0012491941,0.0012665987,0.0,0.0,0.0,0.032718882,0.0,0.0,-0.037553117,-0.032880194,0.0007195473,0.0,0.0,0.0,0.011305365,0.011304678,0.012397433,0.0,0.0,0.0,0.0902739,0.0,0.0,0.031541206,0.031545233,0.033907294,0.00064436725,0.00768037,0.0073566223,0.0,0.0,0.0,0.0,0.0,0.0
1434959358,0.0,0.0,0.0,-0.015703917,-0.0099054575,-0.0016367435,0.0,0.0,0.0,0.031122785,0.0,0.0,-0.006023556,0.0028935494,0.002439499,0.0,0.0,0.0,0.011330562,0.011330021,0.012967935,0.0,0.0,0.0,0.09027392,0.0,0.0,0.07640106,0.07643699,0.055378884,0.0010723695,0.061077356,0.015574718,0.0,0.0,0.0,0.0,0.0,0.0
1435164180,0.0,0.0,0.0,0.0028686523,0.0027813911,-1.3514075,0.0,0.0,0.0,0.023754682,0.0,0.0,0.066205084,0.0024992656,1.45019,0.0,0.0,0.0,0.012804473,0.012804363,0.01271539,0.0,0.0,0.0,0.09027399,0.0,0.0,0.052608944,0.052617002,0.029573653,0.00024526453,0.018828366,0.012318207,0.0,0.0,0.0,0.0,0.0,0.0
1435368010,0.0,0.0,0.0,0.015293121,-0.0033886433,0.0014265776,0.0,0.0,0.0,0.031598665,0.0,0.0,-0.06322865,0.00028213533,0.0018757582,0.0,0.0,0.0,0.01346084,0.013460791,0.01307488,0.0,0.0,0.0,0.090274066,0.0,0.0,0.045031663,0.045035306,0.035665676,0.0008431161,0.088648535,0.017104024,0.0,0.0,0.0,0.0,0.0,0.0
1435568777,0.0,0.0,0.0,-0.011089802,-0.013039589,0.008658886,0.0,0.0,0.0,0.043179184,0.0,0.0,-0.0076524913,0.035302687,-0.006935835,0.0,0.0,0.0,0.011895532,0.011895272,0.012739683,0.0,0.0,0.0,0.0902741,0.0,0.0,0.03564256,0.03564701,0.03433179,0.00016545565,0.016460354,0.025158659,0.0,0.0,0.0,0.0,0.0,0.0
1435772774,0.0,0.0,0.0,-0.0056459904,-0.017360806,-0.0028258562,0.0,0.0,0.0,0.024949383,0.0,0.0,0.050819904,-0.015701788,0.013238549,0.0,0.0,0.0,0.011533529,0.011532725,0.012565996,0.0,0.0,0.0,0.09027413,0.0,0.0,0.03377879,0.03378256,0.034503162,0.00039524917,0.011361757,0.01770162,0.0,0.0,0.0,0.0,0.0,0.0
1435977590,0.0,0.0,0.0,0.0028936863,-0.025058031,-0.00047147274,0.0,0.0,0.0,0.019320313,0.0,0.0,0.04050024,0.032202248,-0.0043797493,0.0,0.0,0.0,0.011421137,0.0114198355,0.012472732,0.0,0.0,0.0,0.090273924,0.0,0.0,0.037096333,0.03710051,0.03397925,0.00042765064,0.015497845,0.01957352,0.0,0.0,0.0,0.0,0.0,0.0
1436177638,0.0,0.0,0.0,-0.0015752316,0.00076931715,-0.0004286766,0.0,0.0,0.0,0.0312947,0.0,0.0,-0.028807044,0.0005818452,-0.0027393103,0.0,0.0,0.0,0.011385396,0.011383995,0.01243247,0.0,0.0,0.0,0.090273775,0.0,0.0,0.04495659,0.044963088,0.034260526,0.00035942823,0.015573382,0.017582444,0.0,0.0,0.0,0.0,0.0,0.0
1436378381,0.0,0.0,0.0,-0.01590228,-0.0023397803,0.001432538,0.0,0.0,0.0,0.031564455,0.0,0.0,0.004464358,-0.014118939,-0.002066493,0.0,0.0,0.0,0.0113349585,0.0113335885,0.012374016,0.0,0.0,0.0,0.09027362,0.0,0.0,0.038032442,0.03804244,0.03229964,0.00048414688,0.008956265,0.011548289,0.0,0.0,0.0,0.0,0.0,0.0
1436582389,0.0,0.0,0.0,-0.010530949,-0.004813373,0.00025892258,0.0,0.0,0.0,0.0208905,0.0,0.0,0.035193592,0.001832467,5.507469e-05,0.0,0.0,0.0,0.011269234,0.011268012,0.012387209,0.0,0.0,0.0,0.09027336,0.0,0.0,0.032301046,0.03231383,0.034212727,0.0006104666,0.0070969323,0.010255261,0.0,0.0,0.0,0.0,0.0,0.0
1436783180,0.0,0.0,0.0,-0.001131773,0.0054321885,0.0018798113,0.0,0.0,0.0,0.028439283,0.0,0.0,0.016074628,0.0036742536,0.00070619583,0.0,0.0,0.0,0.01124661,0.011245539,0.012396042,0.0,0.0,0.0,0.09027308,0.0,0.0,0.04317969,0.043192964,0.033921972,0.00057223235,0.0015614621,0.0046354616,0.0,0.0,0.0,0.0,0.0,0.0
1436987187,0.0,0.0,0.0,0.00808835,-0.0015316308,-1.355613,0.0,0.0,0.0,0.025070403,0.0,0.0,0.013941169,-0.011074352,1.4578462,0.0,0.0,0.0,0.0112018995,0.011200888,0.012426918,0.0,0.0,0.0,0.090272784,0.0,0.0,0.028987898,0.029002495,0.029693,0.00037541855,0.008869583,0.0038953614,0.0,0.0,0.0,0.0,0.0,0.0
1437191222,0.0,0.0,0.0,-0.023237467,-0.0014409721,-0.0021152496,0.0,0.0,0.0,0.024146035,0.0,0.0,-0.0071952194,0.0025191922,0.004493952,0.0,0.0,0.0,0.015080119,0.015080105,0.012854271,0.0,0.0,0.0,0.09027282,0.0,0.0,0.055466954,0.0554791,0.035091497,0.0005257659,0.053702533,0.013262822,0.0,0.0,0.0,0.0,0.0,0.0
1437392024,0.0,0.0,0.0,-0.013581753,-0.00082448125,0.0007866621,0.0,0.0,0.0,0.008376956,0.0,0.0,0.031579003,-0.02597301,0.0039972067,0.0,0.0,0.0,0.012016429,0.012016164,0.012651028,0.0,0.0,0.0,0.09027286,0.0,0.0,0.03569663,0.035701558,0.034587257,0.00013166862,0.022835333,0.01620408,0.0,0.0,0.0,0.0,0.0,0.0
1437591820,0.0,0.0,0.0,0.00538826,-0.0027280152,-0.002542138,0.0,0.0,0.0,0.028510306,0.0,0.0,-0.0008947402,0.05115758,0.007355571,0.0,0.0,0.0,0.011518057,0.011517332,0.012527658,0.0,0.0,0.0,0.090272844,0.0,0.0,0.039598692,0.03960085,0.034101956,0.00029602906,0.010538261,0.01103495,0.0,0.0,0.0,0.0,0.0,0.0
1437796812,0.0,0.0,0.0,-0.0073125362,0.01550211,-0.0036475658,0.0,0.0,0.0,0.01062724,0.0,0.0,-0.015308663,0.06447955,0.0060960054,0.0,0.0,0.0,0.011412549,0.011411445,0.012423279,0.0,0.0,0.0,0.09027281,0.0,0.0,0.03750622,0.037509486,0.03271215,0.00030378177,0.011272629,0.009455284,0.0,0.0,0.0,0.0,0.0,0.0
1437996786,0.0,0.0,0.0,-0.01026988,0.009533837,-0.0005376339,0.0,0.0,0.0,0.026460804,0.0,0.0,-0.039013356,0.0013629571,-0.0002645254,0.0,0.0,0.0,0.011291531,0.011290195,0.012402289,0.0,0.0,0.0,0.09027284,0.0,0.0,0.029625135,0.02962916,0.033904985,0.00027240108,0.006224593,0.008448218,0.0,0.0,0.0,0.0,0.0,0.0
1438197634,0.0,0.0,0.0,0.017323494,0.0010610744,6.4492226e-05,0.0,0.0,0.0,0.025046803,0.0,0.0,-0.010091662,0.029391,-0.00054621696,0.0,0.0,0.0,0.011299598,0.01129815,0.012398113,0.0,0.0,0.0,0.09027249,0.0,0.0,0.034340616,0.034346715,0.03389754,0.00028421197,0.0060389237,0.0062107216,0.0,0.0,0.0,0.0,0.0,0.0
1438401622,0.0,0.0,0.0,-0.010270119,0.008003131,-0.005592704,0.0,0.0,0.0,0.02529139,0.0,0.0,0.036979645,-0.03927127,0.013156772,0.0,0.0,0.0,0.011209541,0.011208145,0.012415319,0.0,0.0,0.0,0.09027247,0.0,0.0,0.03521295,0.035220683,0.033965476,0.00039089186,0.010651718,0.007818618,0.0,0.0,0.0,0.0,0.0,0.0
1438602395,0.0,0.0,0.0,-0.009313822,-0.016584229,-0.008739233,0.0,0.0,0.0,0.023818262,0.0,0.0,-0.0070817918,0.0020405361,0.005056858,0.0,0.0,0.0,0.020009026,0.020009026,0.012984876,0.0,0.0,0.0,0.09027227,0.0,0.0,0.06110798,0.061125692,0.055013735,0.0014071271,0.037613835,0.028021058,0.0,0.0,0.0,0.0,0.0,0.0
1438802447,0.0,0.0,0.0,0.0055422783,0.0061490163,-1.3503407,0.0,0.0,0.0,0.0416444,0.0,0.0,-0.019476056,0.006881335,1.4458688,0.0,0.0,0.0,0.012325719,0.012325563,0.012726621,0.0,0.0,0.0,0.09027234,0.0,0.0,0.04217713,0.04218212,0.029583346,0.00025174973,0.0039697676,0.008519199,0.0,0.0,0.0,0.0,0.0,0.0
1439007031,0.0,0.0,0.0,-0.010448694,-0.004491627,-0.0038995743,0.0,0.0,0.0,0.011257686,0.0,0.0,0.020343125,0.0057821497,-0.0035762787,0.0,0.0,0.0,0.015088957,0.015088943,0.013076132,0.0,0.0,0.0,0.0902724,0.0,0.0,0.040533192,0.04053914,0.03518103,0.00032327365,0.02022007,0.016434563,0.0,0.0,0.0,0.0,0.0,0.0
1439211269,0.0,0.0,0.0,-0.016025066,-0.0037700832,-0.0019321442,0.0,0.0,0.0,0.026055,0.0,0.0,-0.004028529,-0.02605072,-0.0012421608,0.0,0.0,0.0,0.011992871,0.011992473,0.012740504,0.0,0.0,0.0,0.09027232,0.0,0.0,0.031666026,0.03166737,0.03417218,0.00045895518,0.008211797,0.0074899695,0.0,0.0,0.0,0.0,0.0,0.0
1439412424,0.0,0.0,0.0,-0.014092922,0.025114238,0.00048696995,0.0,0.0,0.0,0.007587742,0.0,0.0,-0.010538995,-0.025196798,-0.003792286,0.0,0.0,0.0,0.0114849415,0.0114837885,0.012559973,0.0,0.0,0.0,0.090272345,0.0,0.0,0.031345665,0.031347986,0.03392537,0.00045434377,0.008033108,0.009806916,0.0,0.0,0.0,0.0,0.0,0.0
1439616005,0.0,0.0,0.0,-0.013676643,0.0093835,0.0051350594,0.0,0.0,0.0,-0.00471918,0.0,0.0,-0.0026183724,-0.022499666,-0.0064948797,0.0,0.0,0.0,0.0113548385,0.011353216,0.012439609,0.0,0.0,0.0,0.090272255,0.0,0.0,0.026697429,0.026700972,0.03374586,0.00039647025,0.014162316,0.012947824,0.0,0.0,0.0,0.0,0.0,0.0
1439820822,0.0,0.0,0.0,-0.0065932274,0.007774353,-0.00023448467,0.0,0.0,0.0,0.020075308,0.0,0.0,0.027447045,-0.04129319,-0.0003657341,0.0,0.0,0.0,0.011269994,0.011268118,0.012408306,0.0,0.0,0.0,0.09027202,0.0,0.0,0.02976899,0.029773496,0.033738576,0.0005782698,0.018487995,0.01334691,0.0,0.0,0.0,0.0,0.0,0.0
1440020779,0.0,0.0,0.0,-0.013992786,-0.0027740002,0.003561139,0.0,0.0,0.0,0.007523706,0.0,0.0,0.021904036,-0.0015875809,-0.0056220293,0.0,0.0,0.0,0.011245869,0.011244086,0.012402557,0.0,0.0,0.0,0.09027192,0.0,0.0,0.027905898,0.02791122,0.03375404,0.00041282488,0.005189627,0.0054271473,0.0,0.0,0.0,0.0,0.0,0.0
1440225577,0.0,0.0,0.0,0.0029764175,0.0060881376,0.0027269125,0.0,0.0,0.0,0.031696327,0.0,0.0,-0.028042465,0.0054158997,0.002366066,0.0,0.0,0.0,0.01122325,0.011221629,0.012402151,0.0,0.0,0.0,0.09027182,0.0,0.0,0.03373063,0.0337384,0.033800937,0.00033688996,0.009305009,0.008706379,0.0,0.0,0.0,0.0,0.0,0.0
1440425576,0.0,0.0,0.0,0.013726473,-0.0020489693,-0.0012524128,0.0,0.0,0.0,0.024513999,0.0,0.0,-0.03230858,-0.03302893,-0.0001282692,0.0,0.0,0.0,0.011196926,0.0111956475,0.012423923,0.0,0.0,0.0,0.09027154,0.0,0.0,0.033685755,0.033696156,0.033803526,0.000610789,0.019703873,0.016639274,0.0,0.0,0.0,0.0,0.0,0.0
1440626420,0.0,0.0,0.0,-0.029750109,0.016221583,0.0016934872,0.0,0.0,0.0,0.0153409215,0.0,0.0,-0.006428331,-0.0069236504,-0.0002747774,0.0,0.0,0.0,0.011174357,0.011173078,0.012418062,0.0,0.0,0.0,0.09027127,0.0,0.0,0.025961913,0.025973728,0.03380359,0.0004030142,0.0054636835,0.007925373,0.0,0.0,0.0,0.0,0.0,0.0
1440830426,0.0,0.0,0.0,-0.058297873,0.00072419643,0.012460232,0.0,0.0,0.0,0.029433671,0.0,0.0,0.024168894,0.01297741,-0.0077677965,0.0,0.0,0.0,0.011176604,0.011175446,0.012416895,0.0,0.0,0.0,0.09027099,0.0,0.0,0.037144843,0.037157346,0.03391455,0.0015067701,0.017064128,0.010633894,0.0,0.0,0.0,0.0,0.0,0.0
1441235180,0.0,0.0,0.0,-0.025780916,0.011965096,-1.3530701,0.0,0.0,0.0,0.0059197084,0.0,0.0,-0.02053538,-0.028435305,1.4631507,0.0,0.0,0.0,0.01147434,0.011473222,0.01239321,0.0,0.0,0.0,0.0902706,0.0,0.0,0.03425076,0.03426523,0.029100742,0.00082529045,0.013381446,0.014257976,0.0,0.0,0.0,0.0,0.0,0.0
1441440028,0.0,0.0,0.0,0.0026147366,-0.0038932562,-0.0003631115,0.0,0.0,0.0,0.032239772,0.0,0.0,-0.004876435,0.003859315,0.0017845631,0.0,0.0,0.0,0.015051894,0.01505188,0.012823058,0.0,0.0,0.0,0.09027067,0.0,0.0,0.06110769,0.0611293,0.035023477,0.0013896576,0.060712762,0.034206867,0.0,0.0,0.0,0.0,0.0,0.0
1441643995,0.0,0.0,0.0,-0.0095255375,-0.0105775595,0.0045017004,0.0,0.0,0.0,0.01626323,0.0,0.0,0.06519683,-0.03355705,-0.005070448,0.0,0.0,0.0,0.0120389545,0.0120384805,0.012632968,0.0,0.0,0.0,0.090270795,0.0,0.0,0.0474845,0.04748867,0.0342082,0.00016439968,0.022678014,0.0054999343,0.0,0.0,0.0,0.0,0.0,0.0
1441844772,0.0,0.0,0.0,-0.018662453,-0.011618257,-1.353906,0.0,0.0,0.0,0.025279898,0.0,0.0,0.03423804,0.022507975,1.4561758,0.0,0.0,0.0,0.011635207,0.011634272,0.013157977,0.0,0.0,0.0,0.090270795,0.0,0.0,0.038655277,0.038658,0.050773364,0.00029742313,0.008872154,0.005015811,0.0,0.0,0.0,0.0,0.0,0.0
1442048825,0.0,0.0,0.0,-0.0057554245,0.01831007,-1.3536814,0.0,0.0,0.0,0.03541787,0.0,0.0,0.03423804,0.022507975,1.4560698,0.0,0.0,0.0,0.011747706,0.011746807,0.01464602,0.0,0.0,0.0,0.0902708,0.0,0.0,0.038655277,0.038658,0.072655156,0.0005242007,0.011157788,0.006036594,0.0,0.0,0.0,0.0,0.0,0.0
