timestamp,states[0],states[1],states[2],states[3],states[4],states[5],states[6],states[7],states[8],states[9],states[10],states[11],states[12],states[13],states[14],states[15],states[16],states[17],states[18],states[19],states[20],states[21],states[22],states[23],n_states,vibe[0],vibe[1],vibe[2],covariances[0],covariances[1],covariances[2],covariances[3],covariances[4],covariances[5],covariances[6],covariances[7],covariances[8],covariances[9],covariances[10],covariances[11],covariances[12],covariances[13],covariances[14],covariances[15],covariances[16],covariances[17],covariances[18],covariances[19],covariances[20],covariances[21],covariances[22],covariances[23],control_mode_flags,pos_horiz_accuracy,pos_vert_accuracy,mag_test_ratio,vel_test_ratio,pos_test_ratio,hgt_test_ratio,tas_test_ratio,hagl_test_ratio,beta_test_ratio,time_slip,gps_check_fail_flags,filter_fault_flags,innovation_check_flags,solution_status_flags,nan_flags,health_flags,timeout_flags,pre_flt_fail
1402175188,-0.9999668,0.0014047276,0.0026762537,0.0075780745,-0.0015361372,0.01681896,0.002945652,-0.010446586,0.177022,-1.3500526,-7.588428e-06,2.2277576e-05,-1.586184e-06,0.0016888409,0.0002543062,0.00027445029,0.01890175,-0.270307,0.49876556,0.0,0.0,0.0,0.0,0.0,0.0,4.366996e-08,0.0005566691,0.009137086,9.537387e-07,9.957586e-06,9.327608e-06,6.857861e-05,0.0041366005,0.0041361772,0.004375268,0.00110791,0.0011078817,0.0020614315,1.20079224e-11,1.2007463e-11,2.1960576e-11,5.317234e-08,6.864168e-08,5.000014e-08,0.0,0.0,0.0,0.0,0.0,0.0,0.0,0.0,5275,0.047072195,0.04540299,0.08140256,0.0,0.0422822,0.0008790599,0.0,0.007119561,0.0,0.00018,0,0,0,895,0,0,0,0
1402375013,-0.99995774,0.0022914389,0.0038174463,0.008052558,0.009140893,0.0046234983,0.002452066,-0.0050244373,0.17890428,-1.3511592,-7.5508133e-06,2.2367436e-05,-1.7105385e-06,0.0016889594,0.00025475418,0.0002749291,0.01890175,-0.270307,0.49876556,0.0,0.0,0.0,0.0,0.0,0.0,4.6810513e-08,0.00055260584,0.009559342,9.568824e-07,9.756155e-06,9.125739e-06,6.8458234e-05,0.0042052944,0.004204793,0.004339409,0.0011423947,0.0011423575,0.0020359282,1.18835e-11,1.1883026e-11,2.194618e-11,5.31698e-08,6.863686e-08,5.000007e-08,0.0,0.0,0.0,0.0,0.0,0.0,0.0,0.0,5275,0.04779908,0.04512126,0.07224446,0.0,0.015291555,0.00551749,0.0,0.0016846878,0.0,6e-06,0,0,0,895,0,0,0,0
1402579974,-0.9999571,0.0040483633,0.0034198656,0.007611162,0.016425336,-0.028894193,0.0015972476,0.0013927626,0.16489011,-1.3532565,-7.3353485e-06,2.2413482e-05,-1.8409442e-06,0.0016897543,0.00025497956,0.00027591293,0.01890175,-0.270307,0.49876556,0.0,0.0,0.0,0.0,0.0,0.0,4.642542e-08,0.00053326605,0.0093057575,9.552692e-07,9.419657e-06,8.789757e-06,6.8579604e-05,0.0040761377,0.004075484,0.0043317582,0.001079317,0.0010792746,0.0020390227,1.1690121e-11,1.1689637e-11,2.1963268e-11,5.3166563e-08,6.863083e-08,5.0000097e-08,0.0,0.0,0.0,0.0,0.0,0.0,0.0,0.0,5275,0.046460643,0.04515554,0.09633301,0.0,0.011032391,0.011883304,0.0,0.0012311892,0.0,0.000167,0,0,0,895,0,0,0,0
1402784028,-0.9999829,0.0009327256,0.0022396941,0.00533302,0.0091087185,-0.03681578,0.0036416198,-0.0028844853,0.15938853,-1.3551635,-7.4120244e-06,2.2218259e-05,-1.9607028e-06,0.001689477,0.00025410703,0.00027669818,0.01890175,-0.270307,0.49876556,0.0,0.0,0.0,0.0,0.0,0.0,6.717041e-08,0.00055832963,0.009250732,9.447815e-07,9.0925205e-06,8.4623225e-06,6.8474714e-05,0.004089056,0.004088247,0.004289883,0.0011176673,0.0011176037,0.0020088253,1.1509567e-11,1.1509085e-11,2.1948773e-11,5.3163866e-08,6.862571e-08,5.0000036e-08,0.0,0.0,0.0,0.0,0.0,0.0,0.0,0.0,5275,0.047278654,0.04481992,0.06456879,0.0,0.031092897,0.004973436,0.0,0.0045829876,0.0,0.000221,0,0,0,895,0,0,0,0
1402984768,-0.99998724,-0.0023412153,0.0012948975,0.0042933407,0.009263462,-0.04085805,-0.0014182598,0.0027117007,0.149154,-1.3588904,-7.358072e-06,2.2274256e-05,-2.0581845e-06,0.0016896466,0.00025436335,0.00027914168,0.01890175,-0.270307,0.49876556,0.0,0.0,0.0,0.0,0.0,0.0,5.913329e-08,0.00058337353,0.009694146,9.409525e-07,8.71023e-06,8.081265e-06,6.856964e-05,0.0038995629,0.0038989878,0.004243755,0.0010412756,0.0010412056,0.0019751284,1.13042475e-11,1.13038025e-11,2.1961653e-11,5.316104e-08,6.862037e-08,5.0000036e-08,0.0,0.0,0.0,0.0,0.0,0.0,0.0,0.0,5275,0.04563421,0.044442415,0.071716934,0.0,0.035640623,0.009654458,0.0,0.0065285666,0.0,0.000159,0,0,0,895,0,0,0,0
1403188864,-0.99997693,-0.0033365749,0.0029883347,0.005118073,0.016885988,-0.020582724,0.003762695,0.011831521,0.14695282,-1.359826,-7.430046e-06,2.2384136e-05,-2.1898675e-06,0.0016893884,0.00025484877,0.00027944695,0.01890175,-0.270307,0.49876556,0.0,0.0,0.0,0.0,0.0,0.0,5.1182422e-08,0.00053128455,0.009231853,9.461596e-07,8.438979e-06,7.810277e-06,6.8475856e-05,0.0040203272,0.0040200953,0.0042432365,0.0011150872,0.001115018,0.0019767778,1.11625795e-11,1.1162172e-11,2.1951125e-11,5.315908e-08,6.861647e-08,5.0000036e-08,0.0,0.0,0.0,0.0,0.0,0.0,0.0,0.0,5275,0.04722399,0.04446097,0.06629745,0.0,0.022083897,0.008176946,0.0,0.00017503656,0.0,0.000254,0,0,0,895,0,0,0,0
1403388778,-0.99997574,-0.0021871193,0.0014828109,0.006458111,0.020950846,-0.014048175,0.008668211,0.017919278,0.14203934,-1.3604696,-7.364814e-06,2.242263e-05,-2.2795152e-06,0.0016895889,0.0002550019,0.00028017268,0.01890175,-0.270307,0.49876556,0.0,0.0,0.0,0.0,0.0,0.0,5.2565095e-08,0.00048736745,0.008431367,9.5270025e-07,8.158688e-06,7.5299104e-06,6.856013e-05,0.004020557,0.0040204045,0.0041996078,0.0012183625,0.001218313,0.0019423742,1.101757e-11,1.1017194e-11,2.1964002e-11,5.315725e-08,6.8612835e-08,5e-08,0.0,0.0,0.0,0.0,0.0,0.0,0.0,0.0,5275,0.049362693,0.044072375,0.045075044,0.0,0.019814406,0.010691747,0.0,0.0022883127,0.0,0.00017099999,0,0,0,895,0,0,0,0
1403589491,-0.99997306,-0.00097111304,0.0004059664,0.0072659343,0.013180722,-0.0034901027,0.0056769038,0.023202525,0.14255747,-1.3596,-7.4111135e-06,2.241033e-05,-2.4115395e-06,0.0016894343,0.00025497272,0.00027957352,0.01890175,-0.270307,0.49876556,0.0,0.0,0.0,0.0,0.0,0.0,5.611342e-08,0.00055746577,0.008620097,9.570971e-07,7.871409e-06,7.242267e-06,6.844473e-05,0.0038686774,0.0038685391,0.004664255,0.0011784099,0.001178384,0.0023727072,1.0874318e-11,1.0873977e-11,2.195004e-11,5.3155606e-08,6.8609495e-08,5e-08,0.0,0.0,0.0,0.0,0.0,0.0,0.0,0.0,5275,0.04854682,0.048710443,0.100819804,0.0,0.009030331,0.0042554643,0.0,0.002635084,0.0,8.4e-05,0,0,0,895,0,0,0,0
1403793451,-0.99996316,-0.00063321734,-0.00043156618,0.008548555,0.0006874781,-0.006209921,0.011367512,0.019540317,0.13738176,-1.3600352,-7.335318e-06,2.2316972e-05,-2.5055735e-06,0.0016896629,0.0002545977,0.00028029166,0.01890175,-0.270307,0.49876556,0.0,0.0,0.0,0.0,0.0,0.0,6.009043e-08,0.0005970439,0.009339913,9.642118e-07,7.598518e-06,6.9694333e-06,6.8528636e-05,0.0036240066,0.0036239,0.0046206126,0.0010461289,0.001046116,0.002330753,1.0739891e-11,1.0739575e-11,2.196288e-11,5.315429e-08,6.8606724e-08,5.0000068e-08,0.0,0.0,0.0,0.0,0.0,0.0,0.0,0.0,5275,0.045741066,0.048277874,0.070828505,0.0,0.04135348,0.007388006,0.0,0.000756165,0.0,4.4e-05,0,0,0,895,0,0,0,0
1403998418,-0.99994206,-0.0010743677,-0.0010340173,0.010669463,-0.025005495,0.0014860576,0.0019659842,0.0044271303,0.13673498,-1.3619182,-7.341417e-06,2.2126338e-05,-2.5888573e-06,0.0016896473,0.00025387006,0.00028206824,0.01890175,-0.270307,0.49876556,0.0,0.0,0.0,0.0,0.0,0.0,5.589905e-08,0.0005440823,0.0089006135,9.763335e-07,7.430195e-06,6.801359e-06,6.8637935e-05,0.0036911855,0.0036911448,0.0046243523,0.0010854099,0.0010854009,0.002332612,1.0662657e-11,1.0662356e-11,2.19817e-11,5.3153805e-08,6.8605296e-08,5.000018e-08,0.0,0.0,0.0,0.0,0.0,0.0,0.0,0.0,5275,0.046591964,0.048297122,0.06292333,0.0,0.040222265,0.018842848,0.0,0.0042471164,0.0,0.000211,0,0,0,895,0,0,0,0
1404198696,-0.9999227,-0.0010298179,0.001283111,0.012326327,-0.03466134,-0.0012234674,0.005658298,-0.00800872,0.13372074,-1.3642865,-7.273356e-06,2.207428e-05,-2.7011965e-06,0.0016898004,0.00025361325,0.00028381302,0.01890175,-0.270307,0.49876556,0.0,0.0,0.0,0.0,0.0,0.0,5.3432007e-08,0.0005467311,0.008809483,9.867073e-07,7.2815005e-06,6.652614e-06,6.850957e-05,0.0037128814,0.0037129156,0.004581698,0.0011118758,0.0011118745,0.0022916654,1.0594961e-11,1.0594672e-11,2.1965024e-11,5.315363e-08,6.8604436e-08,5e-08,0.0,0.0,0.0,0.0,0.0,0.0,0.0,0.0,5275,0.047156654,0.047871344,0.07752045,0.0,0.03485145,0.01874183,0.0,0.0025871752,0.0,0.000489,0,0,0,895,0,0,0,0
1404403488,-0.99990356,-0.001148289,0.0031506575,0.013483832,-0.03299002,0.0072097937,0.010854398,-0.016889853,0.13688602,-1.3643532,-7.337768e-06,2.2027165e-05,-2.7864176e-06,0.0016896832,0.00025350056,0.00028407932,0.01890175,-0.270307,0.49876556,0.0,0.0,0.0,0.0,0.0,0.0,5.0743658e-08,0.0005602534,0.009310162,9.943558e-07,7.107072e-06,6.4775354e-06,6.85928e-05,0.0035359852,0.003535957,0.004540693,0.0010287347,0.001028738,0.002252369,1.0514318e-11,1.0514028e-11,2.1977736e-11,5.315366e-08,6.8603924e-08,5.0000143e-08,0.0,0.0,0.0,0.0,0.0,0.0,0.0,0.0,5275,0.045359373,0.04745913,0.072148904,0.0,0.030115437,0.0035638085,0.0,0.0029294614,0.0,0.000479,0,0,0,895,0,0,0,0
1404607083,-0.9998706,-0.0009843287,0.0051590987,0.015211925,-0.023720916,0.019758493,0.008017297,-0.024149787,0.14607179,-1.3659731,-7.4282375e-06,2.201474e-05,-2.882038e-06,0.0016895013,0.00025345953,0.00028597462,0.01890175,-0.270307,0.49876556,0.0,0.0,0.0,0.0,0.0,0.0,4.5440775e-08,0.00053133105,0.008473849,1.0054958e-06,7.0011506e-06,6.3702996e-06,6.849272e-05,0.0035968057,0.0035966923,0.0045432816,0.0010839762,0.0010839729,0.0022537017,1.0471276e-11,1.0470995e-11,2.196707e-11,5.315415e-08,6.8604145e-08,5.000007e-08,0.0,0.0,0.0,0.0,0.0,0.0,0.0,0.0,5275,0.046561237,0.047473166,0.06107538,0.0,0.029767442,0.01635638,0.0,0.0016107884,0.0,7.2e-05,0,0,0,895,0,0,0,0
1404807838,-0.99984396,0.00036912327,0.007248942,0.016104106,-0.005860785,0.025848772,0.0073193233,-0.02642158,0.15518647,-1.3673899,-7.4802374e-06,2.205765e-05,-2.9570106e-06,0.0016893969,0.00025346075,0.00028757047,0.01890175,-0.270307,0.49876556,0.0,0.0,0.0,0.0,0.0,0.0,4.957764e-08,0.0005487722,0.009055802,1.0115019e-06,6.8731e-06,6.240213e-06,6.857655e-05,0.0034501157,0.0034500016,0.00450223,0.0010117203,0.0010116987,0.002215169,1.0414692e-11,1.041442e-11,2.1979855e-11,5.3154732e-08,6.8604564e-08,5.0000153e-08,0.0,0.0,0.0,0.0,0.0,0.0,0.0,0.0,5275,0.04498243,0.047065582,0.0318971,0.0,0.026802313,0.011889745,0.0,0.0015603618,0.0,3.1e-05,0,0,0,895,0,0,0,0
1405011968,-0.99984413,0.0016133938,0.005394055,0.016733764,-0.0024479702,0.0038088425,0.0043287114,-0.037070267,0.15113547,-1.3695618,-7.360059e-06,2.1894353e-05,-3.0258805e-06,0.0016894685,0.0002532856,0.0002898561,0.01890175,-0.270307,0.49876556,0.0,0.0,0.0,0.0,0.0,0.0,4.6315666e-08,0.0005555763,0.008561155,1.0146889e-06,6.7905003e-06,6.1593782e-06,6.845678e-05,0.0034781445,0.0034782537,0.004467338,0.0010480325,0.0010480026,0.0021807123,1.0384856e-11,1.0384607e-11,2.1965194e-11,5.3155514e-08,6.86053e-08,5.000003e-08,0.0,0.0,0.0,0.0,0.0,0.0,0.0,0.0,5275,0.045782477,0.046698097,0.027432324,0.0,0.04000099,0.015907338,0.0,0.0005371904,0.0,0.000159,0,0,0,895,0,0,0,0
1405212826,-0.999854,0.0011150421,0.004769968,0.016368695,-0.0003948995,-0.012738516,0.013310684,-0.04738968,0.14992374,-1.3702279,-7.337969e-06,2.1756716e-05,-3.0921703e-06,0.0016894483,0.00025317562,0.000291282,0.01890175,-0.270307,0.49876556,0.0,0.0,0.0,0.0,0.0,0.0,4.9657473e-08,0.00055378623,0.009049288,1.0124943e-06,6.713799e-06,6.083184e-06,6.855091e-05,0.0034759128,0.0034761245,0.004425877,0.001077721,0.0010777016,0.0021432526,1.0356186e-11,1.0355971e-11,2.1978003e-11,5.3156327e-08,6.860612e-08,5.0000104e-08,0.0,0.0,0.0,0.0,0.0,0.0,0.0,0.0,5275,0.04642653,0.046295278,0.06397344,0.0,0.043255597,0.013752089,0.0,0.0010924718,0.0,0.000219,0,0,0,895,0,0,0,0
1405412813,-0.9998626,-0.0011231264,0.0066876747,0.015125393,-0.0010510668,-0.012529113,0.010903347,-0.057051226,0.15813036,-1.3710682,-7.474546e-06,2.1650458e-05,-3.1810662e-06,0.0016894116,0.00025309392,0.00029267484,0.01890175,-0.270307,0.49876556,0.0,0.0,0.0,0.0,0.0,0.0,5.2847405e-08,0.00056154333,0.009119707,1.006023e-06,6.662357e-06,6.030299e-06,6.864949e-05,0.0035285635,0.0035286553,0.004390817,0.0010306927,0.0010306855,0.0021097767,1.03430675e-11,1.0342895e-11,2.1992713e-11,5.315719e-08,6.8607e-08,5.0000175e-08,0.0,0.0,0.0,0.0,0.0,0.0,0.0,0.0,5275,0.045402404,0.045932304,0.06860691,0.0,0.040311005,0.0106701115,0.0,0.0019652366,0.0,0.000206,0,0,0,895,0,0,0,0
1405821667,-0.99988365,-0.00040858315,0.007417279,0.013325973,0.050317664,-0.004206544,0.010926606,-0.03487047,0.16404223,-1.3688636,-7.549745e-06,2.1766446e-05,-3.3438168e-06,0.0016893538,0.00025308036,0.00029321632,0.01890175,-0.270307,0.49876556,0.0,0.0,0.0,0.0,0.0,0.0,5.9212894e-08,0.00059473346,0.009280918,9.952872e-07,6.545152e-06,5.9129725e-06,6.8688714e-05,0.003500944,0.0035015345,0.0043705143,0.0010297626,0.0010297791,0.002095872,1.0302884e-11,1.0302822e-11,2.199332e-11,5.315891e-08,6.860872e-08,5.0000175e-08,0.0,0.0,0.0,0.0,0.0,0.0,0.0,0.0,5275,0.045382172,0.045780696,0.063925706,0.0,0.04648471,0.0021065574,0.0,0.00025134662,0.0,0.00026,0,0,0,895,0,0,0,0
1406021599,-0.99993235,0.0005533598,0.0046992023,0.010632983,0.068083316,-0.01751449,0.015564049,-0.021901999,0.15873574,-1.3682142,-7.5002663e-06,2.176894e-05,-3.4703423e-06,0.0016893218,0.00025310973,0.00029364365,0.01890175,-0.270307,0.49876556,0.0,0.0,0.0,0.0,0.0,0.0,6.130697e-08,0.0005741929,0.009286107,9.795401e-07,6.5324152e-06,5.902229e-06,6.858629e-05,0.0037236577,0.0037244176,0.0043284306,0.0012407313,0.0012407884,0.0020591035,1.0307799e-11,1.0307771e-11,2.1976457e-11,5.315973e-08,6.8609516e-08,5.000007e-08,0.0,0.0,0.0,0.0,0.0,0.0,0.0,0.0,5275,0.049814854,0.045377344,0.06545151,0.0,0.022717906,0.0054314714,0.0,0.0018652797,0.0,0.000169,0,0,0,895,0,0,0,0
1406226382,-0.99996305,-0.00063249265,0.0013530765,0.008468087,0.07716237,-0.028282765,0.007957651,-0.0030199958,0.15059555,-1.3670851,-7.466112e-06,2.1877679e-05,-3.5531432e-06,0.0016892573,0.00025307207,0.00029421027,0.01890175,-0.270307,0.49876556,0.0,0.0,0.0,0.0,0.0,0.0,5.2661118e-08,0.0005456902,0.009206123,9.676908e-07,6.476191e-06,5.847315e-06,6.868803e-05,0.0036450438,0.0036453875,0.0043038838,0.0012000416,0.001200124,0.0020320127,1.0290543e-11,1.0290552e-11,2.1990678e-11,5.316058e-08,6.861032e-08,5.0000107e-08,0.0,0.0,0.0,0.0,0.0,0.0,0.0,0.0,5275,0.048991486,0.045077853,0.07137841,0.0,0.01430696,0.008810692,0.0,0.0012321495,0.0,0.000175,0,0,0,895,0,0,0,0
1406430425,-0.9999671,-0.0022307003,-0.0018305925,0.007595605,0.044103157,-0.028623668,0.010717888,0.0013492858,0.14499818,-1.3678429,-7.492414e-06,2.169746e-05,-3.6449926e-06,0.0016892768,0.00025310757,0.00029575327,0.01890175,-0.270307,0.49876556,0.0,0.0,0.0,0.0,0.0,0.0,5.306378e-08,0.00057776726,0.008823218,9.632264e-07,6.4236915e-06,5.794981e-06,6.859811e-05,0.0035410374,0.0035409364,0.004306169,0.0010948139,0.0010948717,0.002033962,1.0273579e-11,1.02736205e-11,2.197735e-11,5.316146e-08,6.861116e-08,5e-08,0.0,0.0,0.0,0.0,0.0,0.0,0.0,0.0,5275,0.046794076,0.045099467,0.0710089,0.0,0.021864895,0.0035794608,0.0,0.008475678,0.0,0.000218,0,0,0,895,0,0,0,0
1406631177,-0.9999561,-0.0036307352,-0.0019957973,0.008411019,0.01850752,-0.028827379,0.0117450245,0.0051584817,0.13414408,-1.3660357,-7.433504e-06,2.1669268e-05,-3.7084399e-06,0.0016892746,0.00025314488,0.00029545513,0.01890175,-0.270307,0.49876556,0.0,0.0,0.0,0.0,0.0,0.0,4.7745697e-08,0.0005648235,0.009582243,9.679857e-07,6.4437127e-06,5.8159258e-06,6.8681446e-05,0.0038736823,0.0038736388,0.004248466,0.0013350934,0.0013351227,0.0019886063,1.0293598e-11,1.0293648e-11,2.1986314e-11,5.31623e-08,6.861195e-08,5.000004e-08,0.0,0.0,0.0,0.0,0.0,0.0,0.0,0.0,5275,0.051674135,0.044593792,0.05188043,0.0,0.061037946,0.003693077,0.0,0.005024386,0.0,0.000168,0,0,0,895,0,0,0,0
1406835013,-0.99995756,-0.003288658,0.00021903764,0.0086128805,0.01221703,-0.027913813,0.0131055955,0.012669562,0.12049588,-1.3650986,-7.3738174e-06,2.1754484e-05,-3.7572954e-06,0.0016892109,0.00025323612,0.0002963353,0.01890175,-0.270307,0.49876556,0.0,0.0,0.0,0.0,0.0,0.0,4.6848623e-08,0.00054092525,0.009464849,9.691639e-07,6.364272e-06,5.7364273e-06,6.880018e-05,0.0035668362,0.0035671415,0.0042349366,0.0011438319,0.0011438243,0.0019821397,1.0260665e-11,1.0260734e-11,2.2002716e-11,5.3163177e-08,6.8612756e-08,5.0000036e-08,0.0,0.0,0.0,0.0,0.0,0.0,0.0,0.0,5275,0.04782945,0.044521227,0.020022988,0.0,0.023699624,0.015103917,0.0,0.007552959,0.0,6e-06,0,0,0,895,0,0,0,0
1407036020,-0.9999457,-0.00491019,0.001920287,0.008999552,0.018735051,-0.021314345,0.008446078,0.024585778,0.114311054,-1.36519,-7.34611e-06,2.1864655e-05,-3.8411617e-06,0.0016891696,0.00025330993,0.00029738309,0.01890175,-0.270307,0.49876556,0.0,0.0,0.0,0.0,0.0,0.0,4.2033264e-08,0.00051341596,0.009288912,9.720097e-07,6.344653e-06,5.7179172e-06,6.867766e-05,0.0036103546,0.0036107493,0.0041910433,0.0011395981,0.0011395952,0.0019447324,1.0260466e-11,1.0260532e-11,2.1985585e-11,5.316402e-08,6.861353e-08,5e-08,0.0,0.0,0.0,0.0,0.0,0.0,0.0,0.0,5275,0.047740895,0.04409912,0.051311806,0.0,0.05031554,0.018058274,0.0,0.0068210317,0.0,0.00021,0,0,0,895,0,0,0,0
1407236014,-0.9999381,-0.0055094147,0.0011231758,0.009614005,0.009006096,0.00069411664,0.008704985,0.028318463,0.1158969,-1.3643085,-7.3986675e-06,2.1855298e-05,-3.905805e-06,0.0016891349,0.00025326532,0.00029745925,0.01890175,-0.270307,0.49876556,0.0,0.0,0.0,0.0,0.0,0.0,4.2944894e-08,0.0005501999,0.0092429025,9.754856e-07,6.2982053e-06,5.671867e-06,6.8770285e-05,0.0034672713,0.0034676138,0.004654584,0.0010365221,0.0010365358,0.0023726823,1.0245619e-11,1.0245666e-11,2.2000311e-11,5.3164868e-08,6.8614305e-08,5.0000175e-08,0.0,0.0,0.0,0.0,0.0,0.0,0.0,0.0,5275,0.045530844,0.048710186,0.046653856,0.0,0.026329722,0.0068503697,0.0,0.0039346297,0.0,0.000206,0,0,0,895,0,0,0,0
1407436773,-0.9999423,-0.0057296664,-0.00079246936,0.009049578,0.0011000119,0.008790939,0.012828752,0.028140696,0.1123375,-1.3615626,-7.350883e-06,2.1851858e-05,-3.9740676e-06,0.0016891726,0.0002532809,0.0002962766,0.01890175,-0.270307,0.49876556,0.0,0.0,0.0,0.0,0.0,0.0,3.7028578e-08,0.0005480147,0.009319912,9.720347e-07,6.2846825e-06,5.6584254e-06,6.865355e-05,0.0035218836,0.0035221,0.0046132873,0.0010644859,0.0010645158,0.00232957,1.0247472e-11,1.024749e-11,2.1983144e-11,5.316571e-08,6.861507e-08,5.0000036e-08,0.0,0.0,0.0,0.0,0.0,0.0,0.0,0.0,5275,0.046141103,0.04826562,0.035075724,0.0,0.025424354,0.0036944482,0.0,0.0012640273,0.0,0.000165,0,0,0,895,0,0,0,0
1407640777,-0.99995375,-0.0049162726,-0.0006759133,0.008239072,-0.009827004,0.011439452,0.012582507,0.032739952,0.1103779,-1.36243,-7.294776e-06,2.1900863e-05,-4.0510054e-06,0.001689177,0.0002533401,0.00029755943,0.01890175,-0.270307,0.49876556,0.0,0.0,0.0,0.0,0.0,0.0,3.323093e-08,0.000512054,0.009189678,9.677788e-07,6.243674e-06,5.6165163e-06,6.874968e-05,0.003385872,0.0033862155,0.00460365,0.0009903866,0.0009904192,0.0023074446,1.0234677e-11,1.0234644e-11,2.19974e-11,5.3166566e-08,6.8615876e-08,5.0000125e-08,0.0,0.0,0.0,0.0,0.0,0.0,0.0,0.0,5275,0.044506244,0.048035868,0.05821264,0.0,0.011332756,0.0076953843,0.0,0.015059712,0.0,0.00017,0,0,0,895,0,0,0,0
1407840821,-0.999955,-0.004412921,0.0003816356,0.008387991,-0.016140167,0.02730469,0.009605032,0.027219357,0.11644545,-1.3604623,-7.322189e-06,2.1859065e-05,-4.1317535e-06,0.0016891636,0.00025329815,0.00029694152,0.01890175,-0.270307,0.49876556,0.0,0.0,0.0,0.0,0.0,0.0,3.4768657e-08,0.00053175574,0.008866661,9.686012e-07,6.2826193e-06,5.654886e-06,6.864041e-05,0.0037298435,0.0037298833,0.0055850535,0.0010766414,0.001076677,0.003470709,1.0267616e-11,1.0267546e-11,2.1981186e-11,5.3167426e-08,6.861671e-08,5e-08,0.0,0.0,0.0,0.0,0.0,0.0,0.0,0.0,5267,0.046403863,0.058912724,0.03286817,0.0,0.034623023,2.3919442,0.0,1.2968642,0.0,0.000214,0,0,516,895,0,0,0,0
1408041447,-0.9999601,-0.0036926335,0.00026958,0.008126152,-0.0163442,0.035748616,0.012410352,-0.0023367747,0.119988985,-1.3599192,-7.3332826e-06,2.1828355e-05,-4.192477e-06,0.0016891554,0.00025328062,0.00029763675,0.01890175,-0.270307,0.49876556,0.0,0.0,0.0,0.0,0.0,0.0,8.4471985e-08,0.00057076063,0.009647259,9.670539e-07,6.410266e-06,5.7819534e-06,6.872841e-05,0.02711191,0.02711296,0.0048482725,0.0027029058,0.0027029137,0.002841793,1.0352156e-11,1.0352078e-11,2.1995114e-11,5.3168325e-08,6.8617524e-08,5.0000104e-08,0.0,0.0,0.0,0.0,0.0,0.0,0.0,0.0,5275,0.07352428,0.053308472,0.042959344,0.0,0.035293728,0.009997508,0.0,0.0040678573,0.0,4e-05,0,0,0,895,0,0,0,0
1408245649,-0.99995637,0.0016554294,0.0039385743,0.008312571,-0.026067426,0.021026015,0.009647232,-0.0001611223,0.12772597,-1.3585829,-7.330335e-06,2.1821794e-05,-4.2568895e-06,0.001689144,0.00025327344,0.00029779223,0.01890175,-0.270307,0.49876556,0.0,0.0,0.0,0.0,0.0,0.0,7.266266e-08,0.00056305906,0.009626656,9.674485e-07,6.5776253e-06,5.946392e-06,6.884814e-05,0.012942839,0.012942866,0.0046044923,0.0015358458,0.0015358448,0.0025429884,1.0455547e-11,1.0455472e-11,2.201177e-11,5.316925e-08,6.861839e-08,5.0000246e-08,0.0,0.0,0.0,0.0,0.0,0.0,0.0,0.0,5275,0.055422835,0.05042805,0.048151225,0.0,0.034875818,0.008378947,0.0,0.0034836151,0.0,0.000242,0,0,0,895,0,0,0,0
1408446396,-0.99994546,0.0002123709,0.0041064997,0.009601407,-0.006431786,0.015044842,0.006543108,0.0074648354,0.14201923,-1.3592166,-7.337413e-06,2.1826432e-05,-4.312389e-06,0.0016891344,0.00025328452,0.00029881948,0.01890175,-0.270307,0.49876556,0.0,0.0,0.0,0.0,0.0,0.0,6.02758e-08,0.0005591221,0.009301159,9.743555e-07,6.743388e-06,6.112201e-06,6.872764e-05,0.02691768,0.02691663,0.0048243073,0.010001721,0.010001721,0.0028153688,1.0558661e-11,1.0558589e-11,2.1997022e-11,5.3170158e-08,6.8619265e-08,5.0000114e-08,0.0,0.0,0.0,0.0,0.0,0.0,0.0,0.0,5275,0.14143352,0.053060047,0.04275421,0.0,0.014464524,0.014510454,0.0,0.0028097392,0.0,0.000188,0,0,0,895,0,0,0,0
1408646434,-0.99993664,-0.001474905,0.0034656143,0.010607834,-0.007841694,-0.0051974226,0.0019899916,-0.0067615793,0.12875448,-1.3630208,-7.3359984e-06,2.1825885e-05,-4.3702457e-06,0.001689125,0.00025331107,0.00030137293,0.01890175,-0.270307,0.49876556,0.0,0.0,0.0,0.0,0.0,0.0,8.7716565e-08,0.000577296,0.009778034,9.801888e-07,6.91232e-06,6.2819913e-06,6.881419e-05,0.01797168,0.017970892,0.0045564063,0.0018711875,0.0018711782,0.002468091,1.0660505e-11,1.0660436e-11,2.2009658e-11,5.317104e-08,6.8620096e-08,5.0000214e-08,0.0,0.0,0.0,0.0,0.0,0.0,0.0,0.0,5275,0.061174877,0.049679887,0.028043091,0.0,0.010751426,0.0035533214,0.0,0.010427202,0.0,0.000227,0,0,0,895,0,0,0,0
1408847021,-0.9999177,0.00542389,0.0032096994,0.011182752,-0.020284312,-0.017962288,0.010095472,-0.01359688,0.12208747,-1.3616585,-7.3366487e-06,2.180951e-05,-4.4295944e-06,0.0016891232,0.00025331293,0.0003008635,0.01890175,-0.270307,0.49876556,0.0,0.0,0.0,0.0,0.0,0.0,1.2637533e-07,0.0005635825,0.009566036,9.816135e-07,7.0792967e-06,6.449713e-06,6.869254e-05,0.010588158,0.010587676,0.0044586486,0.0014592473,0.0014592278,0.0022738487,1.0757929e-11,1.0757864e-11,2.1992765e-11,5.317192e-08,6.8620935e-08,5.0000036e-08,0.0,0.0,0.0,0.0,0.0,0.0,0.0,0.0,5275,0.054022912,0.04768489,0.018947402,0.0,0.014843143,0.0034487112,0.0,0.0021848062,0.0,1.4e-05,0,0,0,895,0,0,0,0
1409051373,-0.9998904,0.010166218,0.0034233686,0.010206846,-0.008349615,-0.057107557,0.010921716,-0.009541697,0.11725069,-1.3596803,-7.3401734e-06,2.1807136e-05,-4.473518e-06,0.0016891401,0.00025330367,0.00030012493,0.01890175,-0.270307,0.49876556,0.0,0.0,0.0,0.0,0.0,0.0,9.589981e-08,0.0005284924,0.008768523,9.754286e-07,7.2390662e-06,6.613386e-06,6.8814166e-05,0.007185217,0.007184627,0.0044248914,0.001380141,0.0013801516,0.0021728717,1.0846882e-11,1.08468165e-11,2.2005975e-11,5.31728e-08,6.862178e-08,5.0000143e-08,0.0,0.0,0.0,0.0,0.0,0.0,0.0,0.0,5275,0.052538484,0.046614073,0.023051046,0.0,0.015669873,0.0035601605,0.0,0.0014252911,0.0,0.000363,0,0,0,895,0,0,0,0
1409251975,-0.99992734,0.006886325,0.003651592,0.009199835,-0.005806589,-0.09541946,0.0022961958,-0.0130261,0.103795856,-1.3618493,-7.334497e-06,2.181491e-05,-4.5154147e-06,0.0016891308,0.00025331258,0.00030220792,0.01890175,-0.270307,0.49876556,0.0,0.0,0.0,0.0,0.0,0.0,9.16777e-08,0.00052001874,0.008565481,9.702403e-07,7.372931e-06,6.7437204e-06,6.891616e-05,0.005217414,0.005215781,0.004394341,0.0011909873,0.0011909828,0.0020969221,1.09212014e-11,1.0921138e-11,2.2018495e-11,5.3173675e-08,6.8622626e-08,5.0000136e-08,0.0,0.0,0.0,0.0,0.0,0.0,0.0,0.0,5275,0.04880543,0.045792162,0.036904406,0.0,0.05666815,0.0033619562,0.0,0.008374338,0.0,0.000168,0,0,0,895,0,0,0,0
1409452008,-0.9999525,0.0024070917,0.0022151463,0.009191726,-0.01993472,-0.11447665,0.009195811,-0.025930163,0.08244737,-1.3613962,-7.352452e-06,2.1760734e-05,-4.580056e-06,0.0016891629,0.00025332367,0.00030209066,0.01890175,-0.270307,0.49876556,0.0,0.0,0.0,0.0,0.0,0.0,9.51599e-08,0.0005366313,0.009299904,9.705245e-07,7.5086095e-06,6.87797e-06,6.880272e-05,0.004745709,0.004743557,0.0046662367,0.0012344217,0.0012343235,0.0024247554,1.0997347e-11,1.0997299e-11,2.20032e-11,5.3174578e-08,6.862351e-08,5.0000093e-08,0.0,0.0,0.0,0.0,0.0,0.0,0.0,0.0,5267,0.04968647,0.049241804,0.03839752,0.0,0.04770896,0.0041174414,0.0,0.0011753276,0.0,0.0002,0,0,0,895,0,0,0,0
1409860825,-0.9998354,0.0010424289,0.00027372033,0.018118888,0.05116229,-0.12066867,0.004252679,-0.014854041,0.043176886,-1.3590832,-7.360924e-06,2.1766771e-05,-4.687534e-06,0.0016891612,0.00025330635,0.00030226214,0.01890175,-0.270307,0.49876556,0.0,0.0,0.0,0.0,0.0,0.0,1.1286194e-07,0.00056356407,0.009067108,1.0226684e-06,7.865947e-06,7.2362977e-06,6.8745765e-05,0.011799705,0.011797624,0.0043199547,0.0015380754,0.0015379987,0.0021027874,1.1190092e-11,1.1190067e-11,2.199823e-11,5.3176336e-08,6.862522e-08,5.000007e-08,0.0,0.0,0.0,0.0,0.0,0.0,0.0,0.0,5275,0.055462368,0.04585616,0.03697854,0.0,0.0122166015,0.00044105927,0.0,0.0015516931,0.0,0.000218,0,0,0,895,0,0,0,0
1410060772,-0.9997564,0.0019348352,-0.0006861812,0.021978598,0.020945624,-0.13321972,0.0028711883,-0.015824508,0.013620253,-1.3586097,-7.3416904e-06,2.1706024e-05,-4.7295985e-06,0.001689155,0.00025344177,0.00030281817,0.01890175,-0.270307,0.49876556,0.0,0.0,0.0,0.0,0.0,0.0,9.9644566e-08,0.00059783406,0.009051508,1.0481166e-06,8.0283635e-06,7.3989627e-06,6.880939e-05,0.007813312,0.007811533,0.004262655,0.0014058925,0.0014057448,0.0020176857,1.1274536e-11,1.12745134e-11,2.2010267e-11,5.3177185e-08,6.862605e-08,5.0000036e-08,0.0,0.0,0.0,0.0,0.0,0.0,0.0,0.0,5275,0.053024873,0.044918656,0.041808985,0.0,0.018939337,0.0017677476,0.0,0.0055493484,0.0,0.000165,0,0,0,895,0,0,0,0
1410265450,-0.9996917,0.0021888758,-0.00045448067,0.024731167,0.0017620276,-0.1374984,0.0019413495,-0.02101825,-0.016236696,-1.3561215,-7.3240485e-06,2.1696684e-05,-4.774341e-06,0.0016891405,0.00025345208,0.00030169517,0.01890175,-0.270307,0.49876556,0.0,0.0,0.0,0.0,0.0,0.0,9.174846e-08,0.0006165449,0.009090649,1.0670394e-06,8.197279e-06,7.5680473e-06,6.869993e-05,0.0061070314,0.0061060176,0.00456582,0.0012978672,0.0012977086,0.0023642103,1.1362365e-11,1.1362361e-11,2.1998688e-11,5.3178074e-08,6.862691e-08,5.0000036e-08,0.0,0.0,0.0,0.0,0.0,0.0,0.0,0.0,5267,0.050946794,0.048623145,0.04370633,0.0,0.030410895,0.007543092,0.0,0.0030783957,0.0,4.3e-05,0,0,0,895,0,0,0,0
1410465575,-0.99963546,0.002900325,0.0014393653,0.026808074,0.09243192,-0.12539987,0.0073943012,-0.039559223,-0.045612223,-1.3542913,-7.3253277e-06,2.1685697e-05,-4.810198e-06,0.0016891464,0.000253475,0.0003011494,0.01890175,-0.270307,0.49876556,0.0,0.0,0.0,0.0,0.0,0.0,1.1056026e-07,0.00058372016,0.008434005,1.0822913e-06,8.388043e-06,7.758806e-06,6.877572e-05,0.028233605,0.0282336,0.004672737,0.0027462272,0.0027462286,0.0026021586,1.146059e-11,1.14606e-11,2.2010825e-11,5.3178944e-08,6.862778e-08,5e-08,0.0,0.0,0.0,0.0,0.0,0.0,0.0,0.0,5267,0.074111104,0.051011357,0.0151911685,0.0,0.034434527,0.0023683016,0.0,0.0015017885,0.0,0.000168,0,0,0,895,0,0,0,0
1410666442,-0.99960554,0.0042375214,-0.0049511334,0.027318595,-0.035813894,-0.13193715,0.011656069,-0.06647598,-0.08191402,-1.3513718,-7.323746e-06,2.1686954e-05,-4.8640313e-06,0.0016891395,0.00025346776,0.00030106105,0.01890175,-0.270307,0.49876556,0.0,0.0,0.0,0.0,0.0,0.0,1.2056343e-07,0.00064712483,0.009127098,1.0844443e-06,8.590518e-06,7.960328e-06,6.8654444e-05,0.017282214,0.017279714,0.004930764,0.0021234963,0.0021234776,0.0029123793,1.1563898e-11,1.1563914e-11,2.1995596e-11,5.3179836e-08,6.8628665e-08,5.0000107e-08,0.0,0.0,0.0,0.0,0.0,0.0,0.0,0.0,5275,0.06516881,0.053966466,0.04164837,0.0,0.02101386,0.0033641018,0.0,0.0029057632,0.0,0.000234,0,0,0,895,0,0,0,0
1410870431,-0.9996803,0.003594549,0.004124914,0.024688367,-0.04185742,-0.14795887,0.011487744,-0.07547146,-0.10650791,-1.3497375,-7.3237898e-06,2.167658e-05,-4.8882425e-06,0.0016891239,0.0002534934,0.00030167509,0.01890175,-0.270307,0.49876556,0.0,0.0,0.0,0.0,0.0,0.0,1.14118194e-07,0.0006352605,0.008911591,1.0654849e-06,8.77857e-06,8.148142e-06,6.876825e-05,0.010541174,0.010538025,0.0046938774,0.0014954081,0.0014953094,0.0025886958,1.1657025e-11,1.1657043e-11,2.2007991e-11,5.318062e-08,6.8629426e-08,5.0000185e-08,0.0,0.0,0.0,0.0,0.0,0.0,0.0,0.0,5275,0.05468745,0.05087923,0.030963015,0.0,0.019206634,0.0060291677,0.0,0.0015178614,0.0,0.000223,0,0,0,895,0,0,0,0
1411075080,-0.9997523,0.0006018243,0.0036520397,0.021947797,-0.03901855,-0.1484498,0.0074176774,-0.083800174,-0.1365177,-1.3515666,-7.317851e-06,2.166833e-05,-4.940908e-06,0.0016890916,0.00025350292,0.00030349655,0.01890175,-0.270307,0.49876556,0.0,0.0,0.0,0.0,0.0,0.0,9.96157e-08,0.0006247209,0.009086635,1.0458921e-06,8.974702e-06,8.344235e-06,6.870213e-05,0.008360342,0.008357947,0.005170239,0.0014867773,0.0014865601,0.0030751785,1.17533795e-11,1.1753403e-11,2.1996767e-11,5.318147e-08,6.8630214e-08,5.000007e-08,0.0,0.0,0.0,0.0,0.0,0.0,0.0,0.0,5267,0.05452832,0.05545429,0.03179249,0.0,0.027419828,2.4146173,0.0,1.7545383,0.0,7.3e-05,0,0,516,895,0,0,0,0
1411275321,-0.99976367,0.0006545929,0.0033128222,0.021477927,-0.004500967,-0.19780472,0.0047104512,-0.12288121,-0.15486753,-1.3532124,-7.3149026e-06,2.1645506e-05,-4.982286e-06,0.0016890737,0.00025356057,0.00030488803,0.01890175,-0.270307,0.49876556,0.0,0.0,0.0,0.0,0.0,0.0,1.17865845e-07,0.0006385191,0.009199853,1.0422729e-06,9.1760785e-06,8.545738e-06,6.8787915e-05,0.018696608,0.018692255,0.004806305,0.0026065132,0.0026064874,0.0026799717,1.1849898e-11,1.1849931e-11,2.2007849e-11,5.318231e-08,6.8631e-08,5.0000164e-08,0.0,0.0,0.0,0.0,0.0,0.0,0.0,0.0,5275,0.07220111,0.051768444,0.032782655,0.0,0.026749786,0.009511633,0.0,0.0006700236,0.0,0.000314,0,0,0,895,0,0,0,0
1411479839,-0.9997574,-0.0010278994,-0.00039184457,0.021998497,-0.019638011,-0.18306923,0.003223608,-0.13159472,-0.18818705,-1.3547201,-7.3223905e-06,2.1639276e-05,-5.024178e-06,0.0016890789,0.0002535614,0.00030631744,0.01890175,-0.270307,0.49876556,0.0,0.0,0.0,0.0,0.0,0.0,1.0828941e-07,0.0006563549,0.009328353,1.044795e-06,9.373807e-06,8.745093e-06,6.866519e-05,0.011746987,0.011742535,0.004656408,0.0016403168,0.0016401543,0.0024579135,1.1942622e-11,1.1942662e-11,2.1990345e-11,5.3183147e-08,6.8631806e-08,5.0000036e-08,0.0,0.0,0.0,0.0,0.0,0.0,0.0,0.0,5275,0.057275396,0.049577348,0.03405231,0.0,0.014642221,0.014957209,0.0,0.0038612823,0.0,3.2e-05,0,0,0,895,0,0,0,0
1411683941,-0.9996837,-0.0009019409,0.003959876,0.024820894,-0.016874727,-0.16571948,0.003780752,-0.13638818,-0.22017978,-1.35471,-7.348433e-06,2.1637734e-05,-5.0655835e-06,0.0016891317,0.0002535671,0.00030611607,0.01890175,-0.270307,0.49876556,0.0,0.0,0.0,0.0,0.0,0.0,9.706252e-08,0.000641244,0.009190159,1.0651596e-06,9.55118e-06,8.921281e-06,6.876137e-05,0.0077863988,0.0077832635,0.0046332856,0.0013184117,0.0013181391,0.0023671393,1.2021459e-11,1.20215045e-11,2.2007908e-11,5.3183953e-08,6.863252e-08,5.0000157e-08,0.0,0.0,0.0,0.0,0.0,0.0,0.0,0.0,5275,0.051347356,0.048653256,0.01827637,0.0,0.012920418,0.00056731096,0.0,0.0025593669,0.0,0.000133,0,0,0,895,0,0,0,0
1411884623,-0.9996042,-0.0007599987,0.003706275,0.027876833,-0.046708237,-0.16874549,0.0016723796,-0.15377863,-0.25706813,-1.356417,-7.3471356e-06,2.1628184e-05,-5.0945e-06,0.0016891209,0.00025357897,0.00030728016,0.01890175,-0.270307,0.49876556,0.0,0.0,0.0,0.0,0.0,0.0,9.418348e-08,0.0006455575,0.0090462435,1.0866237e-06,9.747984e-06,9.118503e-06,6.861499e-05,0.03379016,0.033787116,0.0048936848,0.010019421,0.010019419,0.0027038811,1.2109989e-11,1.211005e-11,2.1989641e-11,5.318478e-08,6.863327e-08,5e-08,0.0,0.0,0.0,0.0,0.0,0.0,0.0,0.0,5275,0.1415586,0.051998857,0.005960304,0.0,0.025826212,0.014467437,0.0,0.005168218,0.0,1.6e-05,0,0,0,895,0,0,0,0
1412088617,-0.99950826,-0.00021844186,0.006078195,0.03076002,-0.026411008,-0.1379927,0.002977937,-0.1609636,-0.27526546,-1.3593696,-7.35456e-06,2.1632237e-05,-5.1200927e-06,0.0016891318,0.0002535462,0.00030928742,0.01890175,-0.270307,0.49876556,0.0,0.0,0.0,0.0,0.0,0.0,9.061169e-08,0.00059399783,0.008332147,1.1089393e-06,9.966512e-06,9.335473e-06,6.8685644e-05,0.017135704,0.0171315,0.0046630106,0.0022979716,0.0022978927,0.0024603223,1.2209626e-11,1.2209685e-11,2.2004077e-11,5.3185634e-08,6.863407e-08,5.0000143e-08,0.0,0.0,0.0,0.0,0.0,0.0,0.0,0.0,5275,0.0677928,0.049601637,0.0130390385,0.0,0.011689136,0.015814325,0.0,0.0028606814,0.0,1e-05,0,0,0,895,0,0,0,0
1412292771,-0.99944496,0.0032258402,0.004305935,0.032878302,-0.02334115,-0.13804024,0.00096565054,-0.1696843,-0.3065736,-1.3622358,-7.3501665e-06,2.162407e-05,-5.1504176e-06,0.0016891053,0.0002535588,0.0003110395,0.01890175,-0.270307,0.49876556,0.0,0.0,0.0,0.0,0.0,0.0,8.853613e-08,0.0006120413,0.008347632,1.1237881e-06,1.0169119e-05,9.539474e-06,6.858095e-05,0.010346168,0.01034298,0.0045993594,0.0014990177,0.0014988479,0.0023531509,1.22965535e-11,1.22966e-11,2.19909e-11,5.3186373e-08,6.863468e-08,5e-08,0.0,0.0,0.0,0.0,0.0,0.0,0.0,0.0,5275,0.054752767,0.048509285,0.010108325,0.0,0.015223849,0.008125395,0.0,0.003461601,0.0,0.000164,0,0,0,895,0,0,0,0
1412493461,-0.99941015,0.0033459982,0.0032734452,0.034021594,-0.008386899,-0.1519655,0.0021654775,-0.16893663,-0.3419096,-1.364457,-7.3289557e-06,2.1649545e-05,-5.1841225e-06,0.0016890359,0.00025343665,0.00031259184,0.01890175,-0.270307,0.49876556,0.0,0.0,0.0,0.0,0.0,0.0,6.9877906e-08,0.0006167352,0.0084438315,1.1325524e-06,1.0321875e-05,9.6929225e-06,6.86619e-05,0.0068649775,0.0068628034,0.0045500076,0.0012440543,0.0012438423,0.002263401,1.23564605e-11,1.2356484e-11,2.2004735e-11,5.318684e-08,6.863485e-08,5.0000153e-08,0.0,0.0,0.0,0.0,0.0,0.0,0.0,0.0,5275,0.049878817,0.047575213,0.022230322,0.0,0.021932378,0.006695517,0.0,0.0035320432,0.0,5.4e-05,0,0,0,895,0,0,0,0
1412697615,-0.99942344,0.0036788704,0.0031187036,0.033610675,0.005510539,-0.15182307,0.0062577194,-0.16632165,-0.37147436,-1.3659354,-7.351032e-06,2.1647613e-05,-5.195181e-06,0.0016890957,0.00025343295,0.0003141076,0.01890175,-0.270307,0.49876556,0.0,0.0,0.0,0.0,0.0,0.0,6.610173e-08,0.0006502301,0.008426808,1.1271968e-06,1.0409557e-05,9.780644e-06,6.8543326e-05,0.0053026644,0.0053010443,0.004506074,0.0012237789,0.0012235044,0.0021985692,1.2377721e-11,1.2377706e-11,2.1986793e-11,5.3186923e-08,6.8634336e-08,5e-08,0.0,0.0,0.0,0.0,0.0,0.0,0.0,0.0,5275,0.049470026,0.046888903,0.020970188,0.0,0.022559388,0.008038945,0.0,0.0012818006,0.0,0.000208,0,0,0,895,0,0,0,0
1412902434,-0.99948734,0.0034296382,0.0023078597,0.03175236,0.006086647,-0.15487969,0.008680115,-0.16519046,-0.40170807,-1.3660904,-7.3588644e-06,2.1643556e-05,-5.2208716e-06,0.001689113,0.0002534337,0.00031489047,0.01890175,-0.270307,0.49876556,0.0,0.0,0.0,0.0,0.0,0.0,6.790152e-08,0.000680164,0.008585913,1.1112303e-06,1.0515693e-05,9.886725e-06,6.867679e-05,0.0049154763,0.0049143564,0.0049871434,0.001267844,0.0012675674,0.0026957183,1.2406253e-11,1.2406225e-11,2.1999298e-11,5.3187087e-08,6.863397e-08,5.000015e-08,0.0,0.0,0.0,0.0,0.0,0.0,0.0,0.0,5267,0.050352868,0.051920306,0.014739284,0.0,0.017331583,2.4525087,0.0,1.7230232,0.0,0.000224,0,0,516,895,0,0,0,0
1413102379,-0.99954855,0.0031993242,0.0021695052,0.029796079,-0.021002784,-0.17454457,0.0057833735,-0.17092645,-0.42432228,-1.3683282,-7.3695605e-06,2.1624479e-05,-5.247245e-06,0.0016891311,0.00025347582,0.00031723198,0.01890175,-0.270307,0.49876556,0.0,0.0,0.0,0.0,0.0,0.0,9.353239e-08,0.00069216813,0.008699807,1.0944368e-06,1.0703711e-05,1.0074406e-05,6.857023e-05,0.027721036,0.02771942,0.004623525,0.0026055416,0.0026055349,0.0024280194,1.2482378e-11,1.2482368e-11,2.1981467e-11,5.3187712e-08,6.863433e-08,5.0000036e-08,0.0,0.0,0.0,0.0,0.0,0.0,0.0,0.0,5275,0.07218779,0.049274936,0.02518708,0.0,0.0050835647,0.006466073,0.0,0.005997112,0.0,0.000172,0,0,0,895,0,0,0,0
1413307183,-0.99961567,0.0029542074,0.003313348,0.02736844,0.006033424,-0.16078003,0.01108638,-0.16902658,-0.4621882,-1.3672159,-7.3897622e-06,2.1640735e-05,-5.2435234e-06,0.0016891836,0.00025342323,0.0003183601,0.01890175,-0.270307,0.49876556,0.0,0.0,0.0,0.0,0.0,0.0,1.0077019e-07,0.00069872284,0.008971204,1.0751271e-06,1.0941081e-05,1.03110315e-05,6.8712616e-05,0.013717016,0.013713164,0.004496392,0.0017004312,0.0017003028,0.0022979237,1.2583542e-11,1.2583522e-11,2.1999952e-11,5.318859e-08,6.863512e-08,5.0000146e-08,0.0,0.0,0.0,0.0,0.0,0.0,0.0,0.0,5275,0.058315814,0.047936663,0.005302874,0.0,0.0196411,0.004171128,0.0,0.0019567374,0.0,0.000175,0,0,0,895,0,0,0,0
1413507339,-0.9997189,0.0034840137,0.0016686037,0.023390817,0.0085470285,-0.18542333,0.012882105,-0.16073245,-0.50891507,-1.3657017,-7.3474707e-06,2.1622778e-05,-5.276828e-06,0.0016890687,0.00025347658,0.0003184596,0.01890175,-0.270307,0.49876556,0.0,0.0,0.0,0.0,0.0,0.0,9.951703e-08,0.00065824983,0.008831419,1.0454072e-06,1.11335685e-05,1.05038e-05,6.862375e-05,0.008582777,0.008579866,0.004927883,0.0013340883,0.0013338706,0.0027327433,1.2658326e-11,1.2658298e-11,2.1982563e-11,5.3189318e-08,6.863571e-08,5.0000036e-08,0.0,0.0,0.0,0.0,0.0,0.0,0.0,0.0,5275,0.051652286,0.052275646,0.008513586,0.0,0.041199695,2.4417076,0.0,1.7137865,0.0,0.000332,0,0,516,895,0,0,0,0
1413708303,-0.99979526,0.0032513204,0.0020652458,0.019867906,-0.030179769,-0.22490807,0.010105921,-0.12562361,-0.5728505,-1.3668116,-7.3201254e-06,2.1663203e-05,-5.3080216e-06,0.0016890005,0.0002533362,0.00032050596,0.01890175,-0.270307,0.49876556,0.0,0.0,0.0,0.0,0.0,0.0,1.13358766e-07,0.0006213193,0.008626787,1.0218586e-06,1.136309e-05,1.0732779e-05,6.8731904e-05,0.031307116,0.031304356,0.004533651,0.0034308622,0.0034308534,0.002401815,1.2751456e-11,1.2751436e-11,2.1993959e-11,5.3190153e-08,6.863641e-08,5.0000143e-08,0.0,0.0,0.0,0.0,0.0,0.0,0.0,0.0,5275,0.08283547,0.049008317,0.010987414,0.0,0.0069045075,0.0049967514,0.0,0.0050801,0.0,0.000492,0,0,0,895,0,0,0,0
1413911844,-0.99981266,0.00052002765,0.0065675103,0.018199192,-0.013309739,-0.21880783,0.0062834425,-0.13198127,-0.6096057,-1.3667839,-7.3250967e-06,2.1660237e-05,-5.3087456e-06,0.0016889985,0.00025332044,0.00032203953,0.01890175,-0.270307,0.49876556,0.0,0.0,0.0,0.0,0.0,0.0,1.0905433e-07,0.0006382122,0.008887073,1.0117595e-06,1.1600191e-05,1.0967016e-05,6.862365e-05,0.014232314,0.014224991,0.004369354,0.0018217202,0.0018215075,0.002206979,1.284745e-11,1.28474245e-11,2.1978528e-11,5.3191037e-08,6.863721e-08,5e-08,0.0,0.0,0.0,0.0,0.0,0.0,0.0,0.0,5275,0.060359158,0.046978496,0.004358324,0.0,0.013358132,0.011973015,0.0,0.0027154759,0.0,3.6e-05,0,0,0,895,0,0,0,0
1414116915,-0.9998589,0.004791436,0.0035560937,0.015703646,0.008418588,-0.20788065,0.009770132,-0.12363075,-0.6479735,-1.3671489,-7.358164e-06,2.1675916e-05,-5.3353283e-06,0.0016890331,0.0002532882,0.00032286087,0.01890175,-0.270307,0.49876556,0.0,0.0,0.0,0.0,0.0,0.0,1.47504e-07,0.000672289,0.008952656,9.950851e-07,1.18003145e-05,1.1169446e-05,6.875448e-05,0.008457238,0.008450822,0.0043317885,0.0013581959,0.0013577637,0.0021174604,1.2920372e-11,1.29203375e-11,2.199404e-11,5.319191e-08,6.8637995e-08,5.0000075e-08,0.0,0.0,0.0,0.0,0.0,0.0,0.0,0.0,5275,0.05211487,0.04601587,0.018502217,0.0,0.030647654,0.00081559597,0.0,0.0050605484,0.0,0.000308,0,0,0,895,0,0,0,0
1414316767,-0.9998833,0.0077627166,0.0030550144,0.012796734,0.012018092,-0.2196261,0.0062666903,-0.120843135,-0.6861235,-1.3671155,-7.4173468e-06,2.1665215e-05,-5.3412327e-06,0.0016890868,0.00025329724,0.00032387575,0.01890175,-0.270307,0.49876556,0.0,0.0,0.0,0.0,0.0,0.0,1.18138736e-07,0.00063244934,0.008959728,9.779409e-07,1.192299e-05,1.1293596e-05,6.8851296e-05,0.006235456,0.0062294584,0.0042967335,0.0013081651,0.0013075036,0.002039868,1.2953804e-11,1.2953669e-11,2.200673e-11,5.3192732e-08,6.863871e-08,5.000007e-08,0.0,0.0,0.0,0.0,0.0,0.0,0.0,0.0,5275,0.05114361,0.045164898,0.0062235137,0.0,0.019297509,0.007257769,0.0,0.0011169814,0.0,0.00016,0,0,0,895,0,0,0,0
1414521583,-0.9999145,0.0066919005,0.0018247577,0.0110898,0.008983493,-0.23482522,0.006284244,-0.11672833,-0.7294862,-1.3679038,-7.4605964e-06,2.1657857e-05,-5.358076e-06,0.0016891143,0.00025328324,0.00032555062,0.01890175,-0.270307,0.49876556,0.0,0.0,0.0,0.0,0.0,0.0,8.4959915e-08,0.000574976,0.008776911,9.68116e-07,1.1977774e-05,1.1347648e-05,6.8751244e-05,0.005144553,0.0051398478,0.0043007885,0.0011961703,0.0011954744,0.0020168773,1.2949572e-11,1.2949417e-11,2.199053e-11,5.3193578e-08,6.8639444e-08,5.000007e-08,0.0,0.0,0.0,0.0,0.0,0.0,0.0,0.0,5275,0.048904445,0.044909656,0.0010354302,0.0,0.010875172,0.013863577,0.0,0.0026330065,0.0,0.000176,0,0,0,895,0,0,0,0
1414721618,-0.9999226,0.005951768,0.0025286027,0.010636989,0.014346439,-0.24144436,0.004871451,-0.107348815,-0.7693655,-1.3673136,-7.5774788e-06,2.1740805e-05,-5.3880763e-06,0.0016891953,0.0002532064,0.0003258655,0.01890175,-0.270307,0.49876556,0.0,0.0,0.0,0.0,0.0,0.0,7.106688e-08,0.0006069407,0.009068529,9.656869e-07,1.1891248e-05,1.1260321e-05,6.882186e-05,0.004720143,0.004716016,0.00423707,0.001199063,0.0011982494,0.0019580435,1.2872428e-11,1.2872272e-11,2.1996231e-11,5.3194345e-08,6.864012e-08,5e-08,0.0,0.0,0.0,0.0,0.0,0.0,0.0,0.0,5275,0.048962355,0.044249784,0.026609426,0.0,0.029498052,0.00018365981,0.0,0.003948573,0.0,0.000211,0,0,0,895,0,0,0,0
1414925647,-0.9999372,0.005889712,0.0017875902,0.009371331,0.02532465,-0.25088915,0.0044974545,-0.09310105,-0.81034046,-1.366746,-7.5878447e-06,2.189065e-05,-5.4128072e-06,0.0016891981,0.00025306267,0.00032611794,0.01890175,-0.270307,0.49876556,0.0,0.0,0.0,0.0,0.0,0.0,6.846158e-08,0.0006413034,0.009039143,9.587022e-07,1.1650017e-05,1.1018957e-05,6.868625e-05,0.0045354194,0.004531782,0.004690093,0.001211815,0.0012108901,0.0023812554,1.272188e-11,1.27217065e-11,2.1975505e-11,5.3195155e-08,6.864085e-08,5.0000036e-08,0.0,0.0,0.0,0.0,0.0,0.0,0.0,0.0,5275,0.049220983,0.048798107,0.011695502,0.0,0.039641496,0.008720153,0.0,0.0032909983,0.0,0.000216,0,0,0,895,0,0,0,0
1415126263,-0.99995375,0.0055867885,0.00044390312,0.007821247,0.008534571,-0.2623052,0.0057162363,-0.09319359,-0.8598324,-1.3644315,-7.604696e-06,2.1764012e-05,-5.4122997e-06,0.0016892169,0.0002531319,0.00032576243,0.01890175,-0.270307,0.49876556,0.0,0.0,0.0,0.0,0.0,0.0,6.4018195e-08,0.00064310554,0.009164335,9.506278e-07,1.1244559e-05,1.0613096e-05,6.875044e-05,0.0042818314,0.0042791823,0.004648278,0.0011057256,0.0011049127,0.002339158,1.2495406e-11,1.2495284e-11,2.198464e-11,5.3196e-08,6.8641604e-08,5.0000036e-08,0.0,0.0,0.0,0.0,0.0,0.0,0.0,0.0,5275,0.04701743,0.048364844,0.003537657,0.0,0.00868449,0.0027994718,0.0,0.0018299412,0.0,5.6e-05,0,0,0,895,0,0,0,0
1415330441,-0.9999676,0.004902293,0.0009630502,0.0063298796,-0.008157597,-0.28332725,0.007092073,-0.09677674,-0.9203152,-1.3626558,-7.4491018e-06,2.17105e-05,-5.4193497e-06,0.0016891818,0.00025314928,0.00032581214,0.01890175,-0.270307,0.49876556,0.0,0.0,0.0,0.0,0.0,0.0,5.8458543e-08,0.0006072039,0.008973208,9.4347234e-07,1.0757634e-05,1.0125512e-05,6.862977e-05,0.004172236,0.0041704345,0.00463741,0.0010462579,0.0010455388,0.0023341759,1.2233178e-11,1.2233151e-11,2.1966111e-11,5.3196878e-08,6.8642414e-08,5e-08,0.0,0.0,0.0,0.0,0.0,0.0,0.0,0.0,5275,0.045736164,0.04831331,0.0054428643,0.0,0.026775861,0.0010313712,0.0,0.0014188902,0.0,0.000234,0,0,0,895,0,0,0,0
1415531219,-0.99997014,0.0036327832,0.0024091932,0.0063986247,-0.010559829,-0.3056548,0.0058705844,-0.09774795,-0.98864233,-1.3621092,-7.2491166e-06,2.1757083e-05,-5.414913e-06,0.0016891386,0.00025315207,0.00032689676,0.01890175,-0.270307,0.49876556,0.0,0.0,0.0,0.0,0.0,0.0,6.546332e-08,0.000589422,0.009167524,9.4360985e-07,1.0438343e-05,9.805636e-06,6.869873e-05,0.004487027,0.004486094,0.00510524,0.0011248264,0.0011242101,0.0028470166,1.2063991e-11,1.2064143e-11,2.1976976e-11,5.3197766e-08,6.8643274e-08,5.000007e-08,0.0,0.0,0.0,0.0,0.0,0.0,0.0,0.0,5267,0.047424007,0.05335744,0.013975564,0.0,0.07005051,2.44677,0.0,1.7177663,0.0,0.000209,0,0,516,895,0,0,0,0
1415735384,-0.9999702,0.0018388832,0.002217336,0.007165825,0.02114323,-0.35189337,0.0029803584,-0.092289396,-1.0849956,-1.3649598,-7.1824747e-06,2.1773436e-05,-5.4108014e-06,0.0016891301,0.0002531333,0.00032982425,0.01890175,-0.270307,0.49876556,0.0,0.0,0.0,0.0,0.0,0.0,1.01167714e-07,0.00058980956,0.008855079,9.465929e-07,1.054707e-05,9.915221e-06,6.876108e-05,0.019820925,0.019805338,0.004750483,0.0026517168,0.0026515953,0.00257509,1.210793e-11,1.2108176e-11,2.198573e-11,5.3198654e-08,6.864411e-08,5.000012e-08,0.0,0.0,0.0,0.0,0.0,0.0,0.0,0.0,5275,0.072823845,0.050745346,0.0088425,0.0,0.010286181,0.01839183,0.0,0.0035626495,0.0,0.000377,0,0,0,895,0,0,0,0
1415940026,-0.9999745,-0.0015098844,-0.00039991108,0.006972609,-0.028841076,-0.28792918,0.0042409603,-0.100278996,-1.1272641,-1.3647346,-7.2132443e-06,2.1736407e-05,-5.420343e-06,0.0016891113,0.00025310705,0.00033043252,0.01890175,-0.270307,0.49876556,0.0,0.0,0.0,0.0,0.0,0.0,8.003488e-08,0.00061400654,0.009029479,9.454232e-07,1.0763083e-05,1.0134476e-05,6.866632e-05,0.011952525,0.011940475,0.0046270955,0.0015058753,0.0015053959,0.0024429683,1.2204062e-11,1.2204328e-11,2.197358e-11,5.3199596e-08,6.8645015e-08,5.0000022e-08,0.0,0.0,0.0,0.0,0.0,0.0,0.0,0.0,5275,0.05487505,0.04942639,0.007978235,0.0,0.07245552,0.0054342966,0.0,0.00084006385,0.0,0.000219,0,0,0,895,0,0,0,0
1416139975,-0.9999682,0.00043809914,0.0030123603,0.007382523,-0.039392445,-0.25668883,0.0032846127,-0.114706144,-1.1662762,-1.3654467,-7.2197645e-06,2.1770817e-05,-5.3870413e-06,0.0016891112,0.0002530686,0.00033155887,0.01890175,-0.270307,0.49876556,0.0,0.0,0.0,0.0,0.0,0.0,7.485168e-08,0.0006331487,0.00906962,9.463751e-07,1.0935881e-05,1.0304492e-05,6.874358e-05,0.008324718,0.008317615,0.00454307,0.0014114204,0.0014106252,0.0023244151,1.2274878e-11,1.22751575e-11,2.198394e-11,5.3200484e-08,6.8645846e-08,5.0000086e-08,0.0,0.0,0.0,0.0,0.0,0.0,0.0,0.0,5275,0.05312293,0.04821219,0.013683152,0.0,0.06273962,0.0013897255,0.0,0.004200487,0.0,0.000168,0,0,0,895,0,0,0,0
1416344814,-0.9999592,0.0025730084,0.0042748866,0.0075312494,-0.027563844,-0.24867404,0.0043145274,-0.1186807,-1.2113427,-1.3651139,-7.202516e-06,2.1849473e-05,-5.378124e-06,0.0016891217,0.00025305935,0.00033207677,0.01890175,-0.270307,0.49876556,0.0,0.0,0.0,0.0,0.0,0.0,7.216704e-08,0.0006412476,0.009327355,9.459527e-07,1.1024473e-05,1.0391157e-05,6.85992e-05,0.005763809,0.0057601677,0.0044970517,0.0012092537,0.0012085234,0.0022440972,1.2302839e-11,1.23030865e-11,2.1963053e-11,5.3201372e-08,6.864668e-08,5e-08,0.0,0.0,0.0,0.0,0.0,0.0,0.0,0.0,5275,0.049170896,0.0473719,0.015383025,0.0,0.021958683,0.0026754923,0.0,0.0005670781,0.0,0.000207,0,0,0,895,0,0,0,0
1416749753,-0.9999497,0.004003664,0.0028820494,0.00874639,-0.01633759,-0.25751796,0.0023238566,-0.1256459,-1.3193741,-1.3698857,-7.2186385e-06,2.1843865e-05,-5.366095e-06,0.001689136,0.00025302125,0.0003371705,0.01890175,-0.270307,0.49876556,0.0,0.0,0.0,0.0,0.0,0.0,5.316914e-08,0.0005991369,0.008708487,9.4916714e-07,1.1031437e-05,1.0398398e-05,6.8549e-05,0.0046003778,0.004599117,0.004472331,0.0012380171,0.0012373127,0.0021796147,1.2278286e-11,1.2278385e-11,2.1957193e-11,5.3203195e-08,6.8648355e-08,5e-08,0.0,0.0,0.0,0.0,0.0,0.0,0.0,0.0,5275,0.049752686,0.046686344,0.014375608,0.0,0.032737266,0.018488672,0.0,0.0043295184,0.0,0.000344,0,0,0,895,0,0,0,0
1416953623,-0.9999417,0.004240288,0.0030341735,0.00945945,-0.014815806,-0.25006527,0.006222944,-0.12707183,-1.3616871,-1.3695662,-7.287417e-06,2.1848733e-05,-5.3322688e-06,0.0016891179,0.00025302844,0.00033746863,0.01890175,-0.270307,0.49876556,0.0,0.0,0.0,0.0,0.0,0.0,4.4547942e-08,0.0005778945,0.0084410375,9.51328e-07,1.0955986e-05,1.0322604e-05,6.864833e-05,0.0045362213,0.004535962,0.004445423,0.0011653256,0.0011649281,0.0021576516,1.2226407e-11,1.2226594e-11,2.196776e-11,5.3204086e-08,6.864917e-08,5.000008e-08,0.0,0.0,0.0,0.0,0.0,0.0,0.0,0.0,5275,0.048272703,0.04645053,0.025360191,0.0,0.047789697,0.005121125,0.0,0.0074573895,0.0,0.000214,0,0,0,895,0,0,0,0
1417154395,-0.99994504,0.004234219,0.002596283,0.009238995,-0.018944494,-0.25940773,0.010100943,-0.13332249,-1.4118956,-1.3683484,-7.2477783e-06,2.1801208e-05,-5.3189165e-06,0.0016891094,0.00025302684,0.00033787434,0.01890175,-0.270307,0.49876556,0.0,0.0,0.0,0.0,0.0,0.0,3.9654477e-08,0.00057588355,0.008537867,9.49518e-07,1.0647273e-05,1.00138195e-05,6.871368e-05,0.0044674384,0.0044671795,0.0043967566,0.0011823588,0.0011819642,0.00211489,1.2067302e-11,1.2067351e-11,2.1976275e-11,5.3204975e-08,6.8649975e-08,5.0000143e-08,0.0,0.0,0.0,0.0,0.0,0.0,0.0,0.0,5275,0.048624303,0.045987934,0.007646763,0.0,0.013248907,0.008160399,0.0,0.005373474,0.0,0.000186,0,0,0,895,0,0,0,0
1417354446,-0.99994004,0.003791675,0.003220517,0.00976661,-0.028665101,-0.2532117,0.009295059,-0.14428729,-1.4603033,-1.3692406,-7.3150372e-06,2.1726482e-05,-5.261122e-06,0.0016891289,0.0002530066,0.00034026033,0.01890175,-0.270307,0.49876556,0.0,0.0,0.0,0.0,0.0,0.0,4.1291127e-08,0.00056529196,0.008346751,9.505488e-07,1.0218474e-05,9.584507e-06,6.856462e-05,0.0042681415,0.004268114,0.0043560667,0.0010889337,0.0010886224,0.0020778968,1.1857098e-11,1.1857111e-11,2.1956818e-11,5.3205873e-08,6.86508e-08,5.0000036e-08,0.0,0.0,0.0,0.0,0.0,0.0,0.0,0.0,5275,0.04666429,0.045583952,0.010636568,0.0,0.028766608,0.008801279,0.0,0.0023216563,0.0,0.000239,0,0,0,895,0,0,0,0
1417559239,-0.9999259,0.003923148,0.004316587,0.010690242,-0.036172286,-0.2477869,0.007623106,-0.15906666,-1.5078869,-1.3695847,-7.3907013e-06,2.1604239e-05,-5.217309e-06,0.001689163,0.00025300603,0.000342103,0.01890175,-0.270307,0.49876556,0.0,0.0,0.0,0.0,0.0,0.0,3.9109647e-08,0.0005886783,0.008452977,9.537576e-07,9.790889e-06,9.156171e-06,6.862167e-05,0.004250876,0.004250816,0.004311966,0.0011189774,0.0011186401,0.0020404551,1.1650901e-11,1.1650848e-11,2.1964909e-11,5.3206755e-08,6.86516e-08,5.0000107e-08,0.0,0.0,0.0,0.0,0.0,0.0,0.0,0.0,5275,0.04730346,0.0451714,0.020373743,0.0,0.022363145,0.020068813,0.0,0.009272665,0.0,0.000232,0,0,0,895,0,0,0,0
1417763135,-0.9999295,0.0030918985,0.0037441156,0.010837486,-0.045575157,-0.23932298,0.006927712,-0.17693482,-1.5524693,-1.3699895,-7.516477e-06,2.144182e-05,-5.174801e-06,0.0016891928,0.0002530062,0.00034355436,0.01890175,-0.270307,0.49876556,0.0,0.0,0.0,0.0,0.0,0.0,7.97875e-08,0.00061648566,0.00864588,9.5310793e-07,9.311564e-06,8.6771015e-06,6.850566e-05,0.004103015,0.004103006,0.0043128366,0.0010620307,0.0010617493,0.0020411739,1.1427725e-11,1.1427682e-11,2.1949898e-11,5.3207685e-08,6.865244e-08,5.000005e-08,0.0,0.0,0.0,0.0,0.0,0.0,0.0,0.0,5275,0.04608449,0.045179352,0.016594937,0.0,0.016753016,0.005425281,0.0,0.0122957565,0.0,0.000128,0,0,0,895,0,0,0,0
1417963249,-0.99989104,-0.008488107,0.0055760597,0.010716732,-0.036136284,-0.22551031,0.01207609,-0.18231538,-1.6022038,-1.3689345,-7.453077e-06,2.1523449e-05,-5.1553243e-06,0.001689188,0.0002529556,0.00034473732,0.01890175,-0.270307,0.49876556,0.0,0.0,0.0,0.0,0.0,0.0,2.245363e-07,0.00063336093,0.008829712,9.553689e-07,8.939012e-06,8.313618e-06,6.8568705e-05,0.0041332687,0.0041333595,0.0042696693,0.0011076517,0.0011073834,0.002005492,1.1258613e-11,1.1258615e-11,2.1959311e-11,5.3208552e-08,6.865319e-08,5.000007e-08,0.0,0.0,0.0,0.0,0.0,0.0,0.0,0.0,5275,0.047064163,0.04478272,0.003583501,0.0,0.019629939,0.014977666,0.0,0.008221456,0.0,0.000242,0,0,0,895,0,0,0,0
1418167871,-0.9997097,-0.02047488,0.0075219227,0.010241942,-0.010719323,-0.16525829,0.0076599694,-0.1820145,-1.6498307,-1.3656299,-7.281221e-06,2.1685297e-05,-5.1127004e-06,0.0016891614,0.00025287186,0.00034470938,0.01890175,-0.270307,0.49876556,0.0,0.0,0.0,0.0,0.0,0.0,1.6434934e-07,0.00063582713,0.00927729,9.580883e-07,8.619597e-06,8.022201e-06,6.841379e-05,0.0042206626,0.0042198068,0.004246208,0.0011672073,0.0011670997,0.0019800984,1.1120615e-11,1.1120719e-11,2.1942094e-11,5.320943e-08,6.865394e-08,5.000007e-08,0.0,0.0,0.0,0.0,0.0,0.0,0.0,0.0,5275,0.048314665,0.0444983,0.0031777155,0.0,0.016861372,0.00610353,0.0,0.0041682106,0.0,6.3e-05,0,0,0,895,0,0,0,0
1418372005,-0.9997894,-0.017018683,0.006862582,0.009196372,-0.0075051105,-0.09352844,0.0080243,-0.191288,-1.6865093,-1.3621842,-7.1063623e-06,2.1559847e-05,-5.08089e-06,0.0016891087,0.00025295356,0.00034398693,0.01890175,-0.270307,0.49876556,0.0,0.0,0.0,0.0,0.0,0.0,1.3381853e-07,0.0006233072,0.009185437,9.508501e-07,8.256034e-06,7.648106e-06,6.853739e-05,0.0040752594,0.0040702014,0.0042574503,0.0011164537,0.001116519,0.0019884857,1.0961248e-11,1.09613985e-11,2.1957014e-11,5.3210314e-08,6.86547e-08,5.000007e-08,0.0,0.0,0.0,0.0,0.0,0.0,0.0,0.0,5275,0.04725434,0.04459244,0.05249055,0.0,0.06102963,2.1426322e-06,0.0,0.0049057826,0.0,0.000198,0,0,0,895,0,0,0,0
1418776772,-0.99985474,-0.013228008,0.0060631162,0.008873932,0.007345691,0.0042621503,0.0018209454,-0.20086771,-1.7182474,-1.3634793,-6.9207213e-06,2.1437887e-05,-4.980227e-06,0.0016890531,0.00025300463,0.00034786444,0.01890175,-0.270307,0.49876556,0.0,0.0,0.0,0.0,0.0,0.0,8.570997e-08,0.0005679726,0.008712807,9.4532203e-07,7.689895e-06,7.0696956e-06,6.850112e-05,0.0038288103,0.0038197378,0.004182382,0.0010729583,0.0010727886,0.0019299039,1.07242965e-11,1.0724677e-11,2.1950906e-11,5.3212037e-08,6.8656234e-08,5e-08,0.0,0.0,0.0,0.0,0.0,0.0,0.0,0.0,5275,0.046322208,0.043930672,0.008803269,0.0,0.012925963,0.024671637,0.0,0.010702605,0.0,0.000164,0,0,0,895,0,0,0,0
1419181626,-0.9999013,-0.007645374,0.005587243,0.0103795715,0.025516259,0.094034284,0.009679459,-0.1962124,-1.6923993,-1.3639889,-7.0498436e-06,2.1432412e-05,-4.9077457e-06,0.0016890833,0.00025307218,0.00035018128,0.01890175,-0.270307,0.49876556,0.0,0.0,0.0,0.0,0.0,0.0,8.934113e-08,0.0005812156,0.008701724,9.4705183e-07,7.293615e-06,6.664096e-06,6.848334e-05,0.0036905934,0.0036832795,0.0046464615,0.001082886,0.0010822917,0.002362301,1.0570944e-11,1.0572017e-11,2.1949016e-11,5.321381e-08,6.8657926e-08,5e-08,0.0,0.0,0.0,0.0,0.0,0.0,0.0,0.0,5275,0.046531472,0.04860351,0.013715693,0.0,0.013723593,0.002629498,0.0,0.0052588615,0.0,0.000196,0,0,0,895,0,0,0,0
1419382437,-0.9999466,-0.0027600138,0.004731058,0.008761074,0.036089323,0.1180657,0.010126731,-0.1849533,-1.6685363,-1.3626332,-7.133823e-06,2.1500171e-05,-4.8572415e-06,0.001689115,0.00025309273,0.00035081914,0.01890175,-0.270307,0.49876556,0.0,0.0,0.0,0.0,0.0,0.0,1.0357395e-07,0.0005797504,0.008830645,9.378315e-07,7.1371232e-06,6.507174e-06,6.857267e-05,0.0036151258,0.003610119,0.0046054143,0.0010880346,0.001087294,0.0023238405,1.0512525e-11,1.0514036e-11,2.1960213e-11,5.321468e-08,6.865877e-08,5.0000107e-08,0.0,0.0,0.0,0.0,0.0,0.0,0.0,0.0,5275,0.04664042,0.04820623,0.026138943,0.0,0.029695751,0.00087262917,0.0,0.0007199372,0.0,0.00023,0,0,0,895,0,0,0,0
1419586689,-0.9999771,0.0014861576,0.0036781165,0.0054995446,0.043297943,0.11636992,0.008066281,-0.17074549,-1.6485015,-1.3612702,-7.1316704e-06,2.156918e-05,-4.775342e-06,0.0016891119,0.00025308464,0.0003518878,0.01890175,-0.270307,0.49876556,0.0,0.0,0.0,0.0,0.0,0.0,1.14728834e-07,0.00060008914,0.008828851,9.234665e-07,7.0234596e-06,6.3970833e-06,6.845701e-05,0.0036376414,0.0036351848,0.004570148,0.0011110003,0.0011102479,0.0022886293,1.04767445e-11,1.04786535e-11,2.1944125e-11,5.3215576e-08,6.8659666e-08,5.000007e-08,0.0,0.0,0.0,0.0,0.0,0.0,0.0,0.0,5275,0.04713012,0.04783962,0.02838981,0.0,0.04254893,0.001763811,0.0,0.0008976749,0.0,0.000482,0,0,0,895,0,0,0,0
1419787386,-0.9999835,0.0044706156,0.001966758,0.0030248365,0.04144779,0.104186386,0.011450483,-0.16297875,-1.6242282,-1.3607621,-7.1670265e-06,2.1535434e-05,-4.735813e-06,0.0016890957,0.0002530924,0.00035294774,0.01890175,-0.270307,0.49876556,0.0,0.0,0.0,0.0,0.0,0.0,1.0183527e-07,0.0006109275,0.009289011,9.140825e-07,6.8849536e-06,6.2637237e-06,6.857049e-05,0.0034837755,0.0034833648,0.0045666834,0.0010378798,0.0010373878,0.0022872523,1.04275295e-11,1.0429835e-11,2.1959257e-11,5.3216493e-08,6.8660576e-08,5.0000036e-08,0.0,0.0,0.0,0.0,0.0,0.0,0.0,0.0,5275,0.045555104,0.04782523,0.023226112,0.0,0.029639792,0.0027751937,0.0,0.0013224789,0.0,0.000378,0,0,0,895,0,0,0,0
1419991179,-0.9999835,0.0055965083,-0.0006197588,0.0012299952,0.011110343,0.09479303,0.0039697657,-0.16746272,-1.5960256,-1.3613931,-7.294803e-06,2.1404081e-05,-4.728745e-06,0.0016890629,0.00025309483,0.0003544795,0.01890175,-0.270307,0.49876556,0.0,0.0,0.0,0.0,0.0,0.0,7.6762866e-08,0.000588239,0.009370074,9.0804053e-07,6.852902e-06,6.234275e-06,6.845404e-05,0.0037221585,0.0037220675,0.0050095012,0.0010973655,0.0010971071,0.0027682274,1.04282685e-11,1.0430809e-11,2.1938942e-11,5.3217345e-08,6.866143e-08,5e-08,0.0,0.0,0.0,0.0,0.0,0.0,0.0,0.0,5267,0.046845198,0.052613948,0.0015507404,0.0,0.023908839,2.4431434,0.0,1.7030563,0.0,0.000172,0,0,516,895,0,0,0,0
1420196022,-0.9999795,0.006178124,0.0012300052,0.0012340912,0.026125303,0.07860087,0.005146302,-0.18398911,-1.552266,-1.3621998,-7.342991e-06,2.1364876e-05,-4.7013727e-06,0.0016890602,0.00025309555,0.00035608452,0.01890175,-0.270307,0.49876556,0.0,0.0,0.0,0.0,0.0,0.0,7.584341e-08,0.00059968594,0.0089230295,9.077483e-07,6.939701e-06,6.3228026e-06,6.858255e-05,0.020015247,0.020016795,0.0046643633,0.002591808,0.0025918137,0.002521053,1.0491894e-11,1.0494557e-11,2.1956648e-11,5.321827e-08,6.866234e-08,5.0000125e-08,0.0,0.0,0.0,0.0,0.0,0.0,0.0,0.0,5275,0.071997374,0.05021009,0.012641116,0.0,0.012215119,0.002962507,0.0,0.0041699912,0.0,0.000214,0,0,0,895,0,0,0,0
1420395984,-0.9999687,0.0070551317,0.001741004,0.0031579381,0.012910825,0.07589936,0.006005175,-0.17599688,-1.5297682,-1.3633355,-7.3554534e-06,2.1357173e-05,-4.644879e-06,0.0016890402,0.00025309483,0.00035795826,0.01890175,-0.270307,0.49876556,0.0,0.0,0.0,0.0,0.0,0.0,7.052388e-08,0.0005806725,0.009100017,9.122711e-07,7.1020436e-06,6.4865994e-06,6.847086e-05,0.011177481,0.011178991,0.0044955513,0.0015966941,0.0015967271,0.002338859,1.0591914e-11,1.05945365e-11,2.1943088e-11,5.3219164e-08,6.866322e-08,5e-08,0.0,0.0,0.0,0.0,0.0,0.0,0.0,0.0,5275,0.056510363,0.048361752,0.027593907,0.0,0.026760086,0.0037577394,0.0,0.0035054022,0.0,0.000177,0,0,0,895,0,0,0,0
1420596826,-0.99994445,0.008408386,0.0026421342,0.005795041,0.008850615,0.05879392,0.0054031233,-0.17081626,-1.5125554,-1.3642809,-7.3764836e-06,2.1357559e-05,-4.6174455e-06,0.0016890151,0.00025311395,0.00035952296,0.01890175,-0.270307,0.49876556,0.0,0.0,0.0,0.0,0.0,0.0,8.227545e-08,0.00059202994,0.008907768,9.1972834e-07,7.265951e-06,6.6530033e-06,6.856342e-05,0.008708945,0.008709837,0.004414961,0.001480329,0.0014804046,0.0022175221,1.0689543e-11,1.0692132e-11,2.1956973e-11,5.3220045e-08,6.866407e-08,5.000007e-08,0.0,0.0,0.0,0.0,0.0,0.0,0.0,0.0,5275,0.054412622,0.047090575,0.037142012,0.0,0.008403597,0.0038185613,0.0,0.0034113291,0.0,0.000213,0,0,0,895,0,0,0,0
1420800807,-0.99990135,0.010380387,0.0037794036,0.008680215,0.022525437,0.023294736,-0.0013234694,-0.16102706,-1.5042152,-1.3641962,-7.391074e-06,2.1371401e-05,-4.5837573e-06,0.0016890023,0.00025315137,0.0003602592,0.01890175,-0.270307,0.49876556,0.0,0.0,0.0,0.0,0.0,0.0,8.0510475e-08,0.00062293705,0.009210873,9.288006e-07,7.409166e-06,6.799927e-06,6.865095e-05,0.0059756497,0.005975237,0.004392681,0.0012562901,0.0012563805,0.0021465186,1.0775676e-11,1.0778178e-11,2.1972351e-11,5.3220937e-08,6.866493e-08,5.0000175e-08,0.0,0.0,0.0,0.0,0.0,0.0,0.0,0.0,5275,0.050126545,0.046330538,0.02210785,0.0,0.013334711,0.0068356795,0.0,0.0032440845,0.0,0.0002,0,0,0,895,0,0,0,0
